name,latitude,longitude,color,family,subgroup,country
!Xoon [nmn],-50.778,152.999,#998D5C,Tuu,!Kwi,Botswana
/Xam [xam],-44.047,166.812,#9D8662,Tuu,!Kwi,South Africa
||Ani [hnh],-5.472,17.075,#66877D,Khoe,Khoe,Botswana
||Gana [gnk],-39.937,-0.006,#677F6B,Khoe,Khoe,Botswana
Aari [aiw],-14.046,9.974,#348D6C,Afro-Asiatic,Omotic,Ethiopia
Abipon [axb],-20.835,-117.212,#9C4968,Guaicuruan,Southern,Argentina
Abkhaz [abk],-18.336,-51.586,#534768,North-west Caucasus,Abaza-Abkhaz,Georgia
Abma [app],0.587,-154.944,#A86C80,Oceanic,Southern Oceanic,Vanuatu
Abui [abz],35.242,-144.116,#B05CAA,Timor-Alor-Pantar,Alor-Pantar,Indonesia
Abun [kgr],2.922,144.106,#CBB684,West Papuan,Birds Head,Indonesia
Acehnese [ace],-8.386,161.265,#DFA071,Malayo-Polynesian,Malayo-Sumbawan,Indonesia
Achumawi [acv],28.194,-68.845,#6E529A,Palaihnihan,,USA
Adyghe [ady],3.032,-28.541,#2D5384,North-west Caucasus,Circassian,Russia
Adynyamathanha [adt],45.885,4.077,#4B83B5,Pama-Nyungan,Yura,Australia
Adzera [azr],23.867,175.838,#B88498,Oceanic,Western Oceanic,Papua New Guinea
Agarabi [agd],28.966,-32.78,#2445BC,Trans New Guinea,Kainantu,Papua New Guinea
Aghem [agq],-30.663,167.078,#C28F57,Niger-Kongo,Bantoid,Cameroon
Agta [agt],-15.177,168.918,#C18C6D,Malayo-Polynesian,Philippines,Philippines
Aguaruna [agr],13.285,-47.41,#4A4692,Jivaroan,,Peru
Agutaynen [agn],14.298,-149.1,#B1628E,Malayo-Polynesian,Philippines,Philippines
Ai-cham_Diwo [aih],-1.842,132.758,#E5EE7B,Tai-Kadai,South,China
Ainu [ain],19.213,-105.991,#8C5390,Ainu,,Japan
Aka [hru],9.33,18.614,#4D9188,Tibeto-Burman,Hrusish,India
Akan [aka],12.955,-148.146,#AA658B,Niger-Kongo,Kwa,Ghana
Akha [ahk],27.402,103.521,#91C7A5,Tibeto-Burman,Lolo-Burmese,Thailand
Akkadian [akk],-47.048,-56.289,#615144,Afro-Asiatic,Semitic,Iraq
Alabama [akz],25.168,-69.275,#5F29AB,Muskogean,Eastern,USA
Alamblak [amp],-6.904,-55.423,#635579,Sepik,Sepik Hill,Papua New Guinea
Albanian Tosk [als],-83.961,-22.519,#757B14,Indo-European,Albanian,Albania
Aleut [ale],8.993,-26.423,#2F588E,Eskimo-Aleut,Aleut,USA
Alune [alp],21.645,-143.549,#C64CA2,Malayo-Polynesian,Central Maluku,Indonesia
Alyawarr [aly],54.914,34.526,#5C98BC,Pama-Nyungan,Arandic,Australia
Amarasi [aaz],-1.206,-159.712,#CC637E,Malayo-Polynesian,Timoric,Indonesia
Ambae_West [omb],11.898,-155.604,#C0628F,Oceanic,Southern Oceanic,Vanuatu
Ambai [amk],2.307,-163.565,#CA6983,Malayo-Polynesian,Eastern Malayo-Polynesian,Indonesia
Ambonese Malay [abs],0.986,142.332,#D2BF81,Malayo-Polynesian,Malayo-Sumbawan,Indonesia
Amdo [adx],31.536,51.375,#47C6B7,Tibeto-Burman,Bodic,China
Amele [aey],25.765,-116.47,#8D638F,Trans New Guinea,Madang,Papua New Guinea
Amharic [amh],-49.978,-35.08,#495930,Afro-Asiatic,Semitic,Ethiopia
Amis [ami],-7.251,-175.198,#B17B79,Austronesian,East Formosan,Taiwan
Amoy [nan],-14.528,113.166,#A5D767,Tibeto-Burman,Sinitic,China
Anejom [aty],14.954,-165.677,#D06B96,Oceanic,Southern Oceanic,Vanuatu
Anem [anz],14.351,177.939,#BE828F,Anem,,Papua New Guinea
Angas [anc],-11.599,160.945,#D19C6E,Afro-Asiatic,Chadic,Nigeria
Anguthimri [xxx-3],29.44,38.351,#4CA8A4,Pama-Nyungan,North Cape York,Australia
Anindilyagwa [aoi],26.049,-84.433,#7A4C99,Anindilyagwa,,Australia
Anong [nun],2.271,73.124,#6AC682,Tibeto-Burman,Nungish,China
Ao [njo],42.088,62.84,#5EC0C1,Tibeto-Burman,Kuki-Chin-Naga,India
Apalai [apy],27.905,-85.338,#7829AD,Cariban,Apalai,Brazil
Apatani [apt],9.586,48.265,#49BC8D,Tibeto-Burman,Tani,India
Apurinã [apu],-13.094,-105.897,#904471,Arawak,South-Southwest,Brazil
Arabana [ard],27.793,30.127,#38A9AB,Pama-Nyungan,Karnic,Australia
Arabic [arb],-50.396,-102.111,#8E3B2B,Afro-Asiatic,Semitic,Saudi Arabia
Arabic_Abha [acw-4],-48.496,-108.587,#983729,Afro-Asiatic,Semitic,Saudi Arabia
Arabic_Afghanistan [acm-3],-53.633,-52.403,#625A3F,Afro-Asiatic,Semitic,Afghanistan
Arabic_Basra [acm],-66.225,-93.595,#81633F,Afro-Asiatic,Semitic,Iraq
Arabic_Bukhara [abh],-53.147,-25.345,#4F6838,Afro-Asiatic,Semitic,Uzbekistan
Arabic_Egyptian [arz],-43.494,-127.803,#B23F32,Afro-Asiatic,Semitic,Egypt
Arabic_Gulf [afb],-55.769,-126.13,#9F5430,Afro-Asiatic,Semitic,United Arab Emirates
Arabic_Harb [acw-5],-60.637,-120.219,#9C4F1B,Afro-Asiatic,Semitic,Saudi Arabia
Arabic_Khuzestan [acm-2],-53.987,-117.104,#9E4424,Afro-Asiatic,Semitic,Iran
Arabic_Moroccan [ary],-49.871,-116.458,#A23A24,Afro-Asiatic,Semitic,Morocco
Arabic_Sudanese [apd],-47.192,-120.776,#A24637,Afro-Asiatic,Semitic,Sudan
Arabic_Syrian [apc],-55.532,-120.114,#A04821,Afro-Asiatic,Semitic,Syria
Arabic_Tunisian [aeb],-52.975,-94.235,#843E29,Afro-Asiatic,Semitic,Tunisia
Arandai [jbj],26.154,-45.972,#53519F,Trans New Guinea,South Birds Head,Indonesia
Araona  [aro],31.23,-49.803,#5850A5,Tacanan,Araona-Tacana,Bolivia
Archi [aqc],-10.396,-18.18,#26626E,Nakh-Daghestanian,Lezgic,Russia
Arguni [agf],29.932,165.33,#C090A6,Malayo-Polynesian,Eastern Malayo-Polynesian,Indonesia
Arizona Tewa [tew],34.863,-58.759,#6452A5,Kiowa-Tanoan,Tewa-Tiwa,USA
Armenian [hye],-52.312,-5.068,#417A2E,Indo-European,Armenian,Armenia
Arop-Lokep [apr],28.056,-169.355,#BA749F,Oceanic,Western Oceanic,Papua New Guinea
Arrernte_Central [are],53.913,24.373,#5394C3,Pama-Nyungan,Arandic,Australia
Arrernte_Mparntwe [aer],52.911,42.714,#639AB3,Pama-Nyungan,Arandic,Australia
Asheninka_Apurucayali [cpc],11.062,-83.192,#783E8C,Arawak,South-Southwest,Peru
Asmat [asc],30.764,-71.809,#6F4D9F,Trans New Guinea,Asmat-Kamoro,Indonesia
Assamese [asm],-28.198,19.021,#289E4E,Indo-European,Indo-Iranian,India
Ata [ata],10.312,-129.35,#BC3691,Ata,,Papua New Guinea
Atayal [tay],0.596,176.197,#BD8480,Austronesian,Atayalic,Taiwan
Athpare [aph],5.21,-29.866,#3A5887,Tibeto-Burman,Kiranti,Nepal
Atong [aot],15.023,39.007,#4BAA92,Tibeto-Burman,Bodo-Garo,India
Atsugewi [atw],13.403,-49.204,#645F8A,Palaihnihan,,USA
Awa [awb],17.24,-28.989,#34559A,Trans New Guinea,Kainantu,Papua New Guinea
Awa Pit [kwi],-25.405,-11.162,#34715B,Barbacoan,Northern,Ecuador
Awar [aya],35.315,57.106,#5FB1A9,Lower Sepik-Ramu,Ramu,Papua New Guinea
Awtuw [kmn],27.48,37.421,#51A39E,Sepik,Ram,Papua New Guinea
Aymara [ayr],-11.377,-31.647,#536475,Aymaran,,Peru
Azerbaijani [azj],-22.085,14.542,#26975A,Turkic,South-west,Azerbaijan
Azeri [azb],-30.415,8.733,#238E49,Turkic,South-west,Azerbaijan
Baagandji [drl],16.636,-13.834,#407093,Pama-Nyungan,Baagandji,Australia
Babungo [bav],-28.31,153.92,#BE9E5A,Niger-Kongo,Bantoid,Cameroon
Badimaya [bia],32.042,31.082,#42A4AC,Pama-Nyungan,Kardu,Australia
Bafut [bfd],-45.937,-167.087,#AA7652,Niger-Kongo,Bantoid,Cameroon
Bagirmi [bmi],2.704,165.923,#BE8F83,Nilo-Saharan,Central_Sudanic,Chad
Bagri [bgq],-38.875,15.176,#249833,Indo-European,Indo-Iranian,India
Bahing [bhj],30.848,-2.643,#347CAD,Tibeto-Burman,Kiranti,Nepal
Bahnar [bdq],1.23,138.262,#DFD482,Austroasiatic,Bahnaric,Vietnam
Bai [bca],-6.221,96.513,#87C278,Tibeto-Burman,Bai,China
Bajau_Semporna [ssb],0.158,179.117,#DE8180,Malayo-Polynesian,Barito,Indonesia
Balangao [blw],3.773,179.36,#C98084,Malayo-Polynesian,Philippines,Philippines
Balanta [ble],-1.318,-142.303,#C7487D,Niger-Kongo,Atlantic,Guinea Bissau
Balantak [blz],16.061,-176.902,#CF7B96,Malayo-Polynesian,Celebic,Indonesia
Balinese [ban],0.762,153.525,#E6B381,Malayo-Polynesian,Malayo-Sumbawan,Indonesia
Balochi [bgp-2],-28.73,22.095,#369D54,Indo-European,Indo-Iranian,Pakistan
Balti [bft],11.336,31.402,#23B895,Tibeto-Burman,Bodic,Pakistan
Bambara [bam],5.551,108.067,#848E81,Mande,Western,Mali
Banda [bnd],23.405,-178.737,#CA7EA0,Malayo-Polynesian,Central Maluku,Indonesia
Bandjalang [bdy],17.932,31.912,#4AA194,Pama-Nyungan,Central-East,Australia
Bandjalang-Gidabal [bdy-3],36.664,28.436,#5596A3,Pama-Nyungan,Central-East,Australia
Banggai [bgz],7.695,-161.529,#C36989,Malayo-Polynesian,Celebic,Indonesia
Banggime [dbb],39.585,119.521,#92A19F,Banggime,,Mali
Banjar [bjn],-7.451,155.416,#DDAA72,Malayo-Polynesian,Malayo-Sumbawan,Indonesia
Bankariya [cdm-2],14.758,20.658,#329D95,Tibeto-Burman,Chepang,Nepal
Bantawa [bap],29.436,-16.38,#2565B5,Tibeto-Burman,Kiranti,Nepal
Baoan [peh],1.894,42.351,#3FBB82,Mongolic,Eastern,China
Barai [bbb],18.66,-75.258,#74558E,Trans New Guinea,Koiari,Papua New Guinea
Baram [brd],18.738,44.1,#34C8A3,Tibeto-Burman,Western Himalayan,Nepal
Barang-barang [lji],5.999,-167.123,#DD6A8A,Malayo-Polynesian,Greater South Sulawesi,Indonesia
Barasano [bsn],-1.062,-37.069,#4B587E,Tucanoan,East,Colombia
Bardi [bcj],53.769,-53.341,#6E68A8,Nyulnyul,West,Australia
Bari [bfa],-15.155,170.29,#BF8A6E,Nilo-Saharan,East_Sudanic,South Sudan
Barupu [wra],27.114,-127.784,#A74DA0,Skou,East,Papua New Guinea
Bashkir [bak],-21.848,16.099,#27995B,Turkic,North-west,Russia
Basque [eus],-32.464,-17.25,#4B6F5D,Basque,,Spain
Batuley [bay],9.747,-161.472,#D5638F,Malayo-Polynesian,Southeast Maluku,Indonesia
Bawm [bgr],31.843,80.092,#78AA9B,Tibeto-Burman,Kuki-Chin-Naga,India
Begak [dbj-2],21.269,169.658,#CA8D9D,Malayo-Polynesian,North Borneo,Malaysia
Beja [bej],-31.3,-35.101,#425452,Afro-Asiatic,Cushitic,Sudan
Belarussian [bel],-68.225,3.955,#53830F,Indo-European,Balto-Slavic,Belarus
Belhare [byw],32.833,-19.95,#2B61BA,Tibeto-Burman,Kiranti,Nepal
Bemba [bem],-18.128,-147.93,#B0616D,Niger-Kongo,Bantoid,Zambia
Bembe [bmb],-25.717,-145.008,#B55A60,Niger-Kongo,Bantoid,Democratic Republic of the Congo
Bende [bdp],-18.368,-147.36,#BF5766,Niger-Kongo,Bantoid,Tanzania
Bengali [ben],-36.904,19.077,#2B9D3D,Indo-European,Indo-Iranian,Bangladesh
Berik [bkl],28.197,-18.353,#5E7492,Trans New Guinea,Tor,Indonesia
Betta_Kurumba [xub],5.719,-5.908,#0C748B,Dravidian,South,India
Bhojpuri [bho],-38.084,14.438,#239735,Indo-European,Indo-Iranian,India
Biak [bhw],0.848,-166.916,#C66F81,Malayo-Polynesian,Eastern Malayo-Polynesian,Indonesia
Bih [rad-2],-0.015,136.057,#E1DD7F,Malayo-Polynesian,Malayo-Sumbawan,Vietnam
Bijago [bjg],-12.701,-131.325,#AA4F71,Niger-Kongo,Atlantic,Guinea Bissau
Bikol [bcl],24.267,178.97,#CA81A1,Malayo-Polynesian,Philippines,Philippines
Biloxi [bll],40.683,-74.269,#6D3DBA,Siouan,Western,USA
Bilua [blb],-4.906,-112.01,#934E7B,Solomons East Papuan,,Solomons
Binandere [bhg],38.336,10.81,#5E869B,Trans New Guinea,Binanderean,Papua New Guinea
Bininj Gun-Wok [gup],15.614,-103.757,#8E4690,Gunwinyku,Marne,Australia
Biri [bzr],15.459,24.556,#50958E,Pama-Nyungan,GreaterMari,Australia
Blackfoot [bla],13.612,-92.679,#85139A,Algic,Algonquian,Canada
Blang [blr],8.368,143.666,#E3C992,Austroasiatic,Palaungic,China
Bobongko [bgb],15.551,178.369,#D98298,Malayo-Polynesian,Celebic,Indonesia
Bokar [adi-2],25.276,69.22,#64C8A4,Tibeto-Burman,Tani,India
Bontok [bnc],-0.32,-179.679,#CC7F7F,Malayo-Polynesian,Philippines,Philippines
Bouyei_west [pcc-2],8.912,141.335,#E8D394,Tai-Kadai,North,China
Brag-g.yab [khg-2],6.416,39.898,#27C98C,Tibeto-Burman,Bodic,China
Brahui [brh],-33.81,-6.178,#3C7852,Dravidian,North,Pakistan
Brao [brb],-1.461,134.826,#DFE07C,Austroasiatic,Bahnaric,Vietnam
Breton [bre],-66.612,-117.988,#965511,Indo-European,Celtic,France
Bribri [bzd],61.314,116.197,#858B98,Chibchan,West,Costa Rica
Brokpa [sgt],22.934,34.865,#3CAEA2,Tibeto-Burman,Bodic,Bhutan
Bugan [bbh],5.158,139.361,#D5C98A,Austroasiatic,Mangic,China
Bugis [bug],-5.986,178.507,#D58277,Malayo-Polynesian,Greater South Sulawesi,Indonesia
Bugun [bgn],3.679,42.003,#4CAE84,Kho-Bwa,Bugun,India
Buin [buo],19.687,-56.843,#584499,East Bougainville,,Papua New Guinea
Bukiyip_Arapesh [ape],-19.476,-148.696,#A9666E,Torricelli,Kombio-Arapesh,Papua New Guinea
Bularnu [yil],24.655,45.272,#4FB19F,Pama-Nyungan,Ngarna,Australia
Bulgarian [bul],-80.276,-0.649,#6C7F0D,Indo-European,Balto-Slavic,Bulgaria
Bumbita_Arapesh [aon],5.449,-153.984,#B66585,Torricelli,Kombio-Arapesh,Papua New Guinea
Bumthang [kjz],17.185,49.439,#36D5A2,Tibeto-Burman,Bodic,Bhutan
Bumthang_Ura [kjz-2],27.115,43.563,#37C5B3,Tibeto-Burman,Bodic,Bhutan
Bunan [bfu],-3.323,16.864,#2B997A,Tibeto-Burman,Western Himalayan,India
Bunaq [bfn],37.385,-161.238,#B06FA6,Timor-Alor-Pantar,Mainland,Indonesia
Bunun [bnn],10.831,-169.805,#CE718F,Austronesian,Bunun,Taiwan
Burarra [bvr],44.641,-90.351,#8051AE,Maningrida,,Australia
Burmese [mya],33.699,71.055,#69C2AE,Tibeto-Burman,Lolo-Burmese,Myanmar
Burmese_Myeik [mya-2],4.689,74.753,#6ACE86,Tibeto-Burman,Lolo-Burmese,Myanmar
Buru [mhs],18.116,148.232,#D0B19E,Malayo-Polynesian,Central Maluku,Indonesia
Burushaski [bsk],-21.65,-13.509,#186755,Burushaski,,Pakistan
Buryat [bxm],-24.779,-2.395,#257C56,Mongolic,Eastern,Russia
Buyang [yha],3.886,138.066,#DED588,Tai-Kadai,North,China
Buyuan Jino [jiy],21.898,91.143,#81D5A2,Tibeto-Burman,Lolo-Burmese,China
Byansi [bee],-7.069,32.75,#31B274,Tibeto-Burman,Western Himalayan,India
Caddo [cad],20.258,-75.079,#661EA5,Caddoan,Caddo,USA
Cahuilla [chl],1.617,-55.325,#533F82,Uto-Aztecan,North,USA
Cakchiquel [ckf],-47.96,-111.566,#944B41,Mayan,Quiche-Mam,Guatemala
Camling [rab],24.06,-21.22,#3261A5,Tibeto-Burman,Kiranti,Nepal
Campa [cni],-1.55,-96.428,#854D7E,Arawak,South-Southwest,Peru
Canela-Krahô [ram],56.031,162.912,#9B88AB,Macro-Je,Je,Brazil
Cantonese [yue],-5.297,111.181,#A0D277,Tibeto-Burman,Sinitic,China
Capanahua [kaq],15.667,-22.986,#396195,Panoan,Main,Peru
Car [caq],-18.269,135.861,#ADAB6B,Austroasiatic,Nicobar,India
Carib [car],11.085,-66.354,#67488B,Cariban,Guianan,Guyana
Catalan [cat],-86.369,57.087,#7C860C,Indo-European,Romance,Spain
Cayuvava [cyb],-19.023,-129.621,#B34163,Cayuvava,,Bolivia
Cebuano [ceb],6.256,179.523,#BE8086,Malayo-Polynesian,Philippines,Philippines
Chadong [cdy],4.431,121.893,#BFE589,Tai-Kadai,South,China
Cham_Eastern [cjm],4.665,136.051,#DAD78A,Malayo-Polynesian,Malayo-Sumbawan,Vietnam
Cham_Western [cja],1.361,139.832,#E1D283,Malayo-Polynesian,Malayo-Sumbawan,Cambodia
Chamorro [cha],-17.996,-177.896,#CB7D67,Malayo-Polynesian,Chamorro,Guam
Chantyal [chx],12.221,43.943,#2FCE98,Tibeto-Burman,Bodic,Nepal
Chechen [che],-16.267,-2.858,#257B65,Nakh-Daghestanian,Nakh,Russia
Chemehuevi [ute-3],-5.238,-17.49,#4C6F7B,Uto-Aztecan,North,USA
Chepang [cdm],21.684,28.4,#40A29C,Tibeto-Burman,Chepang,Nepal
Cherokee [chr],29.548,-88.743,#7E37A8,Iroquoian,Southern,USA
Chickasaw [cic],35.219,-86.728,#7C49A6,Muskogean,Western,USA
Chimariko [cid],8.849,-53.502,#54458B,Chimariko,,USA
Chin_Daai [dao],44.727,71.39,#75A0A2,Tibeto-Burman,Kuki-Chin-Naga,Myanmar
Chin_Falam [cfm],34.549,14.827,#5F8897,Tibeto-Burman,Kuki-Chin-Naga,Myanmar
Chin_Tiddim [ctd],56.391,114.177,#90A4BB,Tibeto-Burman,Kuki-Chin-Naga,Myanmar
Chinook [chh],-15.2,-104.097,#92376B,Chinook,,USA
ChiNyanja [nya],-22.755,-158.378,#C7635F,Niger-Kongo,Bantoid,Malawi
Chiricahua [apm],-4.399,-91.481,#81397A,Dene-Yeniseic,Na-Dene,USA
Chitimacha [ctm],21.832,-59.848,#665394,Totozoquean-Chitimacha,Chitimacha,USA
Chittagong [ben-2],-30.905,34.85,#2ABB41,Indo-European,Indo-Iranian,Bangladesh
Chöcangacakha [cgk],17.765,51.099,#3ED0A1,Tibeto-Burman,Bodic,Bhutan
Choctaw [cho],35.86,-78.804,#7448A9,Muskogean,Western,USA
Cholon [cht],11.322,-66.843,#633E8E,Cholon,,Peru
Chontal [chd],-59.499,-120.763,#935F3F,Mayan,Chol-Tzeltal,Mexico
Chrau [crw],4.416,139.283,#E1D389,Austroasiatic,Bahnaric,Vietnam
Chukchi [ckt],16.482,-9.315,#4E778E,Chukotko-Kamchatkan,Main,Russia
Chumash [boi],-35.386,-105.179,#8C505C,Chumash,,USA
Chuvash [chv],-4.749,-0.522,#1A7F77,Turkic,Oghur,Russia
CiLuba [lua],-24.29,-143.764,#C94956,Niger-Kongo,Bantoid,Democratic Republic of the Congo
Classical Malay [xxx-96],-10.463,161.449,#D89D6E,Malayo-Polynesian,Malayo-Sumbawan,Malaysia
Coahuilteco [xxx-6],23.364,-73.498,#6935A1,Coahuilteco,,USA
Cocopa [coc],26.564,-66.822,#5A28AF,Yuman-Cochimi,Yuman,USA
Coeur d'Alene [crd],-10.856,-107.258,#953971,Salish,Interior,USA
Cogtse Gyarong [jya],-3.556,-15.746,#52737D,Tibeto-Burman,Qiangic,China
Comanche [com],2.337,-32.688,#4A5D82,Uto-Aztecan,North,USA
Comox [coo],-29.128,-98.666,#8B3556,Salish,Central,Canada
Coos [csz],-26.655,-84.657,#793B5D,Coos,,USA
Cora [crn],-19.295,-79.848,#713063,Uto-Aztecan,South,Mexico
Cornish [cor],-75.447,-172.045,#967C27,Indo-European,Celtic,Britain
Cree_Plains [crk],9.236,-109.792,#9C318D,Algic,Algonquian,Canada
Cree_Woods [cwd],0.971,-98.688,#8A3981,Algic,Algonquian,Canada
Creek [mus],29.128,-64.278,#582DB2,Muskogean,Eastern,USA
Crow [cro],29.631,-86.418,#7A2AB0,Siouan,Western,USA
Cua [cua],-1.009,131.943,#D7E17D,Austroasiatic,Bahnaric,Vietnam
Cubeo [cub],-1.238,-33.654,#3C537E,Tucanoan,Cubeo,Colombia
Cupeño [cup],4.072,-35.623,#2C4487,Uto-Aztecan,North,USA
Czech [ces],-60.448,-2.421,#487D1D,Indo-European,Balto-Slavic,Czech Republic
Dadua [gal-2],-4.024,-169.165,#CB717A,Malayo-Polynesian,Timoric,Timor leste
Daga [dgz],28.94,-91.751,#815696,Trans New Guinea,Southeast,Papua New Guinea
Dagaare [dga],-5.682,139.419,#B7AF78,Niger-Kongo,Gur,Burkina Faso
Dagur [dta],-31.023,26.334,#3CA152,Mongolic,Eastern,China
Dakpa [dka],12.237,50.091,#42C994,Tibeto-Burman,Bodic,Bhutan
Damal [uhn],41.248,-38.671,#4F59B6,Damal,,Indonesia
Damar_West [drn],9.813,-152.014,#B9618B,Malayo-Polynesian,West Damar,Indonesia
Dameli [dml],-34.854,5.704,#20893C,Indo-European,Indo-Iranian,Pakistan
Damin [xxx-7],29.696,41.14,#5E9D99,Tangkic,,Australia
Dani [dni],40.858,-58.67,#583FC1,Trans New Guinea,Dani,Indonesia
Danish [dan],-65.351,71.841,#73A726,Indo-European,Germanic,Denmark
Darai [dry],-20.532,12.012,#24935C,Indo-European,Indo-Iranian,Nepal
Darma [drd],28.495,24.724,#449BA3,Tibeto-Burman,Western Himalayan,India
Dekwana [mch],18.176,-71.816,#66329A,Cariban,Guianan,Venezuela
Denaina [tfn],25.721,-97.166,#8931A5,Dene-Yeniseic,Na-Dene,USA
Denjongkha [sip],8.601,79.031,#6DE08E,Tibeto-Burman,Bodic,India
Dhao [nfa],-1.605,-175.536,#D6797D,Malayo-Polynesian,Flores-Sawu-Sumba,Indonesia
Dharawal [tbh],37.644,60.353,#5BC0B9,Pama-Nyungan,Yuin,Australia
Dharuk [xxx-8],40.169,-8.064,#4277B4,Pama-Nyungan,Yuin,Australia
Dharumbal [bjy],39.482,43.293,#55A7AF,Pama-Nyungan,Rockhampton,Australia
Dhimal [dhi],-5.975,20.142,#339C77,Tibeto-Burman,Bodic,Nepal
Didinga [did],-23.206,-106.978,#904B68,Nilo-Saharan,Eastern Sudanic,Sudan
Diegueño [dih],25.678,-65.617,#613CA3,Yuman-Cochimi,Yuman,USA
Digaru Mishmi [mhu],14.903,28.072,#3CA394,Tibeto-Burman,Tani,India
Dimasa [dis],37.555,30.288,#5598A5,Tibeto-Burman,Bodo-Garo,India
Dime [dim],-34.292,17.917,#3D9550,Afro-Asiatic,Omotic,Ethiopia
Dimili [diq],-42.583,3.646,#308537,Indo-European,Indo-Iranian,Turkey
Dingri [bod-4],22.069,42.169,#3DBCA4,Tibeto-Burman,Bodic,China
Diola [dyo],-13.066,-145.356,#C64F6C,Niger-Kongo,Atlantic,Senegal
Diyari [dif],58.418,13.037,#5F87B6,Pama-Nyungan,Karnic,Australia
Djabugay [dyy],26.668,40.395,#49AEA4,Pama-Nyungan,Yidinic,Australia
Djambarrpuyngu [djr],41.813,45.037,#58A7B1,Pama-Nyungan,Yolngu,Australia
Djapu [duj],42.223,50.769,#65A0A6,Pama-Nyungan,Yolngu,Australia
Djaru [ddj],46.545,29.817,#5598B3,Pama-Nyungan,Ngumbin-Yapa,Australia
Djinang [dji],30.153,38.986,#53A4A1,Pama-Nyungan,Yolngu,Australia
Djingili [jig],48.399,-41.97,#686AA3,Mirndi,Barkly,Australia
Dobel [kvo],18.042,-139.153,#BF499B,Malayo-Polynesian,Southeast Maluku,Indonesia
Dogon [dbu],42.078,-40.697,#6165A4,Niger-Kongo,Dogon,Mali
Dohoi [otd],-5.344,-166.491,#D86A77,Malayo-Polynesian,Barito,Indonesia
Dolpo [dre],39.115,45.89,#44BDC5,Tibeto-Burman,Bodic,Nepal
Dom [doa],60.739,-51.677,#6F6BAE,Trans New Guinea,Chimbu,Papua New Guinea
Dong [doc],-0.275,132.727,#D2D87F,Tai-Kadai,South,China
Dongwang [khg],22.924,51.811,#45CAA8,Tibeto-Burman,Bodic,China
Doutai [tds],25.864,76.299,#76A693,Lakes Plains,Eastern,Indonesia
Doyayo [dow],-3.797,-141.601,#B5557B,Adamawa-Ubangi,Adamawa,Cameroon
Drehu [dhv],-18.888,156.225,#D6A55F,Oceanic,Southern Oceanic,New Caledonia
Drokpa [bod-5],26.061,40.705,#2FC5B3,Tibeto-Burman,Bodic,China
Dulong [duu],35.952,45.243,#58A8A9,Tibeto-Burman,Nungish,China
Dumaki [dmk],-34.825,28.499,#2DAC3E,Indo-European,Indo-Iranian,Pakistan
Dumi [dus],32.189,1.271,#3D81A9,Tibeto-Burman,Kiranti,Nepal
Dumo [vam],16.894,-170.66,#AF788E,Skou,West,Papua New Guinea
Dura [drq],-4.562,48.982,#3DCC77,Tibeto-Burman,Dura,Nepal
Dutch [nld],-80.418,29.282,#6F8910,Indo-European,Germanic,Netherlands
Dyirbal [dbl],47.882,57.846,#6BA1AB,Pama-Nyungan,Dyirbalic,Australia
Dzongkha [dzo],14.293,28.904,#2FAC97,Tibeto-Burman,Bodic,Bhutan
Edolo [etr],42.772,-20.882,#4F6DB0,Trans New Guinea,Bosavi,Papua New Guinea
Ejagham [etu],-13.897,-164.557,#AC7374,Niger-Kongo,Bantoid,Cameroon
Ekagi [ekg],35.299,-66.482,#694BA8,Trans New Guinea,Wissel Lakes,Indonesia
Elopi [dbf],37.795,124.513,#9EADAA,Lakes Plains,Eastern,Indonesia
Embaloh [emb],11.757,-171.089,#EB6F96,Malayo-Polynesian,Greater South Sulawesi,Indonesia
Embera_Baudo [bdc],33.076,55.575,#6C9C96,Chocoan,Emberá,Colombia
Enggano [eno],-8.392,-165.41,#D06B73,Malayo-Polynesian,Batak-Barrier Islands,Indonesia
English [eng],-81.99,50.095,#748D03,Indo-European,Germanic,Britain
Erzgebirgisch [nds-3],-74.681,-19.8,#66761C,Indo-European,Germanic,Germany
Estonian [est],-63.776,28.585,#5B942B,Uralic,Finnic,Estonia
Eton [eto],-21.292,-152.592,#C65B60,Niger-Kongo,Bantoid,Cameroon
Even [eve],13.932,-4.865,#397A91,Tungusic,North,Russia
Evenki [evn],1.293,-1.03,#307E81,Tungusic,North,Russia
Ewe [ewe],-21.154,-179.69,#C07F66,Niger-Kongo,Kwa,Ghana
Eyak [eya],12.605,-62.266,#61468E,Dene-Yeniseic,Na-Dene,USA
Fang [fan],-27.607,-148.373,#C45656,Niger-Kongo,Bantoid,Equatorial Guinea
Faroese [fao],-66.705,48.972,#5EA60A,Indo-European,Germanic,Denmark
Farsi [pes],-71.544,-49.75,#6E6B2E,Indo-European,Indo-Iranian,Iran
Fasu [faa],39.182,-22.693,#4266B5,Trans New Guinea,Kutubuan,Papua New Guinea
Fijian [fij],-2.167,-173.755,#C9777D,Oceanic,Central Pacific,Fiji
Finnish [fin],-64.272,10.185,#5A8631,Uralic,Finnic,Finland
Fordata [frd],24.35,-163.585,#D467A7,Malayo-Polynesian,Southeast Maluku,Indonesia
Fore [for],22.757,-44.844,#3E3EA6,Trans New Guinea,Gorokan,Papua New Guinea
French [fra],-81.105,102.546,#849303,Indo-European,Romance,France
Frisian [frs],-71.653,57.926,#6D9E14,Indo-European,Germanic,Netherlands
Fula [fuh],-7.934,-140.439,#B35576,Niger-Kongo,Atlantic,Guinea
Fulniô [fun],34.617,-45.409,#5555A9,Macro-Je,Yate,Brazil
Fur [fvr],17.971,52.332,#699C8B,Nilo-Saharan,Fur,Sudan
Futuna_West [fut-2],-4.66,149.452,#C3A779,Oceanic,Central Pacific,Vanuatu
Fuyuge [fuy],55.378,30.083,#6C8B9F,Trans New Guinea,Goilala,Papua New Guinea
Fuzhou [cdo],-5.836,103.453,#95D976,Tibeto-Burman,Sinitic,China
Ga'anda [gqa],-9.766,-141.539,#AE5B75,Afro-Asiatic,Chadic,Nigeria
Gaagudju [gbu],38.082,-114.517,#9453A6,Gaagudju,,Australia
Gaahmg [tbi-2],-33.276,176.398,#B7835B,Nilo-Saharan,East_Sudanic,Sudan
Gabigabi [xxx-11],41.014,58.254,#5CB8B9,Pama-Nyungan,WakaKabic,Australia
Gadsup [gaj],19.868,-34.567,#3D519D,Trans New Guinea,Kainantu,Papua New Guinea
Gahuku [gah],13.478,-44.119,#383A97,Trans New Guinea,Gorokan,Papua New Guinea
Galela [gbi],31.77,-154.302,#BE61AB,West Papuan,North Halmahera,Indonesia
Galo [adi],49.888,31.222,#5997B4,Tibeto-Burman,Tani,India
Galolen [gal],16.159,-171.369,#C37593,Malayo-Polynesian,Timoric,Timor leste
Gamilaraay [kld-2],20.172,37.028,#4DA697,Pama-Nyungan,,Australia
Garawa [gbc],49.496,57.569,#72959E,Wanyi-Garrwa,,Australia
Garo [grt],49.882,31.631,#5997B6,Tibeto-Burman,Bodo-Garo,India
Gathang [kda],34.676,44.542,#51ADAD,Pama-Nyungan,Yuin,Australia
Gayo [gay],3.715,174.432,#E08986,Malayo-Polynesian,Batak-Barrier Islands,Indonesia
Gbaya-Kara [gya],8.696,167.331,#CB918B,Adamawa-Ubangi,Ubangi,Central African Republic
Gbaya-Mbodomo [mdo],-25.42,166.316,#B28C67,Adamawa-Ubangi,Ubangi,Central African Republic
Gbeya_Bossangoa [gbp],-30.267,174.113,#BB865D,Adamawa-Ubangi,Ubangi,Central African Republic
Gelao [gio],-1.357,130.74,#CFDC7D,Tai-Kadai,North,China
Georgian [kat],-46.213,-4.309,#447B42,Kartvelian,Georgian,Georgia
German [deu],-73.629,35.646,#629504,Indo-European,Germanic,Germany
German_Swiss [gsw],-68.368,45.98,#649C1A,Indo-European,Germanic,Switzerland
Ghale [ghe],15.877,38.793,#26C8A0,Tibeto-Burman,Ghale,Nepal
Gikuyu [kik],-17.526,-149.303,#C65566,Niger-Kongo,Bantoid,Kenya
Gitksan [git],-27.201,-131.809,#9C606A,Tsimshian,,Canada
Gojri [gju],-34.609,9.691,#22903E,Indo-European,Indo-Iranian,India
Golden Palaung [pll],-9.418,135.076,#DDDC6A,Austroasiatic,Palaungic,Myanmar
Golin [gvf],52.651,-45.722,#6464B3,Trans New Guinea,Chimbu,Papua New Guinea
Gondi [gno],-21.629,22.742,#16AC52,Dravidian,South-central,India
Gooniyandi [gni],59.715,-106.174,#8766AD,Bunuban,,Australia
Gorontalo [gor],7.674,-177.931,#D37C8B,Malayo-Polynesian,Philippines,Indonesia
Gorum [pcj],0.341,-25.795,#385D80,Austroasiatic,Munda,India
Grebo [gry],-22.777,143.086,#9D9670,Niger-Kongo,Kru,Liberia
Greek [ell],-79.62,-17.873,#6A7905,Indo-European,Greek,Greece
Green_Hmong [hnj],-20.88,132.527,#CBD155,Hmong-Mien,Hmongic,China
Greenlandic [kal],18.14,-42.493,#3A409F,Eskimo-Aleut,Eskimo,Greenland (Denmark)
Gtaq [gaq],21.087,-13.944,#457197,Austroasiatic,Munda,India
Gtob [gbj],19.313,-16.505,#466E95,Austroasiatic,Munda,India
Guajajara [gub],37.054,-117.492,#A13FB6,Tupi,Tupi-Guarani,Brazil
Guajira [guc],2.651,-127.245,#B13F83,Arawak,North,Colombia
Guarani [gug],19.737,-130.9,#9F5B91,Tupi,Tupi-Guarani,Paraguay
Gubeeher [bcb],-7.668,-134.817,#BC4274,Niger-Kongo,Atlantic,Senegal
Gujarati [guj],-44.92,22.517,#27A420,Indo-European,Indo-Iranian,India
Gumbaynggir [kgs],59.375,16.042,#5B8ABF,Pama-Nyungan,Central-East,Australia
Gününa Yajich [xxx-41],-23.153,-47.774,#6E6D75,Chonan,,Argentina
Gureng Gureng [gnr],37.872,48.391,#5DA7A8,Pama-Nyungan,Central-East,Australia
Gurr-goni [gge],51.866,-83.586,#7C5FAA,Maningrida,,Australia
Gurung [gvr],20.768,48.796,#3ACFA7,Tibeto-Burman,Bodic,Nepal
Guugu Yimidhirr [kky],31.193,42.224,#52A9A5,Pama-Nyungan,Southeast Cape York,Australia
Haa Zongkha [dzo-2],14.032,49.561,#3BD09A,Tibeto-Burman,Bodic,Bhutan
Haida [hdn],11.202,1.095,#778081,Haida,,Canada
Hajong [haj],6.237,41.272,#36C08A,Indo-European,Indo-Iranian,India
Hakha_Lai [cnh],40.726,95.404,#84ADA7,Tibeto-Burman,Kuki-Chin-Naga,Myanmar
Hakka [hak],-9.195,113.298,#A1CC72,Tibeto-Burman,Sinitic,China
Halkomelem [hur],-20.681,-96.828,#8B225C,Salish,Central,Canada
Hanga_Hundi [wos],-10.364,-4.55,#417B74,Sepik,Ndu,Papua New Guinea
Hangzhou [wuu-2],-20.342,110.328,#9FD55E,Tibeto-Burman,Sinitic,China
Harsusi [hss],-73.102,-88.844,#7F621F,Afro-Asiatic,Semitic,Oman
Hatam [had],27.917,178.085,#B9819E,Hatam,,Indonesia
Hausa [hau],-43.216,-157.623,#B96845,Afro-Asiatic,Chadic,Nigeria
Hawaiian [haw],-1.51,158.819,#B0927E,Oceanic,Central Pacific,USA
Hayu [vay],30.285,20.373,#4C93A0,Tibeto-Burman,Kiranti,Nepal
Hebrew [heb],-71.037,-136.135,#9D640A,Afro-Asiatic,Semitic,Israel
Helong [heg],8.886,-178.799,#C97E8B,Malayo-Polynesian,Timoric,Indonesia
Herero [her],-24.582,-146.316,#B95960,Niger-Kongo,Bantoid,Namibia
Hidatsa [hid],28.027,-79.592,#6C14BA,Siouan,Western,USA
Hiligaynon [hil],11.312,171.334,#BF898C,Malayo-Polynesian,Philippines,Philippines
Hill_Madia [mrr],-1.22,-5.989,#1B757D,Dravidian,South-central,India
Hindi [hin],-45.129,23.896,#2AA522,Indo-European,Indo-Iranian,India
Hiw [hiw],22.385,-167.354,#C86F9E,Oceanic,Southern Oceanic,Vanuatu
Hixkaryana [hix],-8.672,-90.101,#803F76,Cariban,Parukotan,Brazil
Hkongso [mro],0.715,105.835,#99DA81,Tibeto-Burman,Mru,Myanmar
Hlai [lic],0.14,123.118,#C4E880,Tai-Kadai,South,China
Hlersu [hle],9.45,83.881,#75E090,Tibeto-Burman,Lolo-Burmese,China
Hmar [hmr],16.434,57.206,#56BF96,Tibeto-Burman,Kuki-Chin-Naga,India
Ho [hoc],8.247,-29.285,#526687,Austroasiatic,Munda,India
Hobyot [hoh],-69.35,-90.665,#805F29,Afro-Asiatic,Semitic,Oman
Holoholo [hoo],-22.866,-154.039,#BF6062,Niger-Kongo,Bantoid,Democratic Republic of the Congo
Hopi [hop],22.626,-29.459,#3D5A9F,Uto-Aztecan,North,USA
Hresuk [adb],14.294,156.548,#D7A698,Malayo-Polynesian,Timoric,Timor leste
Hua [ygr],16.178,-34.455,#374E99,Trans New Guinea,Gorokan,Papua New Guinea
Huastec [hsf],-42.651,-122.597,#A04C48,Mayan,Huastecan,Mexico
Huichol [hch],11.68,-41.392,#434A90,Uto-Aztecan,South,Mexico
Hungarian [hun],-64.148,31.648,#609334,Uralic,Ugric,Hungary
Hunzib [huz],-26.752,-0.467,#217F50,Nakh-Daghestanian,Tsezic,Russia
Hup [jup],25.376,3.206,#518296,Nadahup,,Brazil
Hupa [hup],22.546,-87.417,#7D4D95,Dene-Yeniseic,Na-Dene,USA
I’saka [ksi],29.834,-120.483,#A147A5,Skou,South,Papua New Guinea
Iaai [iai],-15.064,178.033,#DA8367,Oceanic,Southern Oceanic,New Caledonia
Iatmul [ian],14.052,-15.443,#3B6C91,Sepik,Ndu,Papua New Guinea
Iau [tmu],41.649,119.503,#8F9B9C,Lakes Plains,Eastern,Indonesia
Iban [iba],3.207,146.903,#E8C486,Malayo-Polynesian,Malayo-Sumbawan,Malaysia
Icelandic [isl],-68.922,45.502,#5FA008,Indo-European,Germanic,Iceland
Idu Mishmi [clk],35.609,48.589,#5AAAA8,Tibeto-Burman,Tani,India
Ifugao_Batad [ifb],-3.028,-176.699,#C07C7C,Malayo-Polynesian,Philippines,Philippines
Igbo [ibo],-10.031,172.839,#AB8578,Niger-Kongo,Igboid,Nigeria
Iha [ihp],49.271,-59.778,#6552BD,Trans New Guinea,Bomberai,Indonesia
Ik [ikx],-77.583,67.634,#7D8660,Nilo-Saharan,Kuliak,Uganda
Ika [arh],30.025,-29.622,#596A99,Chibchan,East,Colombia
Ilokano [ilo],-25.149,-173.012,#B97864,Malayo-Polynesian,Philippines,Philippines
Imonda [imn],59.213,-40.08,#73759A,Trans New Guinea,Border,Papua New Guinea
Inanwatan [szp],33.878,-84.186,#7838B0,Trans New Guinea,South Birds Head,Indonesia
Indonesian [ind],-6.003,164.903,#E39A75,Malayo-Polynesian,Malayo-Sumbawan,Indonesia
Ingush [inh],-13.544,7.435,#208C68,Nakh-Daghestanian,Nakh,Russia
Iñupiaq [esi],15.316,-34.369,#2C469B,Eskimo-Aleut,Eskimo,USA
Irabu_Ryukyu [mvi-3],16.446,21.271,#2F9F99,Japonic,Ryukyuan,Japan
Iraqw [irk],-69.702,-161.536,#8C7B5D,Afro-Asiatic,Cushitic,Tanzania
Irarutu [irh],6.553,-155.578,#CA5E89,Malayo-Polynesian,Eastern Malayo-Polynesian,Indonesia
Irish [gle],-70.527,-142.231,#9A6B21,Indo-European,Celtic,Ireland
Irula [iru],-8.182,3.702,#128770,Dravidian,South,India
Italian [ita],-83.772,127.874,#888A00,Indo-European,Romance,Italy
Itelmen [itl],-18.03,-32.217,#445A69,Chukotko-Kamchatkan,Main,Russia
Ivatan_Southern [ivv],12.223,169.66,#C38C8E,Malayo-Polynesian,Bashiic,Philippines
Izi [izi],-0.608,136.874,#D2CD7E,Niger-Kongo,Igboid,Nigeria
Jacaltec [jac],-19.002,-126.653,#B03F64,Mayan,Kanjobal-Chuj,Guatemala
Jahai [jhi],-5.433,176.14,#CA8478,Austroasiatic,Aslian,Malaysia
Jambi Malay [jax],1.272,165.649,#F39D82,Malayo-Polynesian,Malayo-Sumbawan,Indonesia
Jaminjung [djd],39.573,-40.921,#4C53B8,Mirndi,West,Australia
Jamul Tiipay [dih-2],34.429,-87.309,#7D45A8,Yuman-Cochimi,Yuman,USA
Japanese [jpn],-16.294,24.842,#47996D,Japonic,Japanese,Japan
Jaqaru [jqr],-9.573,-21.494,#346272,Aymaran,,Peru
Javanese [jav],-4.593,159.762,#EBA776,Malayo-Polynesian,Javanic,Indonesia
Jebero [jeb],10.341,-75.141,#6F418B,Cahuapanan,,Peru
Jero [jee],27.298,3.315,#2885AC,Tibeto-Burman,Kiranti,Nepal
Jiaomuzu [qxs-2],12.565,18.622,#598C89,Tibeto-Burman,Qiangic,China
Jibbali [shv],-73.573,-100.835,#866012,Afro-Asiatic,Semitic,Oman
Jingpho [kac],12.102,100.778,#94E996,Tibeto-Burman,Jingpho,Myanmar
Jirel [jul],8.339,19.21,#1DA28F,Tibeto-Burman,Bodic,Nepal
Jivaro [jiv],-18.071,-8.776,#397568,Jivaroan,,Ecuador
Jomang [tlo],29.981,-172.512,#B5799E,Kordofanian,Talodi,Sudan
Jru [lbo],11.622,146.36,#F1CB9C,Austroasiatic,Bahnaric,Laos
Ju|'hoan [ktz],-3.336,152.928,#D1A97A,Kx'aa,,Namibia
Juang [jun],4.469,-22.29,#426685,Austroasiatic,Munda,India
Juba_Arabic [apd-2],-6.02,142.913,#CFBC75,Afro-Asiatic,Semitic,Sudan
Kabardian [kbd],5.257,-42.907,#323789,North-west Caucasus,Circassian,Russia
Kabyle [kab],-51.927,-111.036,#984029,Afro-Asiatic,Berber,Algeria
Kadazan [kzj],-8.172,169.705,#C08B76,Malayo-Polynesian,North Borneo,Malaysia
Kaera [xxx-111],52.217,-166.358,#A676B3,Timor-Alor-Pantar,Alor-Pantar,Indonesia
Kagoshima [jpn-5],2.77,26.957,#3DA183,Japonic,Japanese,Japan
Kaike [kzq],23.904,27.82,#27AEAC,Tibeto-Burman,Bodic,Nepal
Kairiru [kxa],34.217,-153.108,#B863AA,Oceanic,Western Oceanic,Papua New Guinea
Kakua [cbv],19.741,-30.264,#264BA5,Nadahup,,Brazil
Kala Lagaw Ya [mwp],13.172,55.146,#4ACC95,Pama-Nyungan,Torres Strait,Australia
Kalam [kmh],43.8,-20.757,#61749E,Trans New Guinea,Madang,Papua New Guinea
Kalami [gwc],-33.87,24.743,#30A445,Indo-European,Indo-Iranian,Pakistan
Kalasha [kls],-28.518,10.318,#27904E,Indo-European,Indo-Iranian,Pakistan
Kalkatungu [ktg],41.502,-19.914,#486CB3,Pama-Nyungan,Kalkatungu,Australia
Kalkoti [xka],-23.58,23.419,#23A853,Indo-European,Indo-Iranian,Pakistan
Kalmyk [xal],-21.889,14.083,#3A9163,Mongolic,Eastern,Russia
Kamang [woi],48.704,-145.862,#AB62BB,Timor-Alor-Pantar,Alor-Pantar,Indonesia
Kamba [kam],-22.97,-149.457,#C2585F,Niger-Kongo,Bantoid,Kenya
Kambera [xbr],15.707,-177.004,#E67A9C,Malayo-Polynesian,Flores-Sawu-Sumba,Indonesia
Kambran [bed],22.693,164.06,#B89098,Malayo-Polynesian,Eastern Malayo-Polynesian,Indonesia
Kamoro [kgq],37.34,-60.56,#5433C3,Trans New Guinea,Asmat-Kamoro,Indonesia
Kanakuru [kna],-47.712,-176.665,#A27D59,Afro-Asiatic,Chadic,Nigeria
Kanashi [xns],-17.276,35.564,#3AB165,Tibeto-Burman,Western Himalayan,India
Kangri [xnr],-27.394,11.725,#199549,Indo-European,Indo-Iranian,India
Kannada [kan],-25.388,9.32,#258E54,Dravidian,South,India
Kanoê [kxo],23.813,-58.265,#5840A1,Kanoê,,Brazil
Kanum [kcd],-6.641,-28.319,#476178,South New Guinea,,Indonesia
Kanuri [knc],-24.97,-57.902,#6F6571,Nilo-Saharan,Saharan,Cameroon
Kapampangan [pam],-6.708,-150.02,#BE5B77,Malayo-Polynesian,Philippines,Philippines
Kapau [hmt],14.108,-68.336,#643A92,Trans New Guinea,Angan,Papua New Guinea
Karachay-Balkar [krc],-26.907,12.711,#21954E,Turkic,North-west,Russia
Karaim [kdr],-65.167,22.829,#599026,Turkic,North-west,Lithuania
Karajarri [gbd],39.073,40.872,#4FAAB4,Pama-Nyungan,Marngu,Australia
Karakalpak [kaa],-23.425,8.41,#1E8E55,Turkic,North-west,Uzbekistan
Karas Laut [kgv],13.866,-24.12,#576D8A,Trans New Guinea,Bomberai,Indonesia
Karbi [mjw],50.258,26.607,#5296BD,Tibeto-Burman,Mikir,India
Karen [bwe],8.971,139.558,#E2D494,Tibeto-Burman,Karen,Myanmar
Karen_Geba [kvq],-2.179,143.504,#DEC57B,Tibeto-Burman,Karen,Myanmar
Karen_Pho [pwo],6.044,131.367,#D5E18D,Tibeto-Burman,Karen,Myanmar
Karen_Pho_Kyonbyaw [pwo-3],4.666,147.941,#E9C18A,Tibeto-Burman,Karen,Myanmar
Karen_Sgaw [ksw],1.936,138.324,#DDD384,Tibeto-Burman,Karen,Myanmar
Karo_Batak [btx],-15.535,-175.721,#CE7A6A,Malayo-Polynesian,Batak-Barrier Islands,Indonesia
Karok [kyh],14.154,-68.377,#633893,Karok,,USA
Kashmiri [kas],-37.101,4.387,#228739,Indo-European,Indo-Iranian,India
Kate [kmg],41.507,-53.153,#5E52B2,Trans New Guinea,Finisterre-Huon,Papua New Guinea
Katu [ktv],-1.634,136.216,#D4D17C,Austroasiatic,Katuic,Vietnam
Kaugel [ubu],36.738,-30.449,#4E62AB,Trans New Guinea,Chimbu,Papua New Guinea
Kaulong [pss],23.963,-172.197,#BF779C,Oceanic,Western Oceanic,Papua New Guinea
Kaure [bpp],26.325,-38.621,#414DA7,Trans New Guinea,Kaure,Indonesia
Kawaiisu [xaw],-18.206,-64.246,#664A6C,Uto-Aztecan,North,USA
Kayah_Li [eky],10.497,129.664,#B9C590,Tibeto-Burman,Karen,Myanmar
Kayardild [gyd],32.81,13.133,#4A8CA3,Tangkic,,Australia
Kazakh [kaz],-18.028,4.474,#1C875F,Turkic,North-west,Kazakhstan
Kedang [ksx],20.095,179.2,#CC819B,Malayo-Polynesian,Timoric,Indonesia
Kei [kei],15.884,166.809,#C99195,Malayo-Polynesian,Kei,Indonesia
Kéo [xxk],-1.372,149.413,#EDC07C,Malayo-Polynesian,Flores-Sawu-Sumba,Indonesia
Kera [ker],-15.094,158.451,#B8966F,Afro-Asiatic,Chadic,Chad
Keraq [unr-2],4.977,0.103,#3A8086,Austroasiatic,Munda,India
Kerinci [kvr],-11.025,143.283,#BAAB71,Malayo-Polynesian,Malayo-Sumbawan,Indonesia
Kesui [wah],23.834,-164.274,#CE69A4,Malayo-Polynesian,Central Maluku,Indonesia
Ket [ket],-61.171,-63.591,#776E5D,Dene-Yeniseic,Yeniseic,Russia
Keuw [khh],49.682,119.664,#9CB1C2,Keuw,,Indonesia
Kewa [kew],27.109,0.076,#508098,Trans New Guinea,Engan,Papua New Guinea
Khakas [kjh],-16.19,6.698,#1D8B63,Turkic,North-east,Russia
Khalaj [klj],-35.43,10.921,#3C8C4F,Turkic,South-west,Iran
Khaling [klr],29.362,4.834,#4385A2,Tibeto-Burman,Kiranti,Nepal
Khalkha [khk],-13.967,24.274,#29A668,Mongolic,Eastern,Mongolia
Kham [kgj],10.942,5.571,#2B8890,Tibeto-Burman,Kham,Nepal
Khanty [kca],-19.221,11.437,#5E8674,Uralic,Ugric,Russia
Kharia [khr],-0.913,3.901,#40847E,Austroasiatic,Munda,India
Khasi [kha],-30.409,128.198,#AEBB53,Austroasiatic,Khasic,India
Khengkha [xkf],28.084,50.441,#41CCB4,Tibeto-Burman,Bodic,Bhutan
Khmer [khm],9.178,139.646,#E9D996,Austroasiatic,Khmer,Cambodia
Khmu [kjg],-3.973,136.514,#DBD677,Austroasiatic,Khmuic,Thailand
Khowar [khw],-24.354,10.726,#1C9252,Indo-European,Indo-Iranian,Pakistan
Kija [gia],42.054,-43.439,#474AC6,Jarrakan,,Australia
Kilivila [kij],9.814,-150.774,#D64F91,Oceanic,Western Oceanic,Papua New Guinea
Kiluba [lub],-23.524,-152.356,#CD575A,Niger-Kongo,Bantoid,Democratic Republic of the Congo
Kimaama [kig],61.288,175.463,#9881AC,Kolopom,,Indonesia
Kinnauri [kfk],-14.643,20.359,#3C996D,Tibeto-Burman,Western Himalayan,India
KinyaRwanda [kin],-33.771,-145.105,#C0524B,Niger-Kongo,Bantoid,Rwanda
Kiowa [kio],11.281,-77.94,#723F8D,Kiowa-Tanoan,Kiowa-Towa,USA
Kirghiz [kir],-19.591,1.615,#18825A,Turkic,North-west,Kyrgystan
Kiribati [gil],-8.123,-168.527,#E26B71,Oceanic,Micronesian,Kiribati
Kisi [kss],-8.179,-172.712,#BF7776,Niger-Kongo,Atlantic,Guinea
Kitanemuk [xxx-43],-3.598,-57.779,#65557C,Uto-Aztecan,North,USA
Klamath [kla],-48.96,-31.067,#606C55,Oregon Penutian,,USA
Klon [kyo],47.757,-174.653,#B87ABE,Timor-Alor-Pantar,Alor-Pantar,Indonesia
Koasati [cku],23.767,-65.5,#613CA0,Muskogean,Eastern,USA
Kobon [kpw],63.96,-50.835,#76739F,Trans New Guinea,Madang,Papua New Guinea
Kodagu [kfa],-20.045,16.169,#229B5C,Dravidian,South,India
Koiwai [kwh],17.336,-146.71,#BA5995,Malayo-Polynesian,Koiwai,Indonesia
Kokborok [trp],24.554,14.129,#2D94A6,Tibeto-Burman,Bodo-Garo,India
Kokota [kkk],-28.587,-164.317,#B77060,Oceanic,Western Oceanic,Solomons
Kola [kvv],10.754,-164.262,#D56790,Malayo-Polynesian,Southeast Maluku,Indonesia
Kolami [kfb],-25.386,22.896,#1BAA4C,Dravidian,Central,India
Kolana [kvw],49.206,-136.794,#A061B4,Timor-Alor-Pantar,Alor-Pantar,Indonesia
Kolokuma [ijc],19.699,-13.319,#4B7393,Niger-Kongo,Ijoid,Nigeria
Komo [xom],-25.884,-169.285,#BC7461,Nilo-Saharan,Komuz,Democratic Republic of the Congo
Komodo [knh],0.444,166.525,#E99980,Malayo-Polynesian,Bima,Indonesia
Kongo [kng],-25.316,-157.041,#D55B53,Niger-Kongo,Bantoid,Democratic Republic of the Congo
Konjo [kjc],-0.962,-165.068,#D3697E,Malayo-Polynesian,Greater South Sulawesi,Indonesia
Konkani [knn],-32.167,27.374,#23AF3E,Indo-European,Indo-Iranian,India
Konso [kxc],-62.009,-60.319,#797365,Afro-Asiatic,Cushitic,Ethiopia
Korana [kqz],-38.516,-26.971,#647267,Khoe,Khoe,Botswana
Korean [kor],-14.881,40.911,#45B26B,Korean,,Korea
Korku [kfq],-17.701,15.67,#3F926A,Austroasiatic,Munda,India
Koro [hru-2],18.468,30.905,#4B9F94,Tibeto-Burman,Siangic,India
Koromfe [kfz],-31.39,-169.684,#B4765F,Niger-Kongo,Gur,Burkina Faso
Korowai [khe],11.255,-19.128,#496C8B,Trans New Guinea,Awyu-Dumut,Indonesia
Kosraean [kos],-8.118,170.982,#D38D73,Oceanic,Micronesian,USA Federated States of Micronesia
Koya [kff],-26.657,17.83,#1CA04B,Dravidian,South-central,India
Koyi [kkt],26.85,-9.991,#3172A8,Tibeto-Burman,Kiranti,Nepal
Koyra Chiini [khq],-8.389,167.162,#B98D77,Nilo-Saharan,Songhai,Mali
Kpelle [xpe],-41.311,-162.213,#9C7665,Mande,Western,Liberia
Krongo [kgo],3.029,-172.455,#B07982,Kordofanian,Katla,Sudan
Ku Waru [xxx-14],39.844,-24.1,#4D69AE,Trans New Guinea,Chimbu,Papua New Guinea
Kuanua [ksd],-6.261,-178.802,#C37E78,Oceanic,Western Oceanic,Papua New Guinea
Kui [kvd],51.228,-140.721,#A561BC,Timor-Alor-Pantar,Alor-Pantar,Indonesia
Kui [kxu],-21.797,26.96,#2BAA5A,Dravidian,South-central,India
Kukatj [xxx-38],40.423,7.825,#5386A6,Pama-Nyungan,,Australia
Kuke [ght],21.286,16.86,#3D949A,Tibeto-Burman,Kuke,Nepal
Kuku Nganhcara [wua],53.158,64.483,#6FA2B3,Pama-Nyungan,West Cape York,Australia
Kuku Yalanji [gvn],21.399,53.521,#59B499,Pama-Nyungan,KukuYalanji,Australia
Kuman [kue],32.733,-36.913,#545FA3,Trans New Guinea,Chimbu,Papua New Guinea
Kumauni [kfy],-31.514,21.189,#1AA73D,Indo-European,Indo-Iranian,India
Kumzari [zum],-40.704,-142.579,#9C6A61,Indo-European,Indo-Iranian,Oman
Kunama [kun],34.602,-52.51,#726D8F,Nilo-Saharan,Kunama,Eritrea
Kundal_Shahi [shd],-28.834,14.534,#159B43,Indo-European,Indo-Iranian,Pakistan
Kunjen [kjn],36.453,58.997,#5CBBB2,Pama-Nyungan,Central Paman,Australia
Kuot [kto],-10.072,-132.336,#B34772,Kuot,,Papua New Guinea
Kupang Malay [mkn],2.999,149.791,#DCB585,Malayo-Polynesian,Malayo-Sumbawan,Indonesia
Kurdish [kmr],-63.257,-58.338,#6B5F33,Indo-European,Indo-Iranian,Iraq
Kurtöp [xkz],18.319,45.871,#33CFA4,Tibeto-Burman,Bodic,Bhutan
Kurux [kxl],-7.192,-2.876,#2C7B75,Dravidian,North,Nepal
Kusunda [kgg],19.039,24.38,#618D8B,Kusunda,,Nepal
Kutenai [kut],-25.958,-114.342,#A52D53,Kutenai,,Canada
Kuuk Thaayorre [thd],56.047,55.344,#6B9DB4,Pama-Nyungan,West Cape York,Australia
Kuuku-Ya'u [kuy],50.261,48.539,#60A3B9,Pama-Nyungan,North Cape York,Australia
Kuvi [kxv],-16.269,27.232,#25AE62,Dravidian,South-central,India
Kwaio [kwd],7.371,-153.73,#CB5A8A,Oceanic,Southeast Solomonic,Solomons
Kwangari [kwn],-29.232,-147.777,#C8524F,Niger-Kongo,Bantoid,Namibia
Kwaza [xwa],30.471,-64.51,#6B559B,Kwaza,,Brazil
Kwerba [kwe],27.669,-45.497,#5352A1,Kwerba,Nuclear,Indonesia
Kwini [gww],43.859,-82.677,#794DB0,Wororan,,Australia
Kyirong_Tibetan [bod-3],17.03,31.408,#2BB39E,Tibeto-Burman,Bodic,China
Laal [gdm],-34.154,-171.945,#AD7960,Laal,,Chad
Lachi [lbt],-2.378,137.305,#E0D97A,Tai-Kadai,North,China
Ladakhi [lbj],17.392,21.477,#28A29D,Tibeto-Burman,Bodic,India
Laguna [kjq],16.492,-80.369,#78568C,Keresan,Western,USA
Lahu [lhu],38.922,114.616,#98B6B0,Tibeto-Burman,Lolo-Burmese,Myanmar
Lak [lbe],-33.277,0.464,#4B805D,Nakh-Daghestanian,Lak,Russia
Lakhota [lkt],14.383,-144.152,#A8638C,Siouan,Western,USA
Lakkia [lbc],-0.167,133.142,#D5DB7F,Tai-Kadai,South,China
Lamaholot [slp],16.683,154.457,#BA9C93,Malayo-Polynesian,Timoric,Indonesia
Lamani [lmn],-31.122,31.957,#33AF49,Indo-European,Indo-Iranian,India
Lamba [lam],-22.906,-159.45,#BA6A65,Niger-Kongo,Gur,Zambia
Lamjung Yohlmo [scp-2],23.441,39.406,#2FC2AD,Tibeto-Burman,Bodic,Nepal
Lampung [ljp],-2.706,162.001,#E9A27A,Malayo-Polynesian,Lampungic,Indonesia
Lango [laj],-6.467,-153.662,#C75C76,Nilo-Saharan,Nilotic,Uganda
Lani [dnw],41.29,-60.146,#5535CB,Trans New Guinea,Dani,Indonesia
Lao [lao],-0.033,134.41,#DCDE7F,Tai-Kadai,South,Laos
Larantuka Malay [lrt],8.217,139.735,#DACC91,Malayo-Polynesian,Malayo-Sumbawan,Indonesia
Lardil [lbz],30.516,36.63,#5C9A99,Tangkic,,Australia
Larike [alo],24.631,-143.018,#C24DA6,Malayo-Polynesian,Central Maluku,Indonesia
Latvian [lav],-71.064,1.076,#58800C,Indo-European,Balto-Slavic,Latvia
Lavukaleve [lvk],32.571,-84.517,#7B559B,Solomons East Papuan,,Solomons
Lele [lln],-3.88,-166.713,#AE747C,Afro-Asiatic,Chadic,Chad
Lelepa [lpa],13.112,-163.076,#C96991,Oceanic,Southern Oceanic,Vanuatu
Lenakel [tnl],9.044,-163.738,#C96A8C,Oceanic,Southern Oceanic,Vanuatu
Lepcha [lep],-4.418,70.113,#60D778,Tibeto-Burman,Bodic,India
Leti [lti],17.393,-152.291,#CA589A,Malayo-Polynesian,Southeast Maluku,Indonesia
Lewo [lww],23.221,-147.501,#C454A2,Oceanic,Southern Oceanic,Vanuatu
Lezgian [lez],-18.313,10.173,#15935C,Nakh-Daghestanian,Lezgic,Russia
Lhasa_Tibetan [bod],29.393,40.793,#3FB8B0,Tibeto-Burman,Bodic,China
Lhomi [lhm],25.474,39.206,#4AABA0,Tibeto-Burman,Bodic,Nepal
Liko [kbo],-29.386,-136.904,#B44E57,Nilo-Saharan,Central Sudanic,Sudan
Limbu [lif],16.005,-5.759,#387894,Tibeto-Burman,Kiranti,Nepal
Limilngan [lmc],43.981,-97.287,#8742BB,Darwin,,Australia
Linda [liy],-5.296,-177.996,#C97D79,Adamawa-Ubangi,Ubangi,Central African Republic
Lingala [lin],-19.499,-144.702,#C34F62,Niger-Kongo,Bantoid,Democratic Republic of the Congo
Lisu [lis],18.072,89.467,#7FCA98,Tibeto-Burman,Lolo-Burmese,Myanmar
Lithuanian [lit],-61.843,-12.591,#517526,Indo-European,Balto-Slavic,Lithuania
Logba [lgq],-24.627,-167.609,#C17161,Niger-Kongo,Kwa,Ghana
Lokono [arw-2],11.589,-62.637,#6C5988,Arawak,,Guyana
Longgu [lgu],-13.014,-172.786,#D3756C,Oceanic,Southeast Solomonic,Solomons
Loniu [los],24.409,-172.821,#CA76A1,Oceanic,Admiralties,Papua New Guinea
Lote [uvl],15.809,-169.41,#BE7492,Oceanic,Western Oceanic,Papua New Guinea
Lozi [loz],-31.657,-143.944,#B85654,Niger-Kongo,Bantoid,Zambia
Lü [khb],1.272,135.366,#EAE883,Tai-Kadai,South,China
Luangiua [ojv],10.156,150.064,#D1AF90,Oceanic,Central Pacific,Solomons
LuGanda [lug],-19.529,-146.991,#C75161,Niger-Kongo,Bantoid,Uganda
Luo [luo],-16.973,-145.635,#C25267,Nilo-Saharan,East_Sudanic,Kenya
Lushootseed [lut],-35.47,-112.147,#974553,Salish,Central,USA
Luvale [lue],-14.281,-149.239,#D05068,Niger-Kongo,Bantoid,Angola
Ma'ya [slz],0.245,-169.965,#BD7580,Malayo-Polynesian,Eastern Malayo-Polynesian,Indonesia
Maanyan [mhy],1.228,164.283,#F4A082,Malayo-Polynesian,Barito,Indonesia
Maasai [mas],-11.296,-133.902,#9D6177,Nilo-Saharan,East_Sudanic,Tanzania
Maba [mde],-4.835,-54.105,#6B647D,Nilo-Saharan,Maban,Chad
Macedonian [mkd],-68.633,31.723,#59970C,Indo-European,Balto-Slavic,Macedonia
Macushi [mbc],9.357,-43.209,#51548A,Cariban,Venezuelan,Brazil
Madi [mhi],21.396,172.339,#B18693,Nilo-Saharan,Central_Sudanic,Uganda
Madimadi [xxx-18],14.835,25.673,#50968E,Pama-Nyungan,Kulin,Australia
Madurese [mad],-4.862,146.809,#DFBE76,Malayo-Polynesian,Malayo-Sumbawan,Indonesia
Magahi [mag],-26.294,13.027,#129948,Indo-European,Indo-Iranian,India
Magar [mgp],6.913,31.409,#2EB18B,Tibeto-Burman,Magar,Nepal
Mahali [mjx],-28.308,-5.768,#347857,Austroasiatic,Munda,India
MaiBrat [ayz],5.508,-167.924,#D06E87,West Papuan,Birds Head,Indonesia
Maidu [nmu],0.101,-17.543,#396980,Maiduan,,USA
Mairasi [zrs],37.705,-101.428,#8952A4,Tanah Merah-Mairasi,,Indonesia
Maisin [mbq],37.74,-84.289,#7838B7,Oceanic,Western Oceanic,Papua New Guinea
Maithili [mai],-37.518,23.626,#33A140,Indo-European,Indo-Iranian,India
Majhi [mjz],-18.003,8.289,#1D8E5F,Indo-European,Indo-Iranian,Nepal
Mak [mkg],-7.479,131.259,#D6E26E,Tai-Kadai,South,China
Makah [myh],-39.229,-111.21,#8E5A5F,Wakashan,South,USA
Makasai [mkz],40.608,129.744,#9BA1A5,Timor-Alor-Pantar,Mainland,Timor leste
Makassar [mak],-4.802,-168.179,#D86D78,Malayo-Polynesian,Greater South Sulawesi,Indonesia
Makhuwa-Enehara [vmw],-12.653,-141.549,#AD5C73,Niger-Kongo,Bantoid,Mozambique
Mako [wpc],16.092,-47.932,#555192,Sáliba-Piaroa,,Venezuela
Makua [vmw],-33.091,-150.248,#B85F55,Niger-Kongo,Bantoid,Mozambique
Malagasy [bhr],-24.127,165.398,#C9935D,Malayo-Polynesian,Barito,Madagascar
MalakMalak [mpb],67.195,-71.891,#7868BA,Northern Daly,,Australia
Malay [zlm],-1.885,151.064,#D8B07C,Malayo-Polynesian,Malayo-Sumbawan,Malaysia
Malayalam [mal],-24.827,27.691,#26AE51,Dravidian,South,India
Malgana [vml],26.983,36.664,#3DB1AA,Pama-Nyungan,Kardu,Australia
Mali [gcc],-0.173,-108.411,#914A7F,Baining,,Papua New Guinea
Malto [kmj],-21.708,21.21,#1DA655,Dravidian,North,India
Mam [mvc],-30.25,-125.385,#AC4052,Mayan,Quiche-Mam,Guatemala
Mamainde [wmd],31.447,-81.027,#753BAA,Nambikwara,,Brazil
Mamanwa [mmn],8.189,177.274,#C6838A,Malayo-Polynesian,Philippines,Philippines
Mambai [mgm],18.036,157.945,#D3A19D,Malayo-Polynesian,Timoric,Timor leste
Mambwe [mgr],-18.601,-155.273,#C75E65,Niger-Kongo,Bantoid,Zambia
Manadonese [xmm],-1.611,145.459,#D0B77D,Malayo-Polynesian,Malayo-Sumbawan,Indonesia
Manam [mva],30.977,-144.118,#B45AA6,Oceanic,Western Oceanic,Papua New Guinea
Manange [nmm],6.884,41.049,#29CB8D,Tibeto-Burman,Bodic,Nepal
Manchu [mnc],2.621,3.531,#1F8584,Tungusic,South,China
Mandan [mhq],27.224,-62.953,#5731AD,Siouan,Western,USA
Mandarin_Beijing [cmn],-10.579,109.849,#9CCD70,Tibeto-Burman,Sinitic,China
Mandinka [man],-19.954,112.196,#879278,Mande,Western,Senegal
Mandinka_Gambia [mnk],21.064,66.399,#789287,Mande,Western,Gambia
Manggarai [mqy],-4.617,155.533,#E0AC77,Malayo-Polynesian,Flores-Sawu-Sumba,Indonesia
Manggarayi [mpc],17.788,-78.548,#754C90,Gunwinyku,Mang,Australia
Maninka [emk],-8.041,77.936,#799F7B,Mande,Western,Mali
Manobo_Western Bukidnon [mbb],-14.965,175.123,#CC866B,Malayo-Polynesian,Philippines,Philippines
Mansi [mns],-13.931,1.843,#3A826E,Uralic,Ugric,Russia
Manx [glv],-81.458,-40.089,#777938,Indo-European,Celtic,Britain
Maonan [mmd],-4.188,126.18,#C3DC77,Tai-Kadai,South,China
Maori [mri],8.096,152.796,#B69C88,Oceanic,Central Pacific,New Zealand
Mapudungun [arn],8.931,-75.657,#775F85,Araucanian,,Chile
Mara [mec],39.289,-99.017,#8A3FB5,Mara-Warndarang-Alawa,,Australia
Marathi [mar],-32.404,24.859,#12B233,Indo-European,Indo-Iranian,India
Margany [zmc],14.024,38.472,#3DB495,Pama-Nyungan,GreaterMari,Australia
Margi [mrt],-8.804,-179.294,#C07F76,Afro-Asiatic,Chadic,Nigeria
Maricopa [mrc],28.819,-71.849,#6224B4,Yuman-Cochimi,Yuman,USA
Marind [mrz],-9.286,-84.826,#7A4876,Marind,,Indonesia
Marquesan_Ua Pou [mrq],-31.033,146.165,#A09668,Oceanic,,French Polynesia
Marshallese [mah],20.458,174.652,#CC879C,Oceanic,Micronesian,USA Federated States of Micronesia
Martuthunira [vma],33.187,27.854,#609097,Pama-Nyungan,Pilbara,Australia
Matbat [xmt],34.988,-167.649,#C770B3,Malayo-Polynesian,Eastern Malayo-Polynesian,Indonesia
Matengo [mgv],-15.817,-149.441,#C2586A,Niger-Kongo,Bantoid,Tanzania
Matngele [zml],63.881,-104.452,#8665B6,East Daly,,Australia
Maung [mph],3.896,-134.978,#A45B83,Iwaidjan,,Australia
Maxakali [mbl],71.662,-100.797,#8270AF,Macro-Je,Maxakalí,Brazil
Mbabaram [vmb],34.253,54.393,#5BB3AB,Pama-Nyungan,,Australia
Mbaham [bdw],38.68,-41.91,#5256B1,Trans New Guinea,Bomberai,Indonesia
Mehri [gdq],-70.239,-82.674,#7B5C1C,Afro-Asiatic,Semitic,Yemen
Meitei [mni],13.215,43.298,#51AC8F,Tibeto-Burman,Meitei,India
Mekeo [mek],41.287,-104.616,#903FBA,Oceanic,Western Oceanic,Papua New Guinea
Melanau [mel],3.119,171.093,#F59286,Malayo-Polynesian,Malayo-Sumbawan,Malaysia
Memba [tsj-2],15.23,55.564,#4EC897,Tibeto-Burman,Bodic,India
Mende [men],31.524,-171.836,#8F7D89,Mande,Western,Sierra Leone
Menya [mcr],41.526,-68.643,#653CC0,Trans New Guinea,Angan,Papua New Guinea
Meryam Mir [ulk],-2.23,40.174,#51A77D,Eastern Trans Fly,,Australia
Meteq [xem],-8.747,166.174,#E9996F,Malayo-Polynesian,Land Dayak,Indonesia
Meyah [mej],8.11,-145.926,#B35D88,East Bird's Head,,Indonesia
Mian [mpt],24.304,-30.034,#49609C,Trans New Guinea,Ok,Papua New Guinea
Mien [ium-6],-1.915,127.722,#D0E77B,Hmong-Mien,Mienic,China
Mien_Yao [ium],14.643,128.579,#C0D19B,Hmong-Mien,Mienic,Laos
Miji [sjl],4.702,49.41,#4DBB86,Tibeto-Burman,Hrusish,India
Miju [mxj],14.882,19.002,#2D9C97,Tibeto-Burman,Kaman,India
Milang [xxx-122],9.561,44.023,#3AC390,Tibeto-Burman,Siangic,India
Mina [gej],5.93,147.302,#E1BE8B,Niger-Kongo,Kwa,Togo
Minangkabau [min],2.813,160.53,#E2A285,Malayo-Polynesian,Malayo-Sumbawan,Indonesia
Miriwung [mep],30.983,-49.984,#5850A5,Jarrakan,,Australia
Mising [mrg],25.353,40.983,#3FB8A8,Tibeto-Burman,Tani,India
Miwok [skd],-16.571,-50.952,#5E5770,Miwok,Eastern,USA
Mixtec [mim],-25.652,-159.734,#C4665C,Otomanguean,Mixtecan,Mexico
Miya [mkf],-42.965,-154.523,#B86445,Afro-Asiatic,Chadic,Nigeria
Mizo [lus],25.618,82.46,#76C4A1,Tibeto-Burman,Kuki-Chin-Naga,India
Mlabri [mra],1.582,126.469,#C6DF83,Austroasiatic,Mlabri,Thailand
Mnar [pbv-2],-31.315,143.619,#A49B64,Austroasiatic,Khasic,India
Moghol [mhj],-34.417,7.98,#438856,Mongolic,Western,Afghanistan
Mohave [mov],31.49,-60.845,#5B3DAE,Yuman-Cochimi,Yuman,USA
Moken [mwt],8.377,141.336,#F1DB95,Malayo-Polynesian,Malayo-Sumbawan,Myanmar
Mokilese [mkj],11.311,173.511,#D78A91,Oceanic,Micronesian,USA Federated States of Micronesia
Momu [fqs],23.676,-37.141,#576196,Kwomtari,,Papua New Guinea
Mon [mnw],7.045,134.22,#E5E892,Austroasiatic,Mon,Thailand
Mongguor [mjg],-16.883,17.796,#349867,Mongolic,Eastern,China
Mongolian [mon],-8.999,8.205,#278C71,Mongolic,Eastern,Mongolia
Moni [mnz],10.628,-38.209,#2F4093,Trans New Guinea,Wissel Lakes,Indonesia
Mono [mnr],-2.234,-48.225,#5B577D,Uto-Aztecan,North,USA
Montagnais [moe],7.413,-95.131,#87308A,Algic,Algonquian,Canada
Mor [mhz],4.324,-149.658,#BA5E85,Malayo-Polynesian,Eastern Malayo-Polynesian,Indonesia
Mor [moq],31.185,-111.61,#9646A5,Mor,,Indonesia
Motu [meu],10.106,-135.406,#9B6486,Oceanic,Western Oceanic,Papua New Guinea
Motuna [siw],42.018,-41.437,#4D53BC,East Bougainville,,Papua New Guinea
Mpur [akc],3.766,176.937,#D48485,West Papuan,Birds Head,Indonesia
Mru [mro-2],23.908,105.247,#92C29E,Tibeto-Burman,Mru,Bangladesh
Muak Sa-aak [ukk],7.184,147.309,#F5CB91,Austroasiatic,Palaungic,Myanmar
Mualang [mtd],5.193,155.396,#E3AD89,Malayo-Polynesian,Malayo-Sumbawan,Indonesia
Mudukumo [bwm],13.864,28.679,#41A291,Yuat,,Papua New Guinea
Muk-Thang [xxx-95],50.067,-22.336,#6474A3,Pama-Nyungan,,Australia
Mulao [mlm],-1.681,129.853,#D7E87B,Tai-Kadai,South,China
Muna [mnb-2],-5.749,-165.945,#E26775,Malayo-Polynesian,Celebic,Indonesia
Mundang [mua],-19.178,175.942,#C78566,Adamawa-Ubangi,Adamawa,Chad
Mundari [unr],-20.65,-22.81,#607273,Austroasiatic,Munda,India
Murinbata [mwf],40.978,-92.876,#8253A6,Southern Daly,,Australia
Murle [mur],-40.168,-147.172,#9B6E64,Nilo-Saharan,East_Sudanic,Sudan
Muruwari [zmu],25.561,9.19,#4D8898,Pama-Nyungan,Central New South Wales,Australia
Mussau [emi],-0.009,-157.261,#C7617F,Oceanic,StMatthias,Papua New Guinea
Mustang [loy],20.986,41.39,#30C6A8,Tibeto-Burman,Bodic,Nepal
Mutsun [css-2],-26.786,-75.674,#735067,Yok-Utian,Costanoan,USA
Mwani [wmw],-23.334,-146.619,#BF555F,Niger-Kongo,Bantoid,Mozambique
Mwera [mwe],-16.897,-149.864,#BC5C6A,Niger-Kongo,Bantoid,Tanzania
Mwotlap [mlv],26.596,-168.565,#C971A5,Oceanic,Southern Oceanic,Vanuatu
Na [nbf-2],23.129,75.674,#73B195,Tibeto-Burman,Naxi,China
Nahali [nlx],-5.756,40.48,#3FB677,Nahali,,India
Nahavaq [sns],2.714,-156.554,#D25C84,Oceanic,Southern Oceanic,Vanuatu
Nakanai [nak],-0.051,-170.99,#E0707F,Oceanic,Western Oceanic,Papua New Guinea
Nakkara [nck],31.405,-92.516,#833AAA,Maningrida,,Australia
Nama [naq],-59.048,-31.459,#6D745B,Khoe,Khoe,Botswana
Namakir [nmk],11.629,-174.037,#D77692,Oceanic,Southern Oceanic,Vanuatu
Nanchang [gan],-9.311,108.56,#9CD371,Tibeto-Burman,Sinitic,China
Nancowry [ncb],-12.599,137.73,#B2AD70,Austroasiatic,Nicobar,India
Nandi [kln],-9.337,-112.699,#9A4174,Nilo-Saharan,Nilotic,Kenya
Nar_Phu [npa],25.053,41.597,#39BEAC,Tibeto-Burman,Bodic,Nepal
Nasioi [nas],13.152,-29.93,#204899,East Bougainville,,Papua New Guinea
Navajo [nav],-9.982,-97.37,#8A3172,Dene-Yeniseic,Na-Dene,USA
Ndebele [nbl],-43.244,-157.47,#B56949,Niger-Kongo,Bantoid,Zimbabwe
Ndjébbana [djj],44.909,-78.586,#7446BA,Maningrida,,Australia
Ndonga [ndo],-28.92,-144.977,#C05254,Niger-Kongo,Bantoid,Namibia
Nen [nqn],0.83,-49.274,#625D80,South New Guinea,,Papua New Guinea
Nenets [yrk],-20.178,2.915,#3C8367,Uralic,Samoyedic,Russia
Neo-Aramaic [trg],-70.634,-81.117,#7B632F,Afro-Asiatic,Semitic,Iraq
Nepali [nep],-28.024,23.394,#15AD42,Indo-European,Indo-Iranian,Nepal
Nepali_hill [nep-2],-7.505,42.431,#2ACD70,Indo-European,Indo-Iranian,Nepal
Nevome [ood-2],8.178,-70.674,#6C4988,Uto-Aztecan,South,Mexico
Newar_Kathmandu [new],9.04,20.536,#359B8C,Tibeto-Burman,Newaric,Nepal
Newari_Dolakha [new-2],10.208,36.795,#33B991,Tibeto-Burman,Newaric,Nepal
Nez Perce [nez],-28.679,-68.096,#66415B,Sahaptian,,USA
Ngaanyatjarra [ntj],47.201,-11.33,#4474C1,Pama-Nyungan,Western Desert,Australia
Ngadha [nxg],-2.138,148.998,#DAB67C,Malayo-Polynesian,Flores-Sawu-Sumba,Indonesia
Ngadjunmaya [nju],53.933,30.792,#529BC8,Pama-Nyungan,Western bight,Australia
Ngalakgan [nig],41.759,-84.378,#7A45B4,Gunwinyku,Bak,Australia
Nganasan [nio],-2.283,-22.423,#48697D,Uralic,Samoyedic,Russia
Ngandi [nid],30.392,-60.018,#5739AF,Gunwinyku,Bak,Australia
Ngankikurungkurr [nam-2],39.626,-68.167,#7059A2,Southern Daly,,Australia
Ngarinyeri [nay],25.441,-7.428,#3275A5,Pama-Nyungan,,Australia
Ngarinyin [ung],58.873,-147.884,#9B6EB5,Wororan,,Australia
Ngarla [nlr],46.123,31.498,#519CB8,Pama-Nyungan,Pilbara,Australia
Ngawun [nxn],11.495,42.689,#4EAD8D,Pama-Nyungan,Mayi,Australia
Ngbaka [nga],1.156,163.107,#C29481,Adamawa-Ubangi,Ubangi,Democratic Republic of the Congo
Ngiti [niy],-23.096,-105.644,#8A5B6F,Nilo-Saharan,Lendu,Democratic Republic of the Congo
Ngiyambaa [wyb],29.494,6.832,#50859B,Pama-Nyungan,Central New South Wales,Australia
Nguna [llp],12.917,-153.259,#C95B92,Oceanic,Southern Oceanic,Vanuatu
Ngwe [nwe ],-28.657,-175.733,#B97B60,Niger-Kongo,Bantoid,Cameroon
Nhanda [nha],34.241,37.713,#599DA1,Pama-Nyungan,Kardu,Australia
Nias [nia],-16.325,-170.938,#CE7368,Malayo-Polynesian,Batak-Barrier Islands,Indonesia
Nimboran [nir],57.081,-51.123,#625BC9,Trans New Guinea,Nimboran,Indonesia
Nisenan [nsz],10.586,5.327,#42858B,Maiduan,,USA
Nisgha [ncg],-7.971,-132.418,#AD4E76,Tsimshian,,Canada
Nishi [dap],32.597,19.569,#568E9C,Tibeto-Burman,Tani,India
Niue [niu],-2.838,164.863,#CF957B,Oceanic,Central Pacific,Niue
Nivkh [niv],41.866,3.372,#5982A2,Chukotko-Kamchatkan,Nivkh,Russia
Nkore-Kiga [cgg],-27.729,-166.951,#D26C53,Niger-Kongo,Bantoid,Uganda
Nobiin [fia],11.693,-29.89,#305293,Nilo-Saharan,Nubian,Sudan
Nonthaburi Malay [xxx-20],7.584,142.407,#ECD392,Malayo-Polynesian,Malayo-Sumbawan,Thailand
Norwegian [nob],-64.649,73.028,#71AE18,Indo-European,Germanic,Norway
Nuaulu [nxl],10.944,-146.87,#B55C8C,Malayo-Polynesian,Central Maluku,Indonesia
Nubi [kcn],-37.075,161.319,#B29157,Afro-Asiatic,Semitic,Uganda
Nubian [kzh],-7.697,-21.064,#426877,Nilo-Saharan,East_Sudanic,Sudan
Nubri [kte],22.974,39.372,#3DB6A4,Tibeto-Burman,Bodic,Nepal
Nubri_lower [kte-2],19.833,23.847,#389F9C,Tibeto-Burman,Bodic,Nepal
Nung [nut],6.515,140.743,#DACA8D,Tai-Kadai,South,Vietnam
Nunggubuyu [nuy],45.286,-90.774,#8057A9,Gunwinyku,Bak,Australia
Nyaheun [nev],17.644,135.762,#E0DDAA,Austroasiatic,Bahnaric,Laos
Nyahkur [cbn],10.297,134.328,#E1E399,Austroasiatic,Mon,Thailand
Nyangumarta [nna],39.916,-4.654,#537CA5,Pama-Nyungan,Marngu,Australia
Nyawaygi [nyt],53.207,26.214,#5893BA,Pama-Nyungan,Dyirbalic,Australia
Nyoro [nyo],-37.088,-144.118,#BD5346,Niger-Kongo,Bantoid,Uganda
Nyulnyul [nyv],19.889,-99.846,#86588E,Nyulnyul,West,Australia
Nyungar [nys],32.998,46.846,#4AB8B2,Pama-Nyungan,South-west,Australia
Nzadi [xxx-48],-38.027,-154.944,#B26854,Niger-Kongo,Bantoid,Democratic Republic of the Congo
O'odham [ood],-18.475,-99.016,#875170,Uto-Aztecan,South,USA
Obokwi [afz],38.298,103.026,#8BB1A8,Lakes Plains,Eastern,Indonesia
Ogami [mvi],9.552,18.909,#319A8D,Japonic,Ryukyuan,Japan
Oirata [oia],67.886,126.422,#8E93BB,Timor-Alor-Pantar,Mainland,Indonesia
Ojibwe [ojg],-18.268,-102.416,#951D5E,Algic,Algonquian,Canada
Olekha [ole],-0.21,37.11,#2AC07F,Tibeto-Burman,Black Mountain,Bhutan
Olo [ong],27.064,-169.131,#B9749E,Torricelli,Wapei,Papua New Guinea
Omaha [oma],26.429,-117.643,#9D479F,Siouan,Western,USA
One [aun],22.791,-122.198,#857684,Torricelli,West Wapei,Papua New Guinea
Oneida [one],-6.988,-112.203,#A12D75,Iroquoian,Northern,USA
Ong Be [onb],4.22,136.034,#EBE78B,Tai-Kadai,South,China
Onge [oon],26.216,-50.403,#5046A4,Andaman,,India
Onin [oni],32.344,177.723,#C382AA,Malayo-Polynesian,North Bomberai,Indonesia
Oraon [kru],-13.85,-6.272,#2D766B,Dravidian,North,Bangladesh
Ordos [mvf],-27.127,6.734,#2D8955,Mongolic,Eastern,China
Oriya [ori],-29.927,29.054,#21B442,Indo-European,Indo-Iranian,India
Ormuri_Khaniguram [oru-2],-54.258,8.798,#43892B,Indo-European,Indo-Iranian,Afghanistan
Ormuri_Logar [oru],-53.596,3.875,#468331,Indo-European,Indo-Iranian,Pakistan
Oromo [hae],-65.16,-42.105,#757662,Afro-Asiatic,Cushitic,Ethiopia
Osage [osa],22.364,-72.877,#715094,Siouan,Western,USA
Ossetian [oss],-42.714,-8.67,#3A753E,Indo-European,Indo-Iranian,Georgia
Ostyak [kca-2],-23.482,14.269,#468E66,Uralic,Ugric,Russia
Otomi [otm],-38.88,-140.196,#B65247,Otomanguean,Otopamean,Mexico
P'urhépecha [tsz],-31.739,-37.386,#626969,P'urhépecha,,Mexico
Paamese [pma],8.438,-142.173,#BD508B,Oceanic,Southern Oceanic,Vanuatu
Pacoh [pac],-8.871,136.589,#D4CF6D,Austroasiatic,Katuic,Vietnam
Paez [pbb],-3.654,-13.11,#296B7A,Paez,,Colombia
Pagu [pgu],43.067,-150.375,#BA5EBF,West Papuan,North Halmahera,Indonesia
Paiute_Northern [pao],22.736,-43.108,#52559A,Uto-Aztecan,North,USA
Paiwan [pwn],-13.287,-165.933,#AE7474,Austronesian,Paiwanic,Taiwan
Palauan [pau],-8.284,-162.714,#BE6C76,Malayo-Polynesian,Palauan,Palau
Palaung [plw],0.188,137.086,#D8D180,Austroasiatic,Palaungic,Myanmar
Palawan [plc],16.911,-173.285,#C97796,Malayo-Polynesian,Philippines,Philippines
Palue [ple],-7.959,151.57,#D0AB73,Malayo-Polynesian,Flores-Sawu-Sumba,Indonesia
Palula [phl],-35.718,18.816,#1FA036,Indo-European,Indo-Iranian,Pakistan
Panare [pbh],29.531,-60.277,#593CAC,Cariban,Venezuelan,Venezuela
Pangasinan [pag],-5.03,-159.921,#BA6A7A,Malayo-Polynesian,Philippines,Philippines
Panyjima [pnw],22.943,7.309,#3E889B,Pama-Nyungan,Pilbara,Australia
Pare [asa],-24.144,-155.115,#D05A58,Niger-Kongo,Bantoid,Tanzania
Pashto [pst],-53.365,-4.336,#4A7B38,Indo-European,Indo-Iranian,Afghanistan
Passamaquoddy-Maliseet [pqm],-12.117,-101.363,#912A6D,Algic,Algonquian,USA
Pattani [lae],-8.375,34.654,#2FB771,Tibeto-Burman,Western Himalayan,India
Paulohi [plh],22.955,-153.775,#D655A8,Malayo-Polynesian,Central Maluku,Indonesia
Paumarí [pad],-2.086,-87.2,#7D467D,Arawá,,Brazil
Pawaian [pwa],30.969,-7.539,#4F799D,Trans New Guinea,Pawaian,Papua New Guinea
Pech [pay],-1.032,-41.03,#51577E,Chibchan,East,Honduras
Pendau [ums],6.959,-174.888,#C77988,Malayo-Polynesian,Celebic,Indonesia
Pima Bajo [pia],-30.403,-23.238,#596F67,Uto-Aztecan,South,Mexico
Pingjiang [gan-6],-0.461,113.884,#A6D67F,Tibeto-Burman,Sinitic,China
Pipil [ppl],-29.821,-108.546,#993251,Uto-Aztecan,South,El Salvador
Pirahã [myp],58.883,-109.297,#8769A7,Mura,,Brazil
Pitjantjatjara [pjt],49.274,-15.412,#456FC6,Pama-Nyungan,Western Desert,Australia
Pitta-Pitta [pit],29.81,-7.522,#4A789E,Pama-Nyungan,Karnic,Australia
Pitu Ulunna Salu [ptu],3.886,-160.465,#CD6485,Malayo-Polynesian,Greater South Sulawesi,Indonesia
Plang [blr-2],3.463,139.704,#E3D387,Austroasiatic,Palaungic,China
Pnar [pbv],-32.459,145.562,#B5A456,Austroasiatic,Khasic,India
Polish [pol],-71.185,12.742,#5A880E,Indo-European,Balto-Slavic,Poland
Pomo_Eastern [peb],23.038,14.429,#3C919D,Pomoan,Eastern,USA
Pomo_Southeastern [pom],2.247,5.367,#2D8783,Pomoan,Southeastern,USA
Ponapean [pon],8.49,178.775,#C7818A,Oceanic,Micronesian,USA Federated States of Micronesia
Portuguese [por],-80.005,112.998,#87920F,Indo-European,Romance,Portugal
Pulaar [fuc],-19.251,-142.144,#B55668,Niger-Kongo,Atlantic,Senegal
Puluwat [puw],3.057,165.206,#C59283,Oceanic,Micronesian,USA Federated States of Micronesia
Pumi [pmi],32.921,52.647,#57B4AA,Tibeto-Burman,Qiangic,China
Punjabi [pan],-38.944,33.593,#2CB72E,Indo-European,Indo-Iranian,India
Purik [prx],14.377,28.317,#1CB59C,Tibeto-Burman,Bodic,India
Puroik [suv],23.683,63.664,#5CC7A2,Tibeto-Burman,Tani,India
Puxi [jih],10.681,53.855,#66A288,Tibeto-Burman,Qiangic,China
Puyuma [pyu],2.64,-171.693,#BD7782,Austronesian,Puyuma,Taiwan
Qiandong_Hmong [hmq],1.036,134.864,#D9DA82,Hmong-Mien,Hmongic,China
Qiang [qxs],20.669,14.636,#429098,Tibeto-Burman,Qiangic,China
Quechan [yum],35.123,-54.078,#5241B6,Yuman-Cochimi,Yuman,USA
Quechua_Cusco  [quz],-4.648,-6.665,#257578,Quechuan,II-C,Peru
Quechua_Huallaga [qvh],-11.462,-26.012,#375C6F,Quechuan,I,Peru
Quechua_Imbabura [qvi],-28.419,-6.134,#347756,Quechuan,II-B,Ecuador
Quechua_Yauyos [qvi-2],-3.559,-15.455,#336A7B,Quechuan,I,Peru
Quileute [qui],-43.354,-98.592,#88494C,Chimakuan,,USA
Rabha [rah],-0.168,30.86,#33AD7F,Tibeto-Burman,Bodo-Garo,India
Rajasthani [raj],-37.211,27.641,#26AE33,Indo-European,Indo-Iranian,India
Rajbangshi [rkt],-26.486,14.382,#169B49,Indo-European,Indo-Iranian,India
Raji [rji],29.961,14.792,#438FA3,Tibeto-Burman,Western Himalayan,Nepal
Rama [rma],52.667,19.624,#6D869A,Chibchan,East,Nicaragua
Rana_Tharu [thr],-27.774,13.376,#349157,Indo-European,Indo-Iranian,Nepal
Rapa_Nui [rap],1.118,157.975,#C29A81,Oceanic,Central Pacific,Chile
Ratahan [rth-2],1.139,-177.054,#D07B81,Malayo-Polynesian,Philippines,Indonesia
Raute [rau],-3.352,10.49,#2B8F7A,Tibeto-Burman,Western Himalayan,Nepal
Rawang [raw],14.765,87.953,#7CD796,Tibeto-Burman,Nungish,Myanmar
Remo [bfw],-1.049,4.231,#25867E,Austroasiatic,Munda,India
Rennellese [mnv],-18.389,166.846,#B18B6F,Oceanic,Central Pacific,Solomons
Rgyalthang [khg-7],14.803,35.038,#30B799,Tibeto-Burman,Bodic,China
Riff [rif],-44.962,-135.859,#B34E38,Afro-Asiatic,Berber,Morocco
Ritharngu [rit],37.048,-18.593,#426BB0,Pama-Nyungan,Yolngu,Australia
Rohingya [rhg],-34.394,20.211,#25A13E,Indo-European,Indo-Iranian,Myanmar
Roma [rmm],9.111,-160.96,#BE6A8A,Malayo-Polynesian,Southeast Maluku,Indonesia
Romanian [ron],-82.283,13.185,#708308,Indo-European,Romance,Romania
Romansh [roh],-74.526,71.056,#769C11,Indo-European,Romance,Switzerland
Ronga [rng],-49.064,-148.396,#AC6443,Niger-Kongo,Bantoid,Mozambique
Rongpo [rnp],-7.337,31.604,#1ABE70,Tibeto-Burman,Western Himalayan,India
Roro [rro],45.56,-124.922,#A54AC2,Oceanic,Western Oceanic,Papua New Guinea
Rote [twu],0.972,-155.569,#CF5B81,Malayo-Polynesian,Timoric,Indonesia
Rotokas [roo],20.182,-85.117,#7C5A8D,West Bougainville,,Papua New Guinea
Rotuman [rtm],-4.024,-165.032,#DC6779,Oceanic,Central Pacific,Fiji
Rukai [dru],9.412,-154.425,#AF6988,Austronesian,Rukai,Taiwan
Runyankore [nyn],-21.934,-157.932,#C86260,Niger-Kongo,Bantoid,Uganda
Russian [rus],-75.76,21.081,#628B01,Indo-European,Balto-Slavic,Russia
Saa [apb],7.005,-161.147,#D8618B,Oceanic,Southeast Solomonic,Solomons
Sabanê [sae],49.859,-76.085,#7554B5,Nambikwara,,Brazil
Sadu [xxx-63],9.511,94.916,#87DA8F,Tibeto-Burman,Lolo-Burmese,China
Sahu [saj],10.989,-171.414,#CC748E,West Papuan,North Halmahera,Indonesia
Saliba [sbe],33.296,-139.669,#A0649B,Oceanic,Western Oceanic,Papua New Guinea
Salinan [sln],-3.5,-110.048,#9A387B,Salinan,,USA
SaltYui [sll],55.178,-29.891,#6570AB,Trans New Guinea,Chimbu,Papua New Guinea
Sami [sme],-40.668,24.828,#459B48,Uralic,Sami,Finland
Samoan [smo],25.252,156.399,#BA999E,Oceanic,Central Pacific,Samoa
Sandawe [sad],8.277,-56.509,#6F6684,Khoe,Khoe,Tanzania
Sangir [sxn],16.203,176.24,#BA8390,Malayo-Polynesian,Philippines,Indonesia
Sango [sag],-12.284,150.154,#CFAD6C,Adamawa-Ubangi,Ubangi,Central African Republic
Santa [sce],-8.808,36.701,#3FAF73,Mongolic,Eastern,China
Santali [sat],-28.308,-5.768,#347857,Austroasiatic,Munda,India
Sanuma [xsu],55.104,66.17,#7499A7,Yanomami,,Venezuela
Saptariya Tharu [thq],-23.573,26.068,#31A659,Indo-European,Indo-Iranian,Nepal
Sapuan [spu],-6.768,128.059,#D3EB6F,Austroasiatic,Bahnaric,Laos
Sarcee [srs],-5.621,-76.274,#71447A,Dene-Yeniseic,Na-Dene,Canada
Sardinian [sro],-77.533,63.28,#749510,Indo-European,Romance,Italy
Sartang [onp],25.643,32.806,#32B1AC,Kho-Bwa,Sherdukpen-Sartang,India
Sasak [sas],-6.828,170.641,#E19074,Malayo-Polynesian,Malayo-Sumbawan,Indonesia
Sauria Paharia [mjt],-21.628,21.285,#1DA656,Dravidian,North,Bangladesh
Savosavo [svs],41.098,-106.502,#817985,Solomons East Papuan,,Solomons
Sawu [hvn],-7.34,179.79,#C48077,Malayo-Polynesian,Flores-Sawu-Sumba,Indonesia
Scots English [sco],-79.299,79.892,#7B9703,Indo-European,Germanic,Britain
Scots Gaelic [gla],-78.117,-75.992,#7B6E2A,Indo-European,Celtic,Britain
Sedang [sed],3.666,137.458,#E4DC88,Austroasiatic,Bahnaric,Vietnam
Seediq [trv],15.77,-160.783,#A7728B,Austronesian,Atayalic,Taiwan
Sekar [skz],31.803,-171.865,#B378A0,Malayo-Polynesian,North Bomberai,Indonesia
Seke [skj],25.401,47.865,#3ACCB0,Tibeto-Burman,Bodic,Nepal
Selaru [slu],4.141,-152.085,#D55286,Malayo-Polynesian,Southeast Maluku,Indonesia
Selknam [ona],-23.639,-91.407,#806373,Chonan,,Argentina
Selkup [sel],-8.735,-10.223,#2E7173,Uralic,Samoyedic,Russia
Semelai [sza],-18.223,150.861,#B79E6B,Austroasiatic,Aslian,Malaysia
Sentani [set],28.632,-58.596,#614E9F,Trans New Guinea,Sentani,Indonesia
Serbian [srp],-69.9,17.853,#578D0B,Indo-European,Balto-Slavic,Serbia
Seri [sei],16.967,-91.745,#831C9E,Seri,,Mexico
Serrano [ser],8.759,-12.124,#487388,Uto-Aztecan,North,USA
Sesotho [sot],-33.159,-149.374,#BC5C52,Niger-Kongo,Bantoid,South Africa
Shan [shn],-2.343,125.351,#C6E27B,Tai-Kadai,South,Myanmar
Shanghai [wuu],-20.444,104.634,#9CED55,Tibeto-Burman,Sinitic,China
Shasta [sht],19.736,-94.697,#8724A1,Shasta,,USA
Shawnee [sjw],12.929,-62.212,#4F2398,Algic,Algonquian,USA
She [shx],3.1,122.186,#BADC85,Hmong-Mien,Hmongic,China
Sheko [she],-19.724,-0.077,#3C7F67,Afro-Asiatic,Omotic,Ethiopia
Sherdukpen [sdp],15.966,39.229,#3AB899,Kho-Bwa,Sherdukpen-Sartang,India
Sherpa [xsr],13.923,58.133,#4DD197,Tibeto-Burman,Bodic,Nepal
Sherpa_Hile [xsr-2],20.721,35.172,#2ABCA7,Tibeto-Burman,Bodic,Nepal
Shigatse [bod-6],15.146,38.125,#2AC39D,Tibeto-Burman,Bodic,China
Shina [scl],-31.103,18.461,#1FA042,Indo-European,Indo-Iranian,Pakistan
Shipibo [shp],18.806,-0.684,#3F7F95,Panoan,Main,Peru
Shona [sna],-37.455,-155.537,#C06249,Niger-Kongo,Bantoid,Zimbabwe
Shoshone [shh],20.983,-18.961,#406A99,Uto-Aztecan,North,USA
Shuswap [shs],-19.92,-93.306,#834269,Salish,Interior,Canada
Siane [snp],25.787,-34.879,#4355A3,Trans New Guinea,Gorokan,Papua New Guinea
Siberian Yupik [ess],23.001,-27.365,#3D5D9F,Eskimo-Aleut,Eskimo,Russia
Sierra Popoluca [poi],17.353,-78.709,#723A96,Totozoquean-Chitimacha,Totozoquean,Mexico
Sika [ski],12.001,174.651,#CB8790,Malayo-Polynesian,Timoric,Indonesia
Sinaugoro [snc],29.619,-128.498,#A550A2,Oceanic,Western Oceanic,Papua New Guinea
Sindhi [snd],-38.113,16.101,#219B32,Indo-European,Indo-Iranian,Pakistan
Sinhalese [sin],-26.628,31.31,#2FB050,Indo-European,Indo-Iranian,Sri Lanka
Siroi [ssd],67.279,-5.398,#6F7EA8,Trans New Guinea,Madang,Papua New Guinea
Sisiqa [bbq],-8.235,-169.166,#D17073,Oceanic,Western Oceanic,Solomons
SiSwati [ssw],-47.667,-147.441,#AE6242,Niger-Kongo,Bantoid,Swaziland
Siuslaw [sis],-42.955,-71.527,#735B5C,Oregon Coast,,USA
Skou [skv],46.381,-121.651,#955DAA,Skou,West,Indonesia
Slave [xsl],-2.322,-102.147,#89517E,Dene-Yeniseic,Na-Dene,Canada
Slovene [slv],-66.607,28.81,#529907,Indo-European,Balto-Slavic,Slovenia
Sm'algyax [tsi],-48.922,-135.934,#966A5C,Tsimshian,,USA
So [teu],-21.098,-148.283,#9A6F74,Nilo-Saharan,East_Sudanic,Uganda
So [xxx-60],8.893,145.745,#E9C894,Austroasiatic,Bahnaric,Thailand
Sobei [sob],20.902,-161.885,#BE6B99,Oceanic,Western Oceanic,Indonesia
Soboyo [tlv],13.656,163.341,#BC928F,Malayo-Polynesian,Central Maluku,Indonesia
Solega [sle],1.232,-3.15,#0B7982,Dravidian,South,India
Somali [som],-19.543,-103.636,#8C4C6D,Afro-Asiatic,Cushitic,Somalia
Soninke [snk],41.939,105.403,#859291,Mande,Western,Senegal
Sonsorol [sov],-7.159,163.961,#D09775,Oceanic,Micronesian,Palau
Soqotri [sqt],-61.959,-97.455,#865025,Afro-Asiatic,Semitic,Yemen
Sora [srb],-0.436,-27.923,#47627F,Austroasiatic,Munda,India
Sorbian [dsb],-61.256,5.603,#448512,Indo-European,Balto-Slavic,Germany
Sotho_South [sot-2],-34.565,-148.66,#BC5B4F,Niger-Kongo,Bantoid,Lesotho
Sougb [mnx],25.961,-148.459,#99708E,East Bird's Head,,Indonesia
Souw Amana Teru [tlu],14.818,-147.029,#AF618E,Malayo-Polynesian,Central Maluku,Indonesia
Spanish [spa],-83.728,-87.996,#7F7205,Indo-European,Romance,Spain
Spanish_spoken [spa-2],-81.946,-95.515,#816F0C,Indo-European,Romance,Spain
Spiti [bod-2],-13.932,34.015,#24BD64,Tibeto-Burman,Bodic,India
Squamish [squ],-34.681,-99.901,#8D3148,Salish,Central,Canada
Sre [kpm],-7.587,140.227,#EFDC6C,Austroasiatic,Bahnaric,Vietnam
Stieng [sti],0.977,133.287,#D9DE82,Austroasiatic,Bahnaric,Vietnam
Sudest [tgo],8.999,-150.835,#CA568D,Oceanic,Western Oceanic,Papua New Guinea
Suena [sue],11.941,13.162,#5F8786,Trans New Guinea,Binanderean,Papua New Guinea
Sui [swi],0.323,139.413,#D7CB80,Tai-Kadai,South,China
Sukuma [suk],-32.392,-146.633,#B95953,Niger-Kongo,Bantoid,Tanzania
Sula [szn],24.342,178.398,#D882A7,Malayo-Polynesian,,Indonesia
Sulka [sua],21.152,-155.647,#B96598,Sulka,,Papua New Guinea
Sumbawa [smw],-2.856,173.664,#EB8B7A,Malayo-Polynesian,Malayo-Sumbawan,Indonesia
Sundanese [sun],-0.209,151.281,#EBBA7F,Malayo-Polynesian,Malayo-Sumbawan,Indonesia
Sunwar [suz],18.544,8.598,#2B8C9C,Tibeto-Burman,Kiranti,Nepal
Supyire [spp],-47.059,135.357,#9C9B55,Niger-Kongo,Gur,Mali
Surin Khmer [kxm],6.531,140.342,#EDDB90,Austroasiatic,Khmer,Thailand
Swahili [swh],-23.236,-143.634,#BB5460,Niger-Kongo,Bantoid,Tanzania
Swedish [swe],-72.102,64.705,#6FA308,Indo-European,Germanic,Sweden
Taba [mky],15.151,178.125,#CD8294,Malayo-Polynesian,Eastern Malayo-Polynesian,Indonesia
Tabla [tnm],22.065,-38.381,#4D5899,Trans New Guinea,Sentani,Indonesia
Tadaksahak [dsq],-26.74,-122.988,#965C6A,Nilo-Saharan,Songhai,Mali
Tafi [tcd],-10.495,-165.506,#B17376,Niger-Kongo,Kwa,Ghana
Tagalog [tgl],14.106,-176.339,#C17B90,Malayo-Polynesian,Philippines,Philippines
Tagbanwa_Aborlan [tbw],18.948,-174.149,#C67898,Malayo-Polynesian,Philippines,Philippines
Tahitian [tah],6.174,-173.304,#BA7986,Oceanic,Central Pacific,French Polynesia
Tai Aiton [aio],8.032,137.774,#DAD291,Tai-Kadai,South,India
Tairora [tbg],21.186,-36.634,#3B4DA1,Trans New Guinea,Kainantu,Papua New Guinea
Tajik [tgk],-63.25,31.026,#5A9628,Indo-European,Indo-Iranian,Tajikistan
Takelma [tkm],7.39,-66.924,#664388,Takelma,,USA
Takia [tbc],28.354,-152.64,#B2659E,Oceanic,Western Oceanic,Papua New Guinea
Talaud [tld],9.25,179.605,#C5808B,Malayo-Polynesian,Philippines,Indonesia
Talysh [tly],-33.319,-9.516,#2F724A,Indo-European,Indo-Iranian,Iran
Tamambo [mla],5.325,-162.036,#C76887,Oceanic,Southern Oceanic,Vanuatu
Tamang [tge],20.979,50.203,#3CD1A8,Tibeto-Burman,Bodic,Nepal
Tamang_Eastern [taj],17.638,49.511,#33DAA5,Tibeto-Burman,Bodic,Nepal
Tamang_Western [tdg],22.888,55.501,#43D8AD,Tibeto-Burman,Bodic,Nepal
Tamazight [tzm],-41.056,-116.803,#9E4446,Afro-Asiatic,Berber,Morocco
Tamil [tam],-5.826,-6.361,#0F7374,Dravidian,South,India
Tanacross [tcb],-0.807,-91.022,#813A7F,Dene-Yeniseic,Na-Dene,USA
Tanglapui [tpg],55.281,-131.777,#A05BC7,Timor-Alor-Pantar,Alor-Pantar,Indonesia
Tarahumara [tar],0.85,-51.169,#493C81,Uto-Aztecan,South,Mexico
Taraon [tro],6.611,42.973,#38C28B,Tibeto-Burman,Tani,India
Tariana [tae],6.935,-35.797,#445588,Arawak,North,Brazil
Tashelhiyt [shi],-35.3,-121.979,#A93D48,Afro-Asiatic,Berber,Morocco
Tatana [txx],9.248,-179.45,#DC7F8E,Malayo-Polynesian,North Borneo,Malaysia
Tatar [tat],-28.743,17.026,#2D9950,Turkic,North-west,Russia
Tause [tad],43.942,128.779,#9EA6AF,Lakes Plains,Eastern,Indonesia
Tausug [tsg],13.163,178.645,#E18296,Malayo-Polynesian,Barito,Philippines
Tauya [tya],59.213,-40.428,#72749C,Trans New Guinea,Madang,Papua New Guinea
Tawala [tbo],23.801,-128.413,#AD46A0,Oceanic,Western Oceanic,Papua New Guinea
Tboli [tbl],0.962,171.283,#D68D81,Malayo-Polynesian,Philippines,Philippines
Tehit Imyan [kps-2],16.614,-159.151,#BF6794,West Papuan,Birds Head,Indonesia
Teiwa [twe],50.132,-159.401,#AD6EBA,Timor-Alor-Pantar,Alor-Pantar,Indonesia
Telugu [tel],-25.766,16.152,#189E4B,Dravidian,South-central,India
Temiar [tea],8.775,167.111,#CE918C,Austroasiatic,Aslian,Malaysia
Temne [tem],-31.971,173.585,#B5855E,Niger-Kongo,Atlantic,Sierra Leone
Tengger [tes],0.172,173.531,#CF8980,Malayo-Polynesian,Javanic,Indonesia
Teop [tio],-2.674,-165.524,#E2667B,Oceanic,Western Oceanic,Papua New Guinea
Tepehuan_Huehuetla [tee],-25.294,-95.71,#87315A,Totozoquean-Chitimacha,Totozoquean,Mexico
Tera [ttr],-23.091,155.263,#C29E60,Afro-Asiatic,Chadic,Nigeria
Terêna [ter],9.405,-117.482,#A5378D,Arawak,South-Southwest,Brazil
Ternate [tft],19.192,168.495,#CF909C,West Papuan,North Halmahera,Indonesia
Ternate Malay [max],8.217,143.11,#D8C290,Malayo-Polynesian,Malayo-Sumbawan,Indonesia
Tetun [tet],-2.965,174.733,#D2877B,Malayo-Polynesian,Timoric,Indonesia
Thai [tha],-8.141,137.364,#E5DD6C,Tai-Kadai,South,Thailand
Thai_Northern [nod],-1.168,136.05,#E7E37D,Tai-Kadai,South,Thailand
Thakali [ths],13.953,54.497,#4ACA96,Tibeto-Burman,Bodic,Nepal
Thangmi [thf],10.398,23.788,#26A791,Tibeto-Burman,Western Himalayan,Nepal
Tharrkari [dhr],25.907,39.375,#49ACA2,Pama-Nyungan,Pilbara,Australia
Themchen [adx-2],7.06,34.681,#2CB98C,Tibeto-Burman,Bodic,China
Thulung [tdh],22.05,-11.393,#2A6EA3,Tibeto-Burman,Kiranti,Nepal
Tidore [tvo],18.423,-170.936,#C37596,West Papuan,North Halmahera,Indonesia
Tigak [tgc],8.44,-177.721,#DD7C8D,Oceanic,Western Oceanic,Papua New Guinea
Tigré [tig],-54.504,-69.309,#694426,Afro-Asiatic,Semitic,Eritrea
Tigrinya [tir],-41.189,-50.858,#50463E,Afro-Asiatic,Semitic,Ethiopia
Timugon [tih],-8.476,164.405,#C99474,Malayo-Polynesian,North Borneo,Malaysia
Tiri [cir],-22.325,164.638,#BE9165,Oceanic,Southern Oceanic,New Caledonia
Tiwa [lax],25.316,45.416,#4BB5A3,Tibeto-Burman,Bodo-Garo,India
Tiwi [tiw],6.38,-135.091,#A45B85,Tiwi,,Australia
Tlingit [tli],-2.459,-48.757,#57517D,Dene-Yeniseic,Na-Dene,USA
Toba_Batak [bbc],-10.223,-176.718,#DE7A6E,Malayo-Polynesian,Batak-Barrier Islands,Indonesia
Tobati [tti],50.197,-96.305,#835CAA,Oceanic,Western Oceanic,Indonesia
Tobelo [tlb],44.568,-148.345,#B75EBF,West Papuan,North Halmahera,Indonesia
Tokelauan [tkl],25.574,162.522,#BA929D,Oceanic,Central Pacific,Tokelau
Tol [jic],-11.375,-46.164,#6A6979,Jicaque,,Honduras
Tolaki [lbw],-1.269,-150.448,#C4597E,Malayo-Polynesian,Celebic,Indonesia
Tondano [tdn],-4.498,168.111,#E19478,Malayo-Polynesian,Philippines,Indonesia
Tonga [toi],-23.971,-148.226,#C95259,Niger-Kongo,Bantoid,Zambia
Tongan [ton],12.527,156.111,#C9A091,Oceanic,Central Pacific,Tonga
Tonkawa [tqw],19.268,-43.943,#4F5197,Tonkawa,,USA
Toqabaqita [mlu],18.887,-148.789,#DB48A4,Oceanic,Southeast Solomonic,Solomons
Toratan [rth],-1.875,166.882,#C28F7D,Malayo-Polynesian,Philippines,Indonesia
Torwali [trw],-35.668,19.249,#1AA333,Indo-European,Indo-Iranian,Pakistan
Touo [tqu],1.021,-58.815,#6A5C80,Touo,,Solomons
Trumai [tpy],10.722,21.005,#648A85,Trumai,,Brazil
Tsat [huq],-0.407,130.9,#CDD97F,Malayo-Polynesian,Malayo-Sumbawan,China
Tshangla [tsj],18.045,44.993,#34CBA2,Tibeto-Burman,Bodic,Bhutan
Tsova-Tush [bbl],-21.455,-20.332,#3C6763,Kartvelian,Georgian,Russia
Tsuken [xug],7.77,15.542,#38938A,Japonic,Ryukyuan,Japan
Tsum [ttz],15.306,32.051,#27B79C,Tibeto-Burman,Bodic,Nepal
Tübatulabal [tub],12.119,-20.404,#4A6C8C,Uto-Aztecan,North,USA
Tubu [tuq],-17.24,-55.575,#61536F,Nilo-Saharan,Saharan,Chad
Tugun [tzn],13.175,-169.272,#D47094,Malayo-Polynesian,Timoric,Indonesia
Tujia [tji],23.65,100.183,#8ED1A4,Tibeto-Burman,Tujia,China
Tukang_Besi [khc],-9.278,-175.762,#DE7970,Malayo-Polynesian,Celebic,Indonesia
Tulu [tcy],-18.125,20.44,#1AA55C,Dravidian,South,India
Tümpisa [par],22.751,-19.535,#4A6C97,Uto-Aztecan,North,USA
Tunica [tun],12.802,-72.435,#693890,Tunica,,USA
Turkana [tuv],15.197,-159.709,#B16D8E,Nilo-Saharan,Nilotic,Kenya
Turkish [tur],-34.751,1.825,#1F833C,Turkic,South-west,Turkey
Turkish_Crimean [crh],-29.551,6.906,#228B4A,Turkic,North-west,Ukraine
Turkmen [tuk],-9.647,3.216,#1C856F,Turkic,South-west,Turkmenistan
Turung [try],28.366,97.545,#8ACCA9,Tibeto-Burman,Jingpho,India
Tuscarora [tus],21.912,-110.256,#9B35A0,Iroquoian,Northern,USA
Tutsa [tvt],40.806,34.363,#4FA0B2,Tibeto-Burman,Konyak,India
Tuva [tyv],-16.195,6.017,#228964,Turkic,North-east,Russia
Tuvalu [tvl],5.026,149.922,#BCA386,Oceanic,Central Pacific,Tuvalu
Tz'utujil [tzj],-33.582,-125.751,#AE3F4A,Mayan,Quiche-Mam,Guatemala
Tzeltal_Aguacatenango [tzh],-34.665,-116.951,#A33A4A,Mayan,Chol-Tzeltal,Mexico
Tzotzil [tzc],-38.908,-118.586,#A53B41,Mayan,Chol-Tzeltal,Mexico
U [xxx-61],-0.498,143.563,#EACE7E,Austroasiatic,Palaungic,China
Uab Meto [aoz],7.491,-176.91,#D37B8A,Malayo-Polynesian,Timoric,Indonesia
Udihe [ude],-11.574,9.581,#338C70,Tungusic,North,Russia
Udmurt [udm],-20.666,17.241,#3F9466,Uralic,Permic,Russia
Uduk [udu],-3.961,141.843,#A29A7C,Nilo-Saharan,Komuz,Somalia
Ughele [uge],-5.335,-155.034,#D75776,Oceanic,,Solomons
Uighur [uig],-24.593,0.522,#258056,Turkic,South-east,China
Ukrainian [ukr],-68.522,20.102,#578E12,Indo-European,Balto-Slavic,Ukraine
Uma [ppk],9.899,-167.402,#E46991,Malayo-Polynesian,Celebic,Indonesia
UMbundu [umb],-23.332,-145.622,#B65A63,Niger-Kongo,Bantoid,Angola
Una [mtg],44.59,-42.99,#6163A9,Trans New Guinea,Mek,Indonesia
Ura [ryn],16.129,18.551,#359996,Japonic,Ryukyuan,Japan
Uradhi [urf],35.026,49.992,#55B2AD,Pama-Nyungan,North Cape York,Australia
Urak_Lawoi [urk],4.631,140.615,#E9D68B,Malayo-Polynesian,Malayo-Sumbawan,Thailand
Urdu [urd],-54.241,24.138,#3C9E18,Indo-European,Indo-Iranian,Pakistan
Uruangnirin [urn],32.365,-154.797,#B566A5,Malayo-Polynesian,North Bomberai,Indonesia
Urubu-Kaapor [urb],57.807,-97.856,#836AA3,Tupi,Tupi-Guarani,Brazil
Usan [wnu],33.886,-104.186,#8F42AA,Trans New Guinea,Madang,Papua New Guinea
Usarufa [usa],20.741,-34.028,#2C47A6,Trans New Guinea,Kainantu,Papua New Guinea
Ute [ute],8.302,-40.391,#474F8A,Uto-Aztecan,North,USA
Uzbek [uzn],-28.037,-3.432,#2C7A53,Turkic,South-east,Uzbekistan
V'ënen_Taut [nmb],18.195,-145.211,#BD5498,Oceanic,Southern Oceanic,Vanuatu
Vai [vai],21.709,137.905,#9C998F,Mande,Western,Liberia
Valman [van],10.443,-147.611,#B95B8C,Torricelli,Wapei,Papua New Guinea
Vano [vnk],6.239,167.904,#D29189,Oceanic,TeMotu,Solomons
Varli [vav],-18.229,20.168,#1CA45D,Indo-European,Indo-Iranian,India
Venda [ven],-40.783,-147.807,#B65D48,Niger-Kongo,Bantoid,South Africa
Vietnamese_Hanoi [vie],-3.674,139.55,#EADB76,Austroasiatic,Vietic,Vietnam
Wahgi [wgi],52.222,-33.531,#6A71A1,Trans New Guinea,Chimbu,Papua New Guinea
Waigali [wbk],-33.595,1.595,#1D823E,Indo-European,Indo-Iranian,Afghanistan
Waima'a [wmh],12.375,139.059,#D8CC99,Malayo-Polynesian,Timoric,Timor leste
Wakhi [wbl],-42.177,15.1,#28972D,Indo-European,Indo-Iranian,Pakistan
Walapai [yuf],12.757,-39.343,#424D91,Yuman-Cochimi,Yuman,USA
Walmatjarri [wmt],31.786,-29.304,#415CAC,Pama-Nyungan,,Australia
Wambaya [wmb],43.542,-63.359,#71639D,Mirndi,Barkly,Australia
Wambule [wme],26.354,6.935,#3A88A2,Tibeto-Burman,Kiranti,Nepal
Wandamen [wad],19.095,-157.921,#C26598,Malayo-Polynesian,Eastern Malayo-Polynesian,Indonesia
Wangkajunga [mpj-4],46.359,-15.074,#4C72B7,Pama-Nyungan,,Australia
Waorani [auc],33.305,-13.988,#56759B,Waorani,,Ecuador
Wappo [wao],14.505,-2.321,#517E8C,Wappo-Yukian,,USA
Warao [wba],13.452,-36.73,#4B598F,Warao,,Venezuela
Waray-Waray [war],7.102,-167.542,#BC7287,Malayo-Polynesian,Philippines,Philippines
Wardaman [wrr],38.046,-56.008,#6457A6,Yangman,,Australia
Warekena [gae],-10.46,-83.82,#7A4F77,Arawak,North,Venezuela
Warembori [wsa],36.399,-156.26,#BC65B0,Malayo-Polynesian,Eastern Malayo-Polynesian,Indonesia
Wari' [pav],6.43,-152.818,#D4548A,Chapacura,,Brazil
Warlpiri [wbp],37.807,-21.125,#556FA3,Pama-Nyungan,Ngumbin-Yapa,Australia
Warndarang [wnd],45.791,-65.905,#684BBA,Mara-Warndarang-Alawa,,Australia
Waropen [wrp],21.655,-136.664,#B84B9E,Malayo-Polynesian,Eastern Malayo-Polynesian,Indonesia
Warrgamay [wgy],37.667,30.5,#5598A5,Pama-Nyungan,Dyirbalic,Australia
Warrnambool [xxx-31],57.494,4.585,#6682A8,Pama-Nyungan,Kulin,Australia
Warumungu [wrm],41.602,52.744,#61A7AC,Pama-Nyungan,,Australia
Washo [was],22.978,-31.657,#526396,Washo,,USA
Waskia [wsk],70.534,-12.506,#757D9F,Trans New Guinea,Madang,Papua New Guinea
Wathawurrung [xxx-32],60.702,-27.016,#6572B4,Pama-Nyungan,Kulin,Australia
Watjarri [wbv],54.494,38.017,#6297B4,Pama-Nyungan,Kardu,Australia
Wayana [way],34.034,-61.544,#4F26C4,Cariban,Guianan,Brazil
Welsh [cym],-77.726,-138.866,#8F7222,Indo-European,Celtic,Britain
Wembawemba [xxx-33],26.662,-29.524,#566897,Pama-Nyungan,Kulin,Australia
West Makian [mqs],17.67,-162.207,#CE669A,West Papuan,Birds Head,Indonesia
Wichí [mzh],-13.427,-114.78,#A1376C,Matacoan,Mataco,Argentina
Wichita [wic],8.961,-102.389,#922C8D,Caddoan,Northern,USA
Wik Mungkan [wim],47.478,48.607,#5DA7B9,Pama-Nyungan,North Cape York,Australia
Wik Ngathana [wig],34.666,56.067,#56BDB3,Pama-Nyungan,North Cape York,Australia
Winnebago [win],26.597,-123.034,#A545A2,Siouan,Western,USA
Wintu [wit-2],15.506,-43.894,#56588F,Wintuan,,USA
Wirangu [wiw],51.922,26.416,#4E98C5,Pama-Nyungan,Wirangu,Australia
Woleaian [woe],6.719,176.908,#DB848A,Oceanic,Micronesian,USA Federated States of Micronesia
Wolio [wlo],0.587,-157.669,#D65C80,Malayo-Polynesian,Celebic,Indonesia
Wolof [wol],-23.405,-169.551,#D2705B,Niger-Kongo,Atlantic,Senegal
Wooi [wbw],2.49,-149.847,#B75F82,Malayo-Polynesian,Eastern Malayo-Polynesian,Indonesia
Worora [unp],46.387,-61.717,#5C3DCF,Wororan,,Australia
Wotu [wtw],-0.67,-163.718,#E6627E,Malayo-Polynesian,Celebic,Indonesia
Wulguru [xxx-35],26.237,5.317,#4E8498,Pama-Nyungan,GreaterMari,Australia
Wutun [wuh],17.49,49.736,#49C09A,Tibeto-Burman,Sinitic,China
Wutung [wut],9.167,-149.699,#967284,Skou,West,Papua New Guinea
Wuvulu [wuv],-15.031,-138.29,#B94C6B,Oceanic,Admiralties,Papua New Guinea
Wyandot [wya],25.173,-88.819,#7E20AD,Iroquoian,Northern,Canada
Xhosa [xho],-46.203,-147.565,#AA654B,Niger-Kongo,Bantoid,South Africa
Xokleng [xok],23.968,-5.231,#717E86,Macro-Je,Je,Brazil
Xuwen [nan-7],-8.178,115.251,#AEE270,Tibeto-Burman,Sinitic,China
Yabem [jae],43.495,-149.114,#A26BA6,Oceanic,Western Oceanic,Papua New Guinea
Yagaria [ygr-2],6.061,-38.13,#445188,Trans New Guinea,Gorokan,Papua New Guinea
Yagua [yad],14.235,-106.119,#8C538B,Yagua,,Peru
Yakkha [ybh],28.156,-8.456,#2E73AC,Tibeto-Burman,Kiranti,Nepal
Yakut [sah],-11.416,3.473,#21856C,Turkic,North-east,Russia
Yala [yba],6.003,162.693,#D09988,Niger-Kongo,Idomoid,Nigeria
Yamphu [ybi],20.049,-0.635,#317F9C,Tibeto-Burman,Kiranti,Nepal
Yankuntjatjara [kdd],48.663,-3.455,#4B7CBC,Pama-Nyungan,Western Desert,Australia
Yanyuwa [jao],45.395,-24.688,#596EAA,Pama-Nyungan,Ngarna,Australia
Yao [yao],-20.777,-156.099,#CF5C5E,Niger-Kongo,Bantoid,Malawi
Yap [yap],-8.065,-157.751,#C26475,Oceanic,Yap,Yap
Yaqui_Arizona [yaq],-7.337,-37.471,#63697B,Uto-Aztecan,South,USA
Yarik [erw],33.868,-170.032,#B776A5,Malayo-Polynesian,Eastern Malayo-Polynesian,Indonesia
Yawa [yva],40.906,-110.187,#9054A8,West Papuan,Yapen,Indonesia
Yawelmani [yok-2],-34.165,18.163,#63896B,Yok-Utian,Yokuts,USA
Yawuru [ywr],40.509,-60.426,#6856A8,Nyulnyul,East,Australia
Yaygir [xxx-36],31.902,37.122,#4DA6A7,Pama-Nyungan,Central-East,Australia
Yeletnye [yle],35.428,-54.716,#5746B1,Yeletnye,,Papua New Guinea
Yelmek [jel],2.471,26.306,#489B82,Bulaka,,Indonesia
Yessan-Mayo [yss],1.488,14.7,#488E81,Sepik,Tama,Papua New Guinea
Yeyi [yey],-30.172,-153.973,#B8645B,Niger-Kongo,Bantoid,Botswana
Yidiny [yii],36.925,32.727,#559BA6,Pama-Nyungan,Yidinic,Australia
Yimas [yee],3.32,-59.39,#5D4583,Lower Sepik-Ramu,Lower Sepik,Papua New Guinea
Yindjibarndi [yij],14.144,34.9,#50A18E,Pama-Nyungan,Pilbara,Australia
Yingkarta [yia],25.231,17.706,#548D95,Pama-Nyungan,Kardu,Australia
Yir Yoront [yiy],45.814,33.32,#529DB8,Pama-Nyungan,West Cape York,Australia
Yohlmo [scp],14.806,38.066,#22C99F,Tibeto-Burman,Bodic,Nepal
Yokuts_Northern Foothill [yok],-16.952,28.019,#5A9373,Yok-Utian,Yokuts,USA
Yoruba [yor],-8.143,164.004,#D49873,Niger-Kongo,Yoruba,Nigeria
Yuchi [yuc],34.839,-84.551,#793FAD,Yuchi,,USA
Yugur [ybe],-8.672,25.275,#31A572,Turkic,South-east,China
Yukaghir [ykg],0.71,1.729,#378280,Yukaghir,,Russia
Yuki [yuk],18.686,-4.404,#4B7B91,Wappo-Yukian,,USA
Yukulta [gcd],17.919,-15.257,#487092,Tangkic,,Australia
Yunnan_Kunming [smm],-20.21,110.755,#9ED160,Tibeto-Burman,Sinitic,China
Yup'ik_Central Alaskan [esu],13.417,-33.64,#395194,Eskimo-Aleut,Eskimo,USA
Yuracaré [yuz],5.845,-73.787,#6A3587,Yurakare,,Bolivia
Yurok [yur],-34.043,-80.887,#795462,Algic,Yurok,USA
Yuwaalaraay [kld],24.679,29.683,#4A9E9C,Pama-Nyungan,Central New South Wales,Australia
Zaiwa [atb],70.369,82.038,#7C96C0,Tibeto-Burman,Lolo-Burmese,China
Zapotec [zai],-19.422,-144.83,#CF485D,Otomanguean,Zapotecan,Mexico
Zhuang [zyn],2.396,139.896,#DCCE85,Tai-Kadai,South,China
Zulu [zul],-35.087,-143.047,#AF5C56,Niger-Kongo,Bantoid,South Africa
Zuni [zun],-17.666,-23.092,#617275,Zuni,,USA
Kadiwéu [kbc],-19.374,-116.962,#9C4869,Guaicuruan,Northern,Brazil
