name,latitude,longitude,color,family,subgroup,country
!Xoon [nmn],-24,21.5,#273568,Tuu,Hua,Botswana
’Weenhayek [mtp],-21.99,-63.6,#31AD98,Matacoan,Mataguayo II,Bolivia
||Ana [gnk],-22.2,22.4,#366B46,Khoe,Khoe,Botswana
||Ani [hnh],-19.3,22.5,#5A6D28,Khoe,Khoe,Botswana
||Gana [gnk-2],-19,22.5,#415D39,Khoe,Khoe,Botswana
|Xam [xam],-30.34,21.82,#3C4681,Tuu,/Xam,South Africa
Aari [aiw],6,36.6,#7C7812,Afro-Asiatic,Omotic,Ethiopia
Aashing [adi-10],28.99,94.9,#BC5D38,Tibeto-Burman,Macro-Tani,India
Abau [aau],-4,141.167,#8B3951,Sepik,Abau,Papua New Guinea
Abawiri [flh],-3.05,139.21,#6A2C41,Lakes Plains,Eastern Lakes Plains,Indonesia-Papua
Abaza [abq],44.34,41.67,#48E83B,Northwest Caucasus,Abaza-Abkhaz,Russia
Abellen [abp],15.41,120.2,#7B92E6,Malayo-Polynesian,Philippines,Philippines
Abenaki_Western [abe],44,-72.25,#52BC75,Algic,Algonquian,USA
Abinomn [bsa],-3,138.8,#8B9532,Abinomn,,Indonesia-Papua
Abipon [axb],-26,-61,#6F9BC0,Guaicuruan,Southern Guaicuruan,Argentina
Abkhaz [abk],43,41.03,#48E23E,Northwest Caucasus,Abaza-Abkhaz,Abkhazia
Abruzzo [nap],42.66,13.7,#523888,Indo-European,Romance,Italy
Abui [abz],-8.417,124.6,#633E88,Timor-Alor-Pantar,Alor-Pantar,Indonesia-NTT
Abun [kgr],-0.833,132,#55218F,West Papuan,Birds Head,Indonesia-Papua
Acehnese [ace],5.333,96.167,#4649C6,Malayo-Polynesian,Malayo-Sumbawan,Indonesia-Sumatra
Achagua [aca],4.002,-72.814,#6CA255,Arawak,Northern Maipuran,Colombia
Aché [guq],-25.25,-55.17,#983F67,Tupian,Tupi-Guarani,Paraguay
Achuar [acu],-3,-76,#ABAD31,Jivaroan,Shuaric,Peru
Achumawi [acv],41.5,-121,#62C87D,Palaihnihan,,USA
Acoma [kjq-2],34.92,-107.58,#2AA063,Keresan,Western Keresan,USA
Adim [yay],5.81,8.03,#503783,Niger-Kongo,Atlantic-Congo,Nigeria
Adyghe [ady],44.1,39.08,#56E53B,Northwest Caucasus,Ubykh-Circassian,Russia
Adynyamathanha [adt],-31,139.5,#ED7AB8,Pama-Nyungan,Thura-Yura,Australia
Adzera [azr],-6.417,146.25,#534AA4,Oceanic,Western Oceanic,Papua New Guinea
Afar [aar],11.85,42,#B3A53E,Afro-Asiatic,Cushitic,Djibouti
Afrikaans [afr],-33.9,18.5,#6F2581,Indo-European,Germanic,South Africa
Agarabi [agd],-6.25,145.917,#B59330,Trans New Guinea,Morobe-Eastern Highlands,Papua New Guinea
Aghem [agq],6.39,10.12,#2E2789,Niger-Kongo,Atlantic-Congo,Cameroon
Aghu [ahh],-6.333,140,#775C2C,Trans New Guinea,Awyu-Dumut,Indonesia-Papua
Aghu-Tharrnggala [gtu],-13.73,142.43,#DA549F,Pama-Nyungan,Paman,Australia
Agta [agt],17.967,121.833,#6182E1,Malayo-Polynesian,Philippines,Philippines
Aguaruna [agr],-5.25,-78,#9EB935,Jivaroan,Aguaruna,Peru
Agutaynen [agn],11.15,120.95,#7DA4E6,Malayo-Polynesian,Philippines,Philippines
Ahamb [ahb],-16.507,167.703,#3E57B4,Oceanic,Southern Oceanic,Vanuatu
Ahtna [aht],62,-145,#49B24C,Dene-Yeniseic,Na-Dene,USA-Alaska
Ai-cham_Diwo [aih],25.8,107,#3F108D,Tai-Kadai,Kam-Tai,China
Aikaná [tba],-12.1,-60.6,#84A638,Aikaná,,Brazil
Ainu [ain],43.5,142,#549F5F,Ainu,,Japan
Ainu_Kuril [ain-2],46.5,151.5,#67B069,Ainu,,Japan
Aiwoo [nfl],-10.5,166.5,#4972DA,Oceanic,Te Motu,Solomons_East
Aka [axk],3.46,15.73,#1C5582,Ubangian,,Central African Republic
Aka [hru-2],27.2,92.9,#766923,Tibeto-Burman,Hrusish,India
Akabea [abj-2],12.38,92.78,#C78D8D,Andaman,,India_Andaman-Nicobars
Akan [aka],6.5,-1.25,#2D4B72,Niger-Kongo,Atlantic-Congo,Ghana
Akawaio [ake],6,-59.5,#97AF54,Cariban,Venezuelan,Guyana
Akha [ahk],20.3,99.6,#703747,Tibeto-Burman,Lolo-Burmese,Thailand
Akie [oki],-5.43,37.19,#396394,Nilo-Saharan,Eastern Sudanic,Kenya
Akuntsu [aqz],-12.74,-60.8,#BF7171,Tupian,Tupari,Brazil
Alaaba [alw],7.31,38.09,#7B911D,Afro-Asiatic,Cushitic,Ethiopia
Alaala [nrz],-9,146.667,#8345AA,Oceanic,Western Oceanic,Papua New Guinea
Alabama [akz],32.7,-86.1,#7CBD36,Muskogean,Alabama-Koasati,USA
Alagwa [wbj],-4.64,35.72,#439473,Afro-Asiatic,Cushitic,Tanzania
Alamblak [amp],-4.667,143.25,#89AF52,Sepik,Sepik Hill,Papua New Guinea
Alawa [alh],-15.75,134.333,#D97EC6,Macro-Gunwinygu,Marran,Australia
Albanian_Gheg_Kosovo [aln],42.58,21,#5C5C51,Indo-European,Albanian,Kosovo
Albanian_Tosk [als],40.5,20,#52445E,Indo-European,Albanian,Albania
Aleut [ale],54,-166,#92C440,Eskimo-Aleut,Aleut,USA-Alaska
Algherese [cat-3],40.55,8.32,#6E3276,Indo-European,Romance,Italy-Sardinia
Alor [aol],-8.245,124.412,#72309D,Malayo-Polynesian,Timoric,Indonesia-NTT
Alsea [aes],44.67,-123.93,#44E4B5,Alsean,,USA
Alune [alp],-3.167,128.333,#4268B9,Malayo-Polynesian,Central Maluku,Indonesia-Maluku-north
Alyawarr [aly],-24.6,134.5,#ED6FBD,Pama-Nyungan,Arandic,Australia
Alyutor [alr],61,165,#92D092,Chukotko-Kamchatkan,Main Chukotko-Kamchatkan,Russia
Ama [amm],-4.168,141.671,#809838,Left May,,Papua New Guinea
Amahuaca [amc],-10.8,-73.5,#94B134,Panoan,Southern Panoan,Peru
Amam [wer-2],-7.85,146.95,#BA8441,Trans New Guinea,Oro-Wharton,Papua New Guinea
Amanab [amn],-3.5,141.167,#BB6153,Trans New Guinea,Border,Papua New Guinea
Amanuban [aoz-2],-9.82,124.47,#415BB6,Malayo-Polynesian,Timoric,Indonesia-NTT
Amara [aie],-5.533,148.667,#7240BA,Oceanic,Western Oceanic,Papua New Guinea-Bismarcks
Amarasi [aaz],-10.08,124.33,#4064AD,Malayo-Polynesian,Timoric,Indonesia-NTT
Ambae_West [omb],-15.5,167.75,#5872CC,Oceanic,Southern Oceanic,Vanuatu
Ambai [amk],-1.917,136.533,#404AA9,Malayo-Polynesian,Eastern Malayo-Polynesian,Indonesia-Papua
Ambel [xmt-2],-0.05,130.7,#5845B4,Malayo-Polynesian,Eastern Malayo-Polynesian,Indonesia-Papua
Ambonese Malay [abs],-3.7,128.2,#7535C1,Malayo-Polynesian,Malayo-Sumbawan,Indonesia-Maluku-north
Ambulas [abt],-3.75,143.083,#B5613E,Ndu,Nuclear Ndu,Papua New Guinea
Amdo [adx],36,94,#A14F2E,Tibeto-Burman,Bodic,China
Amele_Haija [aey],-5.25,145.75,#71704C,Trans New Guinea,Madang,Papua New Guinea
Amharic [amh],10,38,#57AD49,Afro-Asiatic,Semitic,Ethiopia
Amis [ami],23.333,121.333,#77A6DD,Austronesian,East Formosan,Taiwan
Amo [amo],10.33,8.67,#38409C,Niger-Kongo,Atlantic-Congo,Nigeria
Amoy [nan],24.5,118,#4F1E60,Tibeto-Burman,Sinitic,China
Ampale [apz],-6.753,146.107,#8E8629,Trans New Guinea,Morobe-Eastern Highlands,Papua New Guinea
Amuesha [ame],-10,-73,#61D39F,Arawak,Western Maipuran,Peru
Amuzgo [amu],16.83,-98,#2681AB,Otomanguean,Eastern Otomanguean,Mexico
Anal [anm],24.33,93.99,#7F882F,Tibeto-Burman,Kuki-Chin-Naga,India
Anamuxra [imi],-4.667,145,#899036,Trans New Guinea,Madang,Papua New Guinea
Andalusian [spa-4],37.5,-3.6,#5B4169,Indo-European,Romance,Spain
Andoké [ano],0,-72,#698D1B,Andoké,,Colombia
Anejom [aty],-20.25,169.833,#537FE0,Oceanic,Southern Oceanic,Vanuatu
Anem [anz],-5.667,149,#623EB4,Anem,,Papua New Guinea-Bismarcks
Angaatiha [agm],-7.22,146.25,#BF9A51,Trans New Guinea,Morobe-Eastern Highlands,Papua New Guinea
Angali [pes-2],29.75,50.96,#577B3E,Indo-European,Indo-Iranian,Iran
Angami [njm],25.667,94.5,#822667,Tibeto-Burman,Kuki-Chin-Naga,India
Angas [anc],9.75,8.75,#3D2983,Afro-Asiatic,Chadic,Nigeria
Anggor [agg],-3.667,141.167,#8B623E,Trans New Guinea,Border,Papua New Guinea
Anguthimri [awg],-12.333,141.833,#DA4C76,Pama-Nyungan,Paman,Australia
Anindilyagwa [aoi],-14,136.5,#A8A6FF,Macro-Gunwinygu,East Arnhem,Australia
Anong [nun],27.2,98.8,#633843,Tibeto-Burman,Nungish,China
Ansus [and],-1.73,135.806,#474CB1,Malayo-Polynesian,Eastern Malayo-Polynesian,Indonesia-Papua
Antakarinya [ant],-27.11,134.85,#F67EA7,Pama-Nyungan,Wati,Australia
Antwerps [nld-2],51.22,4.4,#544161,Indo-European,Germanic,Belgium
Añú [pbg],11,-71.62,#51ABB6,Arawak,Northern Maipuran,Venezuela
Anuta [aud],-11.611,169.85,#7541B6,Oceanic,Central Pacific,Solomons_East
Anyin [any],5.9,-2.9,#3C377C,Niger-Kongo,Atlantic-Congo,Côte d'Ivoire
Apache_Western [apw],33.9,-109.55,#389946,Dene-Yeniseic,Na-Dene,USA
Apalai [apy],0,-54,#77C379,Cariban,Apalai,Brazil
Apatani [apt],27.4,93.8,#A44235,Tibeto-Burman,Macro-Tani,India
Apinaye [apn],-6.25,-48,#6F3784,Macro-Je,Je,Brazil
Apma [app],-15.775,168.158,#4E5CB1,Oceanic,Southern Oceanic,Vanuatu
Apurinã [apu],-7.26,-64.8,#549E99,Arawak,Southern Maipuran,Brazil
Arabana [ard],-28,137,#FE7AA9,Pama-Nyungan,Karnic,Australia
Arabela [arl],-2,-75.17,#9BAF43,Zaparoan,Iquito-Arabela,Peru
Arabic [arb],30,42,#3BBABC,Afro-Asiatic,Semitic,Saudi Arabia
Arabic_Abha [acw-2],18.22,42.51,#2CA9B9,Afro-Asiatic,Semitic,Saudi Arabia
Arabic_Afghanistan [acm-3],36.7,67.12,#6AA047,Afro-Asiatic,Semitic,Afghanistan
Arabic_Attuwair [acw-3],29.9,40.1,#2EADC9,Afro-Asiatic,Semitic,Saudi Arabia
Arabic_Baghdad [acm-4],33.33,44.38,#3EA583,Afro-Asiatic,Semitic,Iran
Arabic_Basra [acm],30.5,47.825,#339F89,Afro-Asiatic,Semitic,Iraq
Arabic_Bukhara [abh],39.76,64.42,#65A84B,Afro-Asiatic,Semitic,Uzbekistan
Arabic_Coastal-Dhofari [acx],20.7,58.2,#2EA6B5,Afro-Asiatic,Semitic,Oman
Arabic_Cypriot [acy],34.343,33.011,#2A9478,Afro-Asiatic,Semitic,Cyprus
Arabic_Egyptian [arz],30,30,#2294B2,Afro-Asiatic,Semitic,Egypt
Arabic_Faifa [jye-3],17.25,43.1,#2893C0,Afro-Asiatic,Semitic,Yemen
Arabic_Gulf [afb],24,54,#24929A,Afro-Asiatic,Semitic,United Arab Emirates
Arabic_Harb [acw],25.81,42.87,#289CA7,Afro-Asiatic,Semitic,Saudi Arabia
Arabic_Khawetna [arb-3],36.42,41.225,#31A09B,Afro-Asiatic,Semitic,Turkey
Arabic_Khuzestan [acm-2],31.33,48.69,#31A4AD,Afro-Asiatic,Semitic,Iran
Arabic_Moroccan [ary],34,-7,#34AFC8,Afro-Asiatic,Semitic,Morocco
Arabic_Muscat [acx-2],23.63,58.55,#29A99C,Afro-Asiatic,Semitic,Oman
Arabic_Qatari [afb-3],25.3,51.52,#2798B2,Afro-Asiatic,Semitic,Qatar
Arabic_Sa'idi [aec],25,32.75,#369DBC,Afro-Asiatic,Semitic,Egypt
Arabic_Sason [arb-2],38.333,41.42,#359C6B,Afro-Asiatic,Semitic,Turkey
Arabic_Sudanese [apd-2],15.5,32.56,#2295A3,Afro-Asiatic,Semitic,Sudan
Arabic_Syrian [apc],33,37,#2AA3C3,Afro-Asiatic,Semitic,Syria
Arabic_Tillo [arb-4],37.95,42.013,#2E9989,Afro-Asiatic,Semitic,Turkey
Arabic_Tunisian [aeb],36,10,#28AFB8,Afro-Asiatic,Semitic,Tunisia
Arabic_Wadi Mousa [ajp-2],30.32,35.48,#2D9FC3,Afro-Asiatic,Semitic,Jordan
Arabic_Yemeni [jye-2],14,47,#3AAEC2,Afro-Asiatic,Semitic,Yemen
Arakmbut [hug],-13.27,-71.21,#9FC769,Harakmbet,Harakmbut,Peru
Arammba [stk],-8.25,141.5,#845343,South New Guinea,East Morehead,Papua New Guinea
Arandai [jbj],-2.17,133,#9A9137,Trans New Guinea,South Birds Head,Indonesia-Papua
Araona [aro],-12.333,-67.75,#8DB046,Tacanan,Takanik-Chamik,Bolivia
Arapaho [arp],39.565,-105.345,#55DF79,Algic,Algonquian,USA
Arára_Pará [aap],-4.2422,-53.3745,#9AAEAE,Cariban,Pekodian,Brazil
Arawak [arw],5.64,-56.92,#548C5C,Arawak,Northern Maipuran,Guyana
Arbëresh [als-2],37.995,13.283,#424D69,Indo-European,Albanian,Italy
Archi [aqc],42.07,46.86,#66C21D,Nakh-Daghestanian,Lezgic,Russia
Arctic Bay_Inuit [ikt],73.036,-85.15,#A7C44C,Eskimo-Aleut,Eskimo,Canada
Are'are [alu],-9.342,161.203,#4F77CF,Oceanic,Southeast Solomonic,Solomons
Argobba [agj],10.66,39.76,#4EAC44,Afro-Asiatic,Semitic,Ethiopia
Arguni [agf],-2.667,132.5,#6E34BE,Malayo-Polynesian,Eastern Malayo-Polynesian,Indonesia-Papua
Aribwatsa [laz],-6.667,146.917,#4C64B7,Oceanic,Western Oceanic,Papua New Guinea
Arifama-Miniafia [aai],-9.142,149.279,#7B5C64,Oceanic,Western Oceanic,Papua New Guinea
Arikara [ari],40,-97,#72CE5C,Caddoan,Northern Caddoan,USA
Arizona Tewa [tew],35.8,-110.4,#568835,Kiowa-Tanoan,Tewa,USA
Armenian [hye],40,45,#778221,Indo-European,Armenian,Armenia
Armenian_Western [hye-2],40,40,#74781E,Indo-European,Armenian,Turkey
Arop-Lokep [apr],-5.333,147.083,#6848B5,Oceanic,Western Oceanic,Papua New Guinea
Arosi [aia],-10.333,161.5,#4A75D0,Oceanic,Southeast Solomonic,Solomons
Arrernte_Central [are],-22.85,133.7,#F773AA,Pama-Nyungan,Arandic,Australia
Arrernte_Mparntwe [aer],-24,136,#F076AC,Pama-Nyungan,Arandic,Australia
Arta [atz],16.42,121.66,#7894DD,Malayo-Polynesian,Philippines,Philippines
Asaro_Upper [aso],-5.967,145.292,#8A9A28,Trans New Guinea,Morobe-Eastern Highlands,Papua New Guinea
Asheninka_Apurucayali [cpc],-10.018,-74.793,#85BB99,Arawak,Southern Maipuran,Peru
Ashéninka_Perené [prq],-10.8734,-75.245,#7BC085,Arawak,Southern Maipuran,Peru
Asmat [asc],-5.3,138.3,#978C41,Trans New Guinea,Asmat-Kamoro,Indonesia-Papua
Assamese [asm],26.5,93,#8F671D,Indo-European,Indo-Iranian,India
Asumboa [aua],-11.296,166.496,#5245CB,Oceanic,Te Motu,Solomons_East
Ata [ata],-5.667,151,#4E70CB,Ata,,Papua New Guinea-Bismarcks
Atacameño [kuz],-23,-69,#70B53B,Atacameño,,Chile
Atadei [slp-3],-8.46,123.555,#6644C0,Malayo-Polynesian,Timoric,Indonesia-NTT
Atakapa [aqp],30,-93,#7EA03E,Atakapa,,USA
Atayal [tay],24.5,121,#5498DE,Austronesian,Atayalic,Taiwan
Atchin [upv],-16,167.333,#3951AF,Oceanic,Southern Oceanic,Vanuatu
Athpare [aph],26.75,87.33,#969132,Tibeto-Burman,Kiranti,Nepal
Atikamekw [atj],48,-74,#7EC8A5,Algic,Algonquian,Canada
Atong [aot],25.5,90.5,#AD6533,Tibeto-Burman,Bodo-Garo,India
Atsugewi [atw],40.75,-121,#6FD08E,Palaihnihan,,USA
Au [avt],-3.5,142.083,#5C61BE,Torricelli,Central Torricelli,Papua New Guinea
Aulua [aul],-16.33,167.694,#5464E2,Oceanic,Southern Oceanic,Vanuatu
Avar [ava],42.54,46.7,#7EB525,Nakh-Daghestanian,Avar-Andi,Russia
Awa [awb],-6.75,145.667,#A78328,Trans New Guinea,Morobe-Eastern Highlands,Papua New Guinea
Awa Pit [kwi],0.75,-78.5,#9D7F29,Barbacoan,Northern Barbacoan,Ecuador
Awabakal [awk],-33.05,151.55,#E4729B,Pama-Nyungan,Yuin-Kuri,Australia
Awad Bing [bcu],-5.584,146.349,#805AA0,Oceanic,Western Oceanic,Papua New Guinea
Awadhi [awa],27.5,81.5,#B16D32,Indo-European,Indo-Iranian,India
Awak [awo],9.86,11.33,#4C1981,Niger-Kongo,Atlantic-Congo,Nigeria
Awar [aya],-4,144.625,#9E443A,Lower Sepik-Ramu,Ramu,Papua New Guinea
Awiakay [afp],-4.672,143.712,#C4955E,Arafundi,,Papua New Guinea
Awin [awi],-5.833,142.5,#A27524,Trans New Guinea,Awin-Pa,Papua New Guinea
Awngi [awn],10.83,36.67,#758A1A,Afro-Asiatic,Cushitic,Ethiopia
Awtuw [kmn],-3.5,141.917,#CB5A65,Sepik,Ram,Papua New Guinea
Awyi [auw],-3,140.75,#9F812F,Trans New Guinea,Border,Papua New Guinea
Aymara [ayr],-16,-69.5,#A7B944,Aymaran,Aymara,Peru
Äynu [aib],38.069,76.227,#9A6C1F,Turkic,Common Turkic,China
Ayoré [ayo],-20.5,-59.25,#636CBF,Zamucoan,,Paraguay
Azerbaijani [azj],40.5,48.5,#908414,Turkic,Common Turkic,Azerbaijan
Azeri [azb],40.67,47.75,#908712,Turkic,Common Turkic,Azerbaijan
Baagandji [drl],-32,142.533,#F193C3,Pama-Nyungan,Yarli-Baagandji,Australia
Baarin [mon-2],43.53,118.67,#9E7717,Mongolic,Core Mongolic,China
Babanki [bbk],6.104,10.311,#37227F,Niger-Kongo,Atlantic-Congo,Cameroon
Babungo [bav],6.12,10.42,#2E1A86,Niger-Kongo,Atlantic-Congo,Cameroon
Bachamal [wdj-2],-13.17,130.17,#CAA4D2,Wagaydyic,Wadjiginy,Australia
Badimaya [bia],-27.667,119,#FF6BA8,Pama-Nyungan,Kardu,Australia
Badjala [xby],-25.084,152.529,#E95382,Pama-Nyungan,Waka-Kabic,Australia
Bafut [bfd],6.083,10.0999,#30427E,Niger-Kongo,Atlantic-Congo,Cameroon
Bagheli [bfy],24.35,81.43,#A25B26,Indo-European,Indo-Iranian,India
Bagirmi [bmi],10.202,17,#6338AA,Nilo-Saharan,Central Sudanic,Chad
Bagri [bgq],29.6,74.3,#B0533F,Indo-European,Indo-Iranian,India
Bagulal [kva],42.56,46.17,#8DA625,Nakh-Daghestanian,Avar-Andi,Russia
Bahing [bhj],27.27,86.56,#997E28,Tibeto-Burman,Kiranti,Nepal
Bahnar [bdq],14,108.5,#6E27BB,Austroasiatic,Bahnaric,Vietnam
Bai [bca],26,100,#501B5E,Tibeto-Burman,Macro-Bai,China
Baima [bqh],30.32,107.34,#653728,Tibeto-Burman,Bodic,China
Bajau_Semporna [ssb],4.5,118.5,#4E69E3,Malayo-Polynesian,Barito,Indonesia-Kalimantan
Bajau_Sulawesi [bdl-2],-3.75,122.5,#4E6EE3,Malayo-Polynesian,Barito,Indonesia-Sulawesi
Bajo_Kangean [bdl],-7.17,115.82,#5066E6,Malayo-Polynesian,Barito,Indonesia-Kalimantan
Bajuni [swh-2],-1,42.04,#346BB5,Niger-Kongo,Atlantic-Congo,Kenya
Bakhtiari [ldd],31.92,50.86,#6D9B45,Indo-European,Indo-Iranian,Iran
Balangao [blw],17.167,120.333,#6883E6,Malayo-Polynesian,Philippines,Philippines
Balanta [ble],12,-15,#2A6EA0,Niger-Kongo,Atlantic-Congo,Guinea Bissau
Balantak [blz],-0.82,123.431,#7970E1,Malayo-Polynesian,Celebic,Indonesia-Sulawesi
Balante_Sofa [bjt],12.54,-15.67,#336AB4,Niger-Kongo,Atlantic-Congo,Guinea Bissau
Balawaia [snc-2],-9.98,147.865,#8AA0A0,Oceanic,Western Oceanic,Papua New Guinea
Balearic [cat-2],39.5,3,#663677,Indo-European,Romance,Spain
Bali-Vitu [wiv],-4.733,149.283,#5260DD,Oceanic,Western Oceanic,Papua New Guinea-Bismarcks
Balinese [ban],-8.583,115.25,#6B3DD1,Malayo-Polynesian,Malayo-Sumbawan,Indonesia-NTB
Balochi [bgp-2],27,63.5,#AB6734,Indo-European,Indo-Iranian,Pakistan
Balti [bft],35.2,76,#B3672F,Tibeto-Burman,Bodic,Pakistan
Baluchi [bgp],27.2,60.68,#836F28,Indo-European,Indo-Iranian,Iran
Bambara [bam],12.5,-7.5,#794055,Mande,Western Mande,Mali
Banda [bnd],-5.25,133.17,#6C3EB3,Malayo-Polynesian,Central Maluku,Indonesia-Maluku-north
Bandjalang [bdy],-28.74,153.01,#EB6E8D,Pama-Nyungan,Yugambeh-Bundjalung,Australia
Bandjalang-Gidabal [bdy-2],-28.25,152,#E76E92,Pama-Nyungan,Yugambeh-Bundjalung,Australia
Banggai [bgz],-1.42,123.17,#5884E0,Malayo-Polynesian,Celebic,Indonesia-Sulawesi
Banggime [dbb],14.78,-3.76,#712865,Banggime,,Mali
Baniwa_Central [bwi],1.4091,-68.1358,#9186B8,Arawak,Northern Maipuran,Brazil
Baniwa_do_Içana [bwi-2],2.18,-67.77,#8D88AB,Arawak,Northern Maipuran,Brazil
Banjar [bjn],0.75,115.79,#724AD8,Malayo-Polynesian,Malayo-Sumbawan,Indonesia-Kalimantan
Bankariya [cdm-2],27.5,85,#B77035,Tibeto-Burman,Chepang,Nepal
Banoni [bcm],-6.417,155.25,#5D6FCC,Oceanic,Western Oceanic,Papua New Guinea-Bougainville
Bantawa [bap],27.2,87.1,#A7A334,Tibeto-Burman,Kiranti,Nepal
Bantik [bnq],1.564,124.859,#8172D6,Malayo-Polynesian,Philippines,Indonesia-Sulawesi
Baoan [peh],35.05,102.1,#A7692D,Mongolic,Core Mongolic,China
Barai [bbb],-9.417,148,#8C8039,Southeast Papuan,Owen Stanley Ranges,Papua New Guinea
Barain_Jalkiya [bva],12.18,18.68,#7F3F9C,Afro-Asiatic,Chadic,Chad
Baram [brd],27.95,85,#C05640,Tibeto-Burman,Western Himalayan,Nepal
Barang-barang [lji],-6.4,120.5,#5479E3,Malayo-Polynesian,Celebic,Indonesia-Sulawesi
Barasano [bsn],-0.25,-70.75,#898D1B,Tucanoan,East Tucanoan,Colombia
Bardi [bcj],-16.58,122.92,#D48BCF,Nyulnyul,West Nyulnyul,Australia
Baré [bae],1.6,-66.8,#5AACA2,Arawak,Northern Maipuran,Venezuela
Bargam [mlp],-4.87,145.76,#83724C,Trans New Guinea,Madang,Papua New Guinea
Bari [bfa],3.8,31,#4A39AD,Nilo-Saharan,Eastern Sudanic,South Sudan
Barí [mot],9,-73.5,#7B8339,Chibchan,Core Chibchan,Venezuela
Bariai [bch],-5.497,148.63,#6960CD,Oceanic,Western Oceanic,Papua New Guinea
Barok [bjk],-3.48,152.19,#5862D1,Oceanic,Western Oceanic,Papua New Guinea-Bismarcks
Baruga [bjz],-9.328,148.734,#A17930,Trans New Guinea,Oro-Wharton,Papua New Guinea
Barupu [wra],-3.083,142.083,#4A3B8F,Skou,Eastern Skou,Papua New Guinea
Baruya [byr],-6.917,145.833,#B77B3D,Trans New Guinea,Morobe-Eastern Highlands,Papua New Guinea
Basà [bzw],8.03,7.06,#33348E,Niger-Kongo,Atlantic-Congo,Nigeria
Basaa [bas],5,10.15,#2756A1,Niger-Kongo,Atlantic-Congo,Cameroon
Basari [bsc],12.25,-13,#1A61A1,Niger-Kongo,Atlantic-Congo,Senegal
Bashkir [bak],53,58,#957023,Turkic,Common Turkic,Russia
Basketo [bst],6.384,36.651,#569C3A,Afro-Asiatic,Omotic,Ethiopia
Basque [eus],42.82,-1.95,#9E8C3D,Basque,,Spain
Basque_Navarro [eus-2],43.17,-1.24,#8A7F2F,Basque,,France
Batak_Karo [btx],3,98.167,#5762D5,Malayo-Polynesian,Batak-Barrier Islands,Indonesia-Sumatra
Bati [btc],4.26,11.06,#265C9F,Niger-Kongo,Atlantic-Congo,Cameroon
Batuley [bay],-5.8,134.75,#4E5EC4,Malayo-Polynesian,Southeast Maluku,Indonesia-Maluku-south
Baule [bci],7.5,-5,#47317A,Niger-Kongo,Atlantic-Congo,Côte d'Ivoire
Baure [brg],-15,-64,#54BCBD,Arawak,Southern Maipuran,Bolivia
Bauzi [bvz],-2.5,137.667,#9A5D30,Geelvink Bay,,Indonesia-Papua
Bawm [bgr],22.5,92.25,#80474B,Tibeto-Burman,Kuki-Chin-Naga,India
Bayso [bsw],6.28,37.76,#737D2B,Afro-Asiatic,Cushitic,Somalia
Begak [dbj],5.25,118.833,#7461DF,Malayo-Polynesian,North Borneo,Malaysia-Borneo
Beja [bej],18,36,#779024,Afro-Asiatic,Cushitic,Sudan
Belarussian [bel],54,27,#716240,Indo-European,Balto-Slavic,Belarus
Belep [yly],-19.75,163.67,#7173F8,Oceanic,Southern Oceanic,New Caledonia
Belhare [byw],27,87.25,#9EA834,Tibeto-Burman,Kiranti,Nepal
Bella Coola [blc],52.5,-126.67,#47DBB9,Salish,Bella Coola,Canada
Bemba [bem],-11,31,#247195,Niger-Kongo,Atlantic-Congo,Zambia
Bembe [bmb],-4,14,#225E8B,Niger-Kongo,Atlantic-Congo,Democratic Republic of the Congo
Bena [bez],-9.27,35.04,#2767A9,Niger-Kongo,Atlantic-Congo,Tanzania
Bena-Bena [bef],-6.114,145.567,#91A820,Trans New Guinea,Morobe-Eastern Highlands,Papua New Guinea
Bende [bdp],-6,30.5,#295D9C,Niger-Kongo,Atlantic-Congo,Tanzania
Beng [nhb],7.83,-4.25,#5A246E,Mande,Eastern Mande,Côte d'Ivoire
Bengali [ben],22.5,90,#9A6120,Indo-European,Indo-Iranian,Bangladesh
Beothuk [bue],48,-55,#91BA55,Beothuk,,Canada
Bergensk [nno],60.39,5.33,#631C5D,Indo-European,Germanic,Norway
Berik [bkl],-2.25,138.92,#A5894E,Trans New Guinea,Orya-Tor,Indonesia-Papua
Berom [bom-2],9.67,8.81,#4B2C9C,Niger-Kongo,Atlantic-Congo,Nigeria
Berta [wti],10.67,34.5,#377B70,Nilo-Saharan,Berta,Ethiopia
Besemah [pse],-4.2,103,#613ECA,Malayo-Polynesian,Malayo-Sumbawan,Indonesia-Sumatra
Betawi [bew],-6.21,107.02,#6E44C2,Malayo-Polynesian,Malayo-Sumbawan,Indonesia-Java
Betta Kurumba [xub],11.58,76.55,#CB893C,Dravidian,South Dravidian,India
Bezhta [kap],42.133,46.128,#77A115,Nakh-Daghestanian,Tsezic,Russia
Bhili [bhb],22,73,#AD702F,Indo-European,Indo-Iranian,India
Bhojpuri [bho],26.8,85.3,#B36F3E,Indo-European,Indo-Iranian,India
Bhumij [muw],21.333,86.5,#C6754F,Austroasiatic,Munda,India
Biafada [bif],11.47,-15.13,#2E74A8,Niger-Kongo,Atlantic-Congo,Guinea Bissau
Biak [bhw],-1.14,136,#4255A5,Malayo-Polynesian,Eastern Malayo-Polynesian,Indonesia-Papua
Biaka [axk-2],3.65,17.27,#3C379E,Niger-Kongo,Atlantic-Congo,Congo
Biaomin Yao [bmt],23.6,111.75,#570789,Hmong-Mien,Mienic,China
Bidjara [bym],-24.5,146.592,#F16B8A,Pama-Nyungan,Greater Maric,Australia
Bih [rad],12.48,108.025,#5E1CAE,Malayo-Polynesian,Malayo-Sumbawan,Vietnam
Bijago [bjg],11.28,-15.83,#335DA6,Niger-Kongo,Atlantic-Congo,Guinea Bissau
Bikol [bcl],13.333,123.5,#7884EA,Malayo-Polynesian,Philippines,Philippines
Biksi [yet],-4.013,140.494,#9F554F,Yetfa-Biksi,,Papua New Guinea
Bilin [byn],15.9,38.3,#8EB366,Afro-Asiatic,Cushitic,Eritrea
Bilinara [nbj],-16,131.667,#EA6BBF,Pama-Nyungan,Ngumbin-Yapa,Australia
Biloxi [bll],32.25,-90,#5B9E2B,Siouan,Western Siouan,USA
Bilua [blb],-7.75,156.667,#6A89C8,Solomons East Papuan,,Solomons
Bima [bhp],-8.545,118.677,#365BAF,Malayo-Polynesian,Bima,Indonesia-NTB
Bimin [bhl],-5.43,141.942,#809443,Trans New Guinea,Ok,Papua New Guinea
Bina [bmn],-10.249,149.683,#909B78,Oceanic,Western Oceanic,Papua New Guinea
Binandere [bhg],-8.167,147.917,#A85934,Trans New Guinea,Oro-Wharton,Papua New Guinea
Bini_Edo [bin],6.42,5.83,#39368D,Niger-Kongo,Atlantic-Congo,Nigeria
Binigura [pnv],-22.488,116.506,#FB6AA6,Pama-Nyungan,Kanyara-Mantharta,Australia
Bininj Gun-Wok [gup],-12.5,133.75,#9AA5E8,Macro-Gunwinygu,Gunwingyuan proper,Australia
Biri [bzr],-20.5,146.5,#F17E9A,Pama-Nyungan,Greater Maric,Australia
Birom [bom],9.67,8.83,#35328A,Niger-Kongo,Atlantic-Congo,Nigeria
Bisu [bii],19.75,100,#851F74,Tibeto-Burman,Lolo-Burmese,Thailand
Bjokapakha [tsj-3],26.965,91.05,#B04830,Tibeto-Burman,Bodic,Bhutan
Blackfoot [bla],50,-112.67,#64D694,Algic,Algonquian,Canada
Blang [blr],23.3,100,#5717A3,Austroasiatic,Khasi-Palaung,China
Boazi [kvg],-7,141.25,#4C7831,Anim,Boazi,Papua New Guinea
Bobangi [bni],0,17.8,#255EAA,Niger-Kongo,Atlantic-Congo,Democratic Republic of the Congo
Bobongko [bgb],-0.5,121.75,#734DD2,Malayo-Polynesian,Celebic,Indonesia-Sulawesi
Bohutu [bxh],-10.5,150.33,#4A5BB2,Oceanic,Western Oceanic,Papua New Guinea
Bokala [gix],4.57,19.02,#1F558D,Ubangian,Sere-Mba,Democratic Republic of the Congo
Bokar [adi-2],29,94.35,#B04542,Tibeto-Burman,Macro-Tani,India
Bokyi [bky],6.1,9.06,#412D88,Niger-Kongo,Atlantic-Congo,Nigeria
Bola [bnp],-5.5,150,#5D5FD2,Oceanic,Western Oceanic,Papua New Guinea-Bismarcks
Bolgo_Dugag [bvo],10.79,18.61,#712E85,Niger-Kongo,Atlantic-Congo,Chad
Bongo [bot],7.5,28,#4E2BA5,Nilo-Saharan,Central Sudanic,South Sudan
Bonifacino [lij-3],41.39,9.16,#4E3C72,Indo-European,Romance,France
Bontok [bnc],17.083,120.917,#787DE6,Malayo-Polynesian,Philippines,Philippines
Bora [boa],-2.25,-71.75,#869F30,Boran,Bora,Peru
Bori [adi-5],28.2,94.6,#B45736,Tibeto-Burman,Macro-Tani,India
Bornholmsk [scy],55,15,#523F58,Indo-European,Germanic,Denmark
Boro [brx],26.75,92,#A26525,Tibeto-Burman,Bodo-Garo,India
Borong Kosorong [ksr],-6.534,147.502,#B1774D,Trans New Guinea,Morobe-Eastern Highlands,Papua New Guinea
Boróro [bor],-15,-52,#7DA15E,Macro-Je,Bororo,Brazil
Boruca [brn],9.001,-83.325,#8C6B35,Chibchan,Core Chibchan,Costa Rica
Bosnian [bos],44,18,#7B4A65,Indo-European,Balto-Slavic,Bosnia
Bouyei [pcc-5],25.817,107.55,#4A1BA6,Tai-Kadai,Kam-Tai,China
Bouyei_west [pcc-2],25.75,107.333,#5016A8,Tai-Kadai,Kam-Tai,China
Brag-g.yab [khg-2],30.65,97.55,#B14E2F,Tibeto-Burman,Bodic,China
Brahui [brh],29,67,#B3813D,Dravidian,North Dravidian,Pakistan
Brajbhasha [bra],27.49,77.67,#B95E3B,Indo-European,Indo-Iranian,India
Brao [brb],14,107.001,#502DBA,Austroasiatic,Bahnaric,Cambodia
Breton [bre],47.65,-2.75,#2C7CAF,Indo-European,Celtic,France
Bribri [bzd],9.5,-83,#90424D,Chibchan,Core Chibchan,Costa Rica
Brokpa [sgt],27.33,92,#A15628,Tibeto-Burman,Bodic,Bhutan
Bruu [bru],17.167,104.333,#460F98,Austroasiatic,Katuic,Thailand
Buduma [bdm],13.6,14,#34519D,Afro-Asiatic,Chadic,Chad
Bugan [bbh],23.75,105,#351D8C,Austroasiatic,Mangic,China
Bugan_Nala [bbh-2],23.487,105.15,#331B85,Austroasiatic,Mangic,China
Bugis [bug],-4,120,#538DE0,Malayo-Polynesian,Greater South Sulawesi,Indonesia-Sulawesi
Bugun [bgn],27.3,92.35,#924530,Tibeto-Burman,Kho-Bwa,India
Buin [buo],-6.75,155.833,#A4973F,South Bougainville,Buin,Papua New Guinea-Bougainville
Bukit [bvu],-2.75,115.64,#7449DC,Malayo-Polynesian,Malayo-Sumbawan,Indonesia-Kalimantan
Bukiyip_Arapesh [ape],-3.667,142.5,#4D55B3,Torricelli,Kombio-Arapesh,Papua New Guinea
Bularnu [yil],-21.5,137.5,#F164B5,Pama-Nyungan,Warluwaric,Australia
Bulgarian [bul],43,25,#576353,Indo-European,Balto-Slavic,Bulgaria
Buli [bzq],0.833,128.5,#6360CC,Malayo-Polynesian,Eastern Malayo-Polynesian,Indonesia-Maluku-north
Buma [tkw],-11.615,166.966,#822BBC,Oceanic,Te Motu,Solomons_East
Buma [yns-2],-3.33,17.5,#1F5B9F,Niger-Kongo,Atlantic-Congo,Democratic Republic of the Congo
Bumang [bvp],22.5,96.5,#451582,Austroasiatic,Khasi-Palaung,Laos
Bumbita_Arapesh [aon],-3.667,142.833,#4962B5,Torricelli,Kombio-Arapesh,Papua New Guinea
Bumthang [kjz],27.802,90.8,#AA3F34,Tibeto-Burman,Bodic,Bhutan
Bumthang_Ura [kjz-2],27.48,90.905,#832D23,Tibeto-Burman,Bodic,Bhutan
Bunan [bfu],32.61,76.91,#8D6121,Tibeto-Burman,Western Himalayan,India
Bunaq [bfn],-9.1,125.15,#58436E,Timor-Alor-Pantar,Mainland Timor-Alor-Pantar,Indonesia-NTT
Bundeli [bns],23.18,79.95,#C85C44,Indo-European,Indo-Iranian,India
Bungku [bkz],-3,122.33,#3D6BCE,Malayo-Polynesian,Celebic,Indonesia-Sulawesi
Bungu [wun],-8.33,32.88,#164D8A,Niger-Kongo,Atlantic-Congo,Tanzania
Bunong [cmo],12.63,107.3,#5627B6,Austroasiatic,Bahnaric,Cambodia
Bunuba [bck],-17.75,125.75,#DC8FD1,Bunuban,,Australia
Bunun [bnn],23.5,121,#5C97E3,Austronesian,Bunun,Taiwan
Burarra [bvr],-12.25,134.667,#C984C8,Macro-Gunwinygu,Maningrida,Australia
Burmese [mya],20,96,#7B3040,Tibeto-Burman,Lolo-Burmese,Myanmar
Burmese_Myeik [mya-2],12.43,98.6,#793533,Tibeto-Burman,Lolo-Burmese,Myanmar
Burmeso [bzu],-2.447,138.209,#6F8143,Burmeso,,Indonesia-Papua
Buru [mhs],-3.7,126.4,#7032A7,Malayo-Polynesian,Central Maluku,Indonesia-Maluku-north
Burushaski [bsk],36.5,74.5,#8E9D2A,Burushaski,,Pakistan
Buryat [bxm],52,108,#98831C,Mongolic,Core Mongolic,Russia
Busa [bqp],9.67,4,#50285E,Mande,Eastern Mande,Nigeria
Bushong [buf],-4.67,21.3,#2D47AC,Niger-Kongo,Atlantic-Congo,Democratic Republic of the Congo
Buwal [bhs],10.5,13.86,#2E7CA9,Afro-Asiatic,Chadic,Cameroon
Buyang [yha],24,104.8,#46109D,Tai-Kadai,Kadaic,China
Buyi_Hezhang [pcc-3],27.12,104.73,#420D88,Tai-Kadai,Kam-Tai,China
Buyuan_Jino [jiy],22.05,101,#761850,Tibeto-Burman,Lolo-Burmese,China
Byansi [bee],30.17,80.5,#984F2C,Tibeto-Burman,Western Himalayan,India
C'lela [dri],11.47,5.27,#265193,Niger-Kongo,Atlantic-Congo,Nigeria
Cabecar [cjp],9.91,-83.68,#8E4C3F,Chibchan,Core Chibchan,Costa Rica
Cabiyarí [cbb],-0.1302,-70.6927,#848EB2,Arawak,Northern Maipuran,Colombia
Caddo [cad],33.33,-93.5,#5DCE54,Caddoan,Caddo,USA
Cahuilla [chl],33.75,-117.75,#8FC156,Uto-Aztecan,North Uto-Aztecan,USA
Cak [ckh],21.41,92.6,#834035,Tibeto-Burman,Jingpho,Bangladesh
Cakchiquel [ckf],14.5,-91,#45B4BB,Mayan,Core Mayan,Guatemala
Camling [rab],27.3,86.8,#9F9639,Tibeto-Burman,Kiranti,Nepal
Campa [cni],-12,-74,#7AB7A2,Arawak,Southern Maipuran,Peru
Camsá [kbh],1,-77,#5BC05C,Camsá,,Colombia
Candoshi [cbu],-4.17,-77,#93AD30,Candoshi,,Peru
Canela-Krahô [ram],-6.5,-45,#8D4574,Macro-Je,Je,Brazil
Canichana [caz],-14.31,-64.94,#557AB2,Canichana-Tequiraca,,Bolivia
Cantonese [yue],22.333,114,#581E75,Tibeto-Burman,Sinitic,Hong Kong
Capanahua [kaq],-7,-74,#989E2B,Panoan,Southern Panoan,Peru
Cappadocian [cpg],38.66,34.85,#825D30,Indo-European,Graeco-Phrygian,Turkey
Car [caq],9.167,92.75,#7157D3,Austroasiatic,Nicobar,India_Andaman-Nicobars
Carapana [cbc],0.45,-71,#8C9816,Tucanoan,East Tucanoan,Colombia
Carib [car],7.85,-59,#75A045,Cariban,Guianan Carib,Guyana
Carijona [cbd],0.148,-70.708,#88A35E,Cariban,Guianan Carib,Colombia
Carolinian [cal],15,146,#4465BE,Oceanic,Micronesian,USA Northern Mariana Islands
Cashibo-Cacataibo [cbr],-9.1,-75.5,#94A02D,Panoan,Southern Panoan,Peru
Cashinahua [cbs],-10.5,-71.75,#8EA123,Panoan,Southern Panoan,Peru
Catalan [cat],41.4,2.02,#6D3379,Indo-European,Romance,Spain
Catawba [chc],34,-81,#60C083,Siouan,Eastern Siouan,USA
Cavineña [cav],-12.25,-67.5,#B7AF5F,Tacanan,Cavineña,Bolivia
Cayapa [cbi],1.2,-78.75,#B57738,Barbacoan,Southern Barbacoan,Ecuador
Cayuga [cay],42.75,-76.75,#63CD82,Iroquoian,Northern Iroquoian,USA
Cayuvava [cyb],-12.5,-67,#3CB6AA,Cayuvava,,Bolivia
Cebuano [ceb],10,124,#7A9BE8,Malayo-Polynesian,Philippines,Philippines
Cemuhi [cam],-20.833,165,#4378E0,Oceanic,Southern Oceanic,New Caledonia
Ch'ol [cti],17.49,-92.47,#42A4CB,Mayan,Core Mayan,Mexico
Chacobo [cao],-12.25,-65,#96B642,Panoan,Southern Panoan,Bolivia
Chadong [cdy],25.2,110.2,#4B118D,Tai-Kadai,Kam-Tai,China
Chaha [sgw],8.2,38,#45A532,Afro-Asiatic,Semitic,Ethiopia
Chakali [cli],9.83,-1.9,#59107E,Niger-Kongo,Atlantic-Congo,Ghana
Chakma [ccp],22.9,92.23,#A85044,Indo-European,Indo-Iranian,Bangladesh
Cham_Eastern [cjm],10.93,108.1,#62149E,Malayo-Polynesian,Malayo-Sumbawan,Vietnam
Cham_Western [cja],12,105.5,#611BAC,Malayo-Polynesian,Malayo-Sumbawan,Cambodia
Chambri [can],-4.167,143.083,#6A6F5C,Lower Sepik-Ramu,Lower Sepik,Papua New Guinea
Chamorro [cha],13.583,145,#4B8FDC,Malayo-Polynesian,Chamorro,Guam
Changpaoyao [bmt-2],25.417,107.88,#3D008A,Hmong-Mien,Mienic,China
Changsha [hsn],28,113,#5E2448,Tibeto-Burman,Sinitic,China
Chantyal [chx],28.75,83.5,#BE5634,Tibeto-Burman,Bodic,Nepal
Chara [cra],6.64,36.42,#8F7821,Afro-Asiatic,Omotic,Ethiopia
Chatino [ctp],16.5,-97.25,#3557C3,Otomanguean,Eastern Otomanguean,Mexico
Chatino_Tataltepec [cta],16.3,-97.55,#276FAF,Otomanguean,Eastern Otomanguean,Mexico
Chattisgarhi [hne],21.25,81.25,#A45B3A,Indo-European,Indo-Iranian,India
Chaudangsi [cdn],29.7,80.48,#BB4F3C,Tibeto-Burman,Western Himalayan,India
Chechen [che],43.13,45.54,#769E1B,Nakh-Daghestanian,Nakh,Russia
Cheke_Holo_Maringe [mrn],-8.5,159.67,#4F58D4,Oceanic,Western Oceanic,Solomons
Chemehuevi [ute-2],34.33,-115.17,#8FC25E,Uto-Aztecan,Numic,USA
Chenchu [cde],15.88,79.25,#BE833A,Dravidian,South-Central Dravidian,India
Chengdu [cmn-14],30.6,104.1,#592064,Tibeto-Burman,Sinitic,China
Chepang [cdm],28.05,83.92,#957F30,Tibeto-Burman,Chepang,Nepal
Cherokee [chr],35.5,-83.5,#72C172,Iroquoian,Southern Iroquoian,USA
Cheyenne [chy],43.5,-104,#60D65B,Algic,Algonquian,USA
Chichewa [nya-2],-14.8,32.81,#116596,Niger-Kongo,Atlantic-Congo,Malawi
Chichimec [pei],24.87,-103.7,#38AE50,Otomanguean,Western Otomanguean,Mexico
Chickasaw [cic],34,-88,#59A742,Muskogean,Western Muskogean,USA
ChiKunda [kdn],-15.73,30.28,#156D8A,Niger-Kongo,Atlantic-Congo,Mozambique
Chimariko [cid],41,-123,#69CB5A,Chimariko,,USA
Chimila [cbg],10.75,-73,#7563AA,Chibchan,Core Chibchan,Colombia
Chimwiini [swh-4],1.1,43,#277C9F,Niger-Kongo,Atlantic-Congo,Somalia
Chin_Daai [dao],21.1,93.65,#714A4A,Tibeto-Burman,Kuki-Chin-Naga,Myanmar
Chin_Falam [cfm],22.9,93.67,#8F5948,Tibeto-Burman,Kuki-Chin-Naga,Myanmar
Chin_Tiddim [ctd],23.333,93.667,#7E355C,Tibeto-Burman,Kuki-Chin-Naga,Myanmar
Chinantec_Comaltepec [cco],17.57,-96.55,#1B77B9,Otomanguean,Western Otomanguean,Mexico
Chinantec_Lealao [cle],17.32,-95.93,#1C86BD,Otomanguean,Western Otomanguean,Mexico
Chinantec_Palantla [cpa],17.83,-96.39,#1D84B3,Otomanguean,Western Otomanguean,Mexico
Chinantec_Sochiapam [cso],17.825,-96.67,#1E8AA5,Otomanguean,Western Otomanguean,Mexico
Chindamba [ndj],-8.4,36.03,#315AA2,Niger-Kongo,Atlantic-Congo,Tanzania
Chinook [chh],46,-124,#50CEC7,Chinook,Lower Chinook,USA
Chinsenga [nse],-11.63,29.02,#2456A5,Niger-Kongo,Atlantic-Congo,Mozambique
ChiNyanja [nya],-15,35,#1E6094,Niger-Kongo,Atlantic-Congo,Malawi
Chipaya [cap],-19,-68,#77C13E,Uru-Chipaya,,Bolivia
Chiquimulilla [xin-2],14.08,-90.38,#429ED2,Xinca,,Guatemala
Chiquitano [cax],-17.5,-62,#49AA6D,Chiquitano,,Bolivia
Chiricahua [apm],33.5,-108,#32A53A,Dene-Yeniseic,Na-Dene,USA
Chitimacha [ctm],29.67,-91,#7DA422,Totozoquean-Chitimacha,Chitimacha,USA
Chitoniya_Tharu [the],27.58,84.41,#AE5A42,Indo-European,Indo-Iranian,Nepal
Chittagong [ben-2],22.37,91.8,#9E592F,Indo-European,Indo-Iranian,Bangladesh
Chöcangacakha [cgk],27.53,91.14,#9A402D,Tibeto-Burman,Bodic,Bhutan
Chocho [coz],17.67,-97.33,#147FAD,Otomanguean,Eastern Otomanguean,Mexico
Choctaw [cho],32.25,-88.5,#6DBB41,Muskogean,Western Muskogean,USA
Chokwe [cjk],-9.702,22.876,#125A94,Niger-Kongo,Atlantic-Congo,Democratic Republic of the Congo
Cholon [cht],-8,-77.5,#82B759,Cholon,,Peru
Chongyang [gan-3],29.55,114.17,#521A63,Tibeto-Burman,Sinitic,China
Chontal [chd],18.17,-92.58,#459DBC,Mayan,Core Mayan,Mexico
Chontal [clo],16.3,-95.5,#49C1C2,Tequistlatecan,,Mexico
Chrau [crw],10.667,107.5,#6E23AF,Austroasiatic,Bahnaric,Vietnam
Chuj [cac],16,-91.5,#4EA9D5,Mayan,Core Mayan,Mexico
Chukchi [ckt],67,-173,#BBB881,Chukotko-Kamchatkan,Main Chukotko-Kamchatkan,Russia
Chumash [boi],34.5,-120.25,#29B69E,Chumashan,South Chumashan,USA
Chumash_Ineseño [inz],34.61,-120.09,#28BCA4,Chumashan,South Chumashan,USA
Chumburung [ncu],8.15,-0.28,#58228A,Niger-Kongo,Atlantic-Congo,Ghana
Chuukese [chk],7.333,151.75,#694DC5,Oceanic,Micronesian,USA Federated States of Micronesia
Chuvash [chv],55.5,47.5,#B27D26,Turkic,Oghur,Russia
Chuwabu [chw],-17.36,37.1,#306FAB,Niger-Kongo,Atlantic-Congo,Mozambique
Cicipu [awc],10.911,5.703,#1664A1,Niger-Kongo,Atlantic-Congo,Nigeria
CiLuba [lua],-6,22,#2565A7,Niger-Kongo,Atlantic-Congo,Democratic Republic of the Congo
Cimbrian [cim],45.62,11.13,#523969,Indo-European,Germanic,Italy
Cisuundi [sdj],-5.56,12.19,#1D6F91,Niger-Kongo,Atlantic-Congo,Angola
Coahuilteco [xcw],28,-100,#61BB46,Coahuilteco,,USA
Cocama-Cocamilla [cod],-5,-74.3,#B4AB93,Tupian,Tupi-Guarani,Peru
Cocopa [coc],32.5,-115,#88C85C,Yuman-Cochimi,Yuman,USA
Coeur d'Alene [crd],47.33,-117,#41D9C6,Salish,Interior Salish,USA
Cofan [con],0.25,-77,#797529,Kofan,,Ecuador
Cogtse Gyarong [jya],32.1,100.6,#768037,Tibeto-Burman,Na-Qiangic,China
Col [liw],-3.3,102.86,#6A39C6,Malayo-Polynesian,Malayo-Sumbawan,Indonesia-Sumatra
Colac [xxx-42],-38.33,143.5,#DE8DD7,Pama-Nyungan,Kulinic,Australia
Comanche [com],33.5,-101.5,#9DB338,Uto-Aztecan,Numic,USA
Comox [coo],49.75,-125,#41DDB9,Salish,Central Salish,Canada
Coos [csz],43.5,-124.17,#51DB94,Coos,,USA
Cora [crn],23.333,-99,#4FB8A4,Uto-Aztecan,Corachol,Mexico
Cornish [cor],50.5,-4.5,#39558F,Indo-European,Celtic,Britain
Corsican [cos],42.1,9.5,#60438B,Indo-European,Romance,France
Cosao [xxx-25],21.62,101.567,#60263B,Tibeto-Burman,Lolo-Burmese,China
Cree_Plains [crk],54,-116,#72C9B2,Algic,Algonquian,Canada
Cree_Woods [cwd],57.5,-100.5,#69CF9E,Algic,Algonquian,Canada
Creek [mus],30.41,-85.2,#6AB640,Muskogean,Creek,USA
Crimean Tatar [crh],45.58,34.1,#977C18,Turkic,Common Turkic,Ukraine
Croatian [hrv],45.5,17.3,#7F4A64,Indo-European,Balto-Slavic,Croatia
Crow [cro],45.5,-108,#53A538,Siouan,Western Siouan,USA
Cua [cua],15.167,108.667,#6318A2,Austroasiatic,Bahnaric,Vietnam
Cubeo [cub],1.33,-70.5,#7DB237,Tucanoan,Central Tucanoan,Colombia
Cuiba [cui],6.5,-70.5,#447BA7,Guahiban,Central Guahiban,Colombia
Cupeño [cup],33.17,-116.5,#A4C358,Uto-Aztecan,North Uto-Aztecan,USA
Cuquila Mixtec [mie],17.2,-97.755,#2884B9,Otomanguean,Eastern Otomanguean,Mexico
Cuvok [cuv],10.7,14,#3674B3,Afro-Asiatic,Chadic,Cameroon
Cuwabo [chw-2],-17.32,37.14,#3875BC,Niger-Kongo,Atlantic-Congo,Mozambique
Czech [ces],50,14.5,#726044,Indo-European,Balto-Slavic,Czech Republic
Daakaka [bpa],-16.269,167.964,#5646C7,Oceanic,Southern Oceanic,Vanuatu
Daakie [ptv],-16.32,168.04,#485AB6,Oceanic,Southern Oceanic,Vanuatu
Daats'íin [dtn],12.6,35.8,#286F78,Nilo-Saharan,Gumuz,Ethiopia
Dadibi [mps],-6.55,144.58,#AE612B,Papuan Gulf,Tua River,Papua New Guinea
Dadua [gal-2],-8.35,125.838,#4C50AF,Malayo-Polynesian,Timoric,Timor leste
Daga [dgz],-10,149.25,#8B7F42,Southeast Papuan,Dagan,Papua New Guinea
Dagaare [dga],11.5,-2.5,#5F268D,Niger-Kongo,Atlantic-Congo,Burkina Faso
Dagbani [dag],9.58,-0.5,#5C2C84,Niger-Kongo,Atlantic-Congo,Ghana
Dagur [dta],48,124,#9E6E29,Mongolic,Core Mongolic,China
Dahalik [dlk],15.75,40.25,#3C925B,Afro-Asiatic,Semitic,Eritrea
Dai_Jinping [khb-2],22.78,103.225,#4B1478,Tai-Kadai,Kam-Tai,China
Dakpa [dka],27.38,91.5,#A0492F,Tibeto-Burman,Bodic,Bhutan
Dalabon [ngk],-14.25,134,#C197CE,Macro-Gunwinygu,Gunwingyuan proper,Australia
Dalian [cmn-4],38.91,121.61,#571471,Tibeto-Burman,Sinitic,China
Damal [uhn],-4,137.5,#9C7C28,Trans New Guinea,Western Trans New Guinea,Indonesia-Papua
Damana [mbp],10.9,-73.6,#899736,Chibchan,Core Chibchan,Colombia
Damar_West [drn],-7,128.5,#5760C0,Malayo-Polynesian,West Damar,Indonesia-Maluku-south
Dameli [dml],35.375,71.693,#AC7E30,Indo-European,Indo-Iranian,Pakistan
Dami [dad],-5.315,145.613,#AA5580,Oceanic,Western Oceanic,Papua New Guinea
Damin [xxx-7],-16.4,139.35,#DF57B7,Tangkic,Lardil,Australia
Dampelas [dms],0.2,120,#5959E1,Malayo-Polynesian,Celebic,Indonesia-Sulawesi
Dan [dnj],7.5,-8,#582E51,Mande,Eastern Mande,Côte d'Ivoire
Danau [dnu],22.333,99.333,#4F1A89,Austroasiatic,Khasi-Palaung,Myanmar
Dani [dni],-4,138.917,#939237,Trans New Guinea,Western Trans New Guinea,Indonesia-Papua
Danish [dan],56,10,#6B2A5C,Indo-European,Germanic,Denmark
Danzhou_DF [nan-6],19.71,109.275,#4C1777,Tibeto-Burman,Sinitic,China
Dapeng [hak-3],22.6,114.51,#5E1579,Tibeto-Burman,Sinitic,China
Darai [dry],27.85,84.1,#A97F32,Indo-European,Indo-Iranian,Nepal
Darfur Arabic [apd-3],13,25,#4D6FCD,Afro-Asiatic,Semitic,Sudan
Dargwa [dar],42.15,47.4,#73AE21,Nakh-Daghestanian,Lak-Dargwa,Russia
Dargwa_Icari [dar-3],41.997,47.583,#68BD25,Nakh-Daghestanian,Lak-Dargwa,Russia
Dargwa_Sanzhi [dar-4],41.978,47.565,#66C22A,Nakh-Daghestanian,Lak-Dargwa,Russia
Dari [prs],31.04,67.36,#537447,Indo-European,Indo-Iranian,Afghanistan
Darkinyung [xda],-33.57,151.31,#EC73A5,Pama-Nyungan,Yuin-Kuri,Australia
Darma [drd],29.84,80.517,#B17734,Tibeto-Burman,Western Himalayan,India
Datooga_Asimjeeg [tcc],-3.52,35.34,#408BAB,Nilo-Saharan,Eastern Sudanic,Tanzania
Dâw [kwa],-0.15,-67.05,#793C61,Nadahup,Vaupés,Brazil
Daxing_Miao [hea-2],27.88,109.29,#351494,Hmong-Mien,Hmongic,China
Dazaga [dzg],15.74,15.85,#80503D,Nilo-Saharan,Saharan,Chad
Defaka [afn],4.58,7.5,#6F3D40,Ijoid,Defaka,Nigeria
Degema [deg],4.75,6.75,#304585,Niger-Kongo,Atlantic-Congo,Nigeria
Dehong [tdd],24,98,#4B1394,Tai-Kadai,Kam-Tai,China
Dekwana [mch],4.5,-63.5,#86BC57,Cariban,Guianan Carib,Venezuela
Delaware [unm],41.5,-74.67,#63D49B,Algic,Algonquian,USA
Dena'ina [tfn],62,-150,#3CBE65,Dene-Yeniseic,Na-Dene,USA-Alaska
Dene Suline [chp],59,-106,#32B03C,Dene-Yeniseic,Na-Dene,Canada
Denjongkha [sip],27.5,88.5,#8E313C,Tibeto-Burman,Bodic,India
Desano [des],0.579,-69.067,#908C19,Tucanoan,East Tucanoan,Colombia
Dhao [nfa],-10.83,122.75,#405AC1,Malayo-Polynesian,Flores-Sawu-Sumba,Indonesia-NTT
Dharawal [tbh],-34.5,150.5,#F26B9F,Pama-Nyungan,Yuin-Kuri,Australia
Dharuk [xdk],-33.1,151.75,#F1739C,Pama-Nyungan,Yuin-Kuri,Australia
Dharumbal [bjy],-22.75,150,#F26796,Pama-Nyungan,Rockhampton,Australia
Dhimal [dhi],26.6,86.75,#A56830,Tibeto-Burman,Bodic,Nepal
Dhimba [dhm],-17.3,13.44,#3364B0,Niger-Kongo,Atlantic-Congo,Namibia
Dhivehi [div],10.6,73,#A26B29,Indo-European,Indo-Iranian,Maldives
Dhuwal [duj-2],-12.78,136.01,#E57FCD,Pama-Nyungan,Yolngu,Australia
Didayi [gaq-2],18.295,82.156,#A47C27,Austroasiatic,Munda,India
Didinga [did],4.33,33.6,#3D7DBA,Nilo-Saharan,Eastern Sudanic,South Sudan
Diegueño [dih],32.67,-116.17,#82C36B,Yuman-Cochimi,Yuman,USA
Digaru Mishmi [mhu],28.2,96.2,#9F5528,Tibeto-Burman,Digarish,India
Digo [dig],-4.62,39.18,#29679B,Niger-Kongo,Atlantic-Congo,Kenya
Dii [dur],8.07,13.882,#3B4C75,Niger-Kongo,Atlantic-Congo,Cameroon
Dilaohua Yongan Bobai [yue-3],22.329,109.717,#590774,Tibeto-Burman,Sinitic,China
Dimasa [dis],25.33,93,#A65532,Tibeto-Burman,Bodo-Garo,India
Dime [dim],6.25,36.33,#6F7C15,Afro-Asiatic,Omotic,Ethiopia
Dimili [diq],38,40,#6F722C,Indo-European,Indo-Iranian,Turkey
Dingri [bod-4],28.567,86.633,#A9522F,Tibeto-Burman,Bodic,China
Dinka [dip],8.5,28,#842A8E,Nilo-Saharan,Eastern Sudanic,South Sudan
Diola [dyo],13,-16,#4564BF,Niger-Kongo,Atlantic-Congo,Senegal
Diyari [dif],-28,139,#F57AB3,Pama-Nyungan,Karnic,Australia
Dizi [mdx],6.17,36.5,#637F1C,Afro-Asiatic,Omotic,Ethiopia
Djabugay [dyy],-16.65,145.5,#EE759C,Pama-Nyungan,Paman,Australia
Djambarrpuyngu [djr],-12,135.5,#EF6DB9,Pama-Nyungan,Yolngu,Australia
Djapu [duj],-12.667,136,#ED77C4,Pama-Nyungan,Yolngu,Australia
Djaru [ddj],-18.75,128,#F06DBB,Pama-Nyungan,Ngumbin-Yapa,Australia
Djinang [dji],-12.5,134.833,#F272A6,Pama-Nyungan,Yolngu,Australia
Djingili [jig],-17.25,133.833,#E28CC5,Mirndi,Jingulu,Australia
Dla [kbv],-3.7,141.05,#A27C3A,Trans New Guinea,Border,Papua New Guinea
Dobel [kvo],-6.083,134.5,#6077CD,Malayo-Polynesian,Southeast Maluku,Indonesia-Maluku-south
Dogon [dbu],14.5,-2.5,#916A2C,Niger-Kongo,Dogon,Mali
Dohoi [otd],-0.5,113,#5C4CC6,Malayo-Polynesian,Barito,Indonesia-Kalimantan
Dolgan [sah-2],70.11,94.29,#AE7A2F,Turkic,Common Turkic,Russia
Dolpo [dre],29,83,#B65435,Tibeto-Burman,Bodic,Nepal
Dom [doa],-6,144.917,#955151,Trans New Guinea,Chimbu-Wahgi,Papua New Guinea
Domung [dev],-5.82,146.68,#B08A57,Trans New Guinea,Morobe-Eastern Highlands,Papua New Guinea
Dong [doc],26,109,#54149A,Tai-Kadai,Kam-Tai,China
Dongolawi [doo],18,32,#939036,Nilo-Saharan,Eastern Sudanic,Sudan
Dongwang [khg],28.25,99.55,#7C3C27,Tibeto-Burman,Bodic,China
Doromu_Koki [kqc],-9.629,147.914,#A55F43,Southeast Papuan,Owen Stanley Ranges,Papua New Guinea
Doutai [tds],-3.25,138.25,#741C34,Lakes Plains,Tariku,Indonesia-Papua
Doyayo [dow],8.67,13.08,#29387E,Niger-Kongo,Atlantic-Congo,Cameroon
Drehu [dhv],-21,167.083,#6138B8,Oceanic,Southern Oceanic,New Caledonia
Drokpa [bod-5],29.05,84.5,#BE503C,Tibeto-Burman,Bodic,China
Duala [dua],4.3,9.8,#3B44B3,Niger-Kongo,Atlantic-Congo,Cameroon
Duhumbi [cvg],27.42,92.23,#AF463B,Tibeto-Burman,Kho-Bwa,India
Duka [dud],11.17,5.08,#4E3471,Niger-Kongo,Atlantic-Congo,Nigeria
Dulong [duu],28,98.333,#9A5F33,Tibeto-Burman,Nungish,China
Dumaki [dmk],36.167,74,#825C1C,Indo-European,Indo-Iranian,Pakistan
Dumi [dus],27.25,86.67,#A58939,Tibeto-Burman,Kiranti,Nepal
Dumo [vam],-2.667,141.25,#4F3169,Skou,West Skou,Papua New Guinea
Duna [duc],-5.417,142.5,#A35534,Trans New Guinea,Duna-Bogaya,Papua New Guinea
Dungan [dng],42.73,76.84,#6A2645,Tibeto-Burman,Sinitic,Kyrgystan
Dura [drq],28.5,84.25,#9E383A,Tibeto-Burman,Dura,Nepal
Duri [mvp],-3.37,119.87,#5881EB,Malayo-Polynesian,Greater South Sulawesi,Indonesia-Sulawesi
Dutch [nld],52,7,#684165,Indo-European,Germanic,Netherlands
Duungidjawu [wkw],-26.222,152.081,#EF6477,Pama-Nyungan,Central-East,Australia
Dũya [ldb-2],9.34,8.02,#176684,Niger-Kongo,Atlantic-Congo,Nigeria
Dyirbal [dbl],-17.583,145.5,#EE73A2,Pama-Nyungan,Dyirbalic,Australia
Dyula [dyu],10.45,-4.72,#6D364F,Mande,Western Mande,Burkina Faso
Dzala [dzl],27,91.5,#AA452F,Tibeto-Burman,Bodic,Bhutan
Dzongkha [dzo],27.5,89.5,#9F4333,Tibeto-Burman,Bodic,Bhutan
Dzuungoo [dnn],11.38,-4.92,#712A61,Mande,Western Mande,Burkina Faso
E [eee],25.05,109.25,#560C87,Tai-Kadai,Kam-Tai,China
Eastern Lawa [lwl],19.01,98.76,#501CB8,Austroasiatic,Khasi-Palaung,Thailand
Eastern Ojibwe [ojg-2],44.7,-79.3,#5BDEA0,Algic,Algonquian,Canada
Ebira [igb-2],8.16,7.06,#3D3B9F,Niger-Kongo,Atlantic-Congo,Nigeria
Ebrie [igb],5.3,-4,#542E8D,Niger-Kongo,Atlantic-Congo,Côte d'Ivoire
Edolo [etr],-6.083,142.667,#A17126,Trans New Guinea,Bosavi,Papua New Guinea
Efik [efi],4.92,8.5,#363B7E,Niger-Kongo,Atlantic-Congo,Nigeria
Ega [ega],5.5,-5.5,#3C3071,Niger-Kongo,Atlantic-Congo,Côte d'Ivoire
Ejagham [etu],5.6,9,#414087,Niger-Kongo,Atlantic-Congo,Cameroon
Ekagi [ekg],-3.917,136.25,#AC7647,Trans New Guinea,Western Trans New Guinea,Indonesia-Papua
Ekoka !Kung [knw],-19.25,17.7,#481991,Kx'aa,Ju-Kung,Namibia
Elopi [dbf],-3.083,137.333,#652548,Lakes Plains,Tariku,Indonesia-Papua
Emae [mmw],-17.033,168.167,#673FC3,Oceanic,Central Pacific,Vanuatu
Emai [ema],7,5.9,#35338E,Niger-Kongo,Atlantic-Congo,Nigeria
Embaloh [emb],1.1628,112.37,#6070ED,Malayo-Polynesian,Greater South Sulawesi,Indonesia-Kalimantan
Embera_Baudo [bdc],5.2,-76.8,#8E7B32,Chocoan,Emberá,Colombia
Embera_Chamí [cmi],4.88,-76.07,#9C872B,Chocoan,Emberá,Colombia
Embera_Northern [emp],7.13,-77.57,#A0722F,Chocoan,Emberá,Colombia
Emerillon [eme],2.9266,-53.0419,#4AC66C,Tupian,Tupi-Guarani,French Guiana
Endo [enb],1.225,35.65,#406BA8,Nilo-Saharan,Eastern Sudanic,Kenya
Eñepa [kre-2],6.95,-65.85,#A3B661,Cariban,Venezuelan,Venezuela
Engenni [enn],5.17,6.38,#411C89,Niger-Kongo,Atlantic-Congo,Nigeria
Enggano [eno],-5.333,102.25,#3C95A7,Malayo-Polynesian,Batak-Barrier Islands,Indonesia-Sumatra
English [eng],52,0,#623B63,Indo-European,Germanic,Britain
Enxet Sur [enx],-23.43,-57.95,#5CC4BA,Mascoian,Lengua,Paraguay
Epena [sja],3,-77,#8A9325,Chocoan,Emberá,Colombia
Ersu [ers],28.64,102.508,#754F21,Tibeto-Burman,Na-Qiangic,China
Erzgebirgisch [nds],50.58,13,#4A544B,Indo-European,Germanic,Germany
Erzya [myv-2],52,45.5,#877D19,Uralic,Mordvin,Russia
Esan [ish],6.743,6.142,#402E9B,Niger-Kongo,Atlantic-Congo,Nigeria
Ese Ejja [ese],-11,-65.9,#879C45,Tacanan,Takanik-Chamik,Bolivia
Esmeraldeño [xxx-2],1,-79.5,#6CC3A8,Esmeraldeño,,Ecuador
Esselen [esq],36.25,-121.75,#A48641,Esselen,,USA
Estonian [est],59,25,#865241,Uralic,Finnic,Estonia
Eton [eto],4,11.5,#294C9C,Niger-Kongo,Atlantic-Congo,Cameroon
Eudave [opt],28.5,-110,#90A729,Uto-Aztecan,Opatan,Mexico
Even [eve],68,130,#AD8B33,Tungusic,North Tungusic,Russia
Evenki [evn],57,105,#AA932D,Tungusic,North Tungusic,Russia
Ewe [ewe],6.1,1.18,#49338D,Niger-Kongo,Atlantic-Congo,Ghana
Ewondo [ewo],4.5,12,#1C44A2,Niger-Kongo,Atlantic-Congo,Cameroon
Eyak [eya],60.5,-145,#54C346,Dene-Yeniseic,Na-Dene,USA-Alaska
Faifi_Lower [fif],17.29,43.15,#25A0C0,Afro-Asiatic,Semitic,Yemen
Fang [fan],0.5,11,#0F5693,Niger-Kongo,Atlantic-Congo,Equatorial Guinea
Farasani [jye],16.8,41.9,#2A98A4,Afro-Asiatic,Semitic,Saudi Arabia
Farnworth [eng-4],53.545,-2.405,#543E60,Indo-European,Germanic,Britain
Faroese [fao],62,-6.75,#723A69,Indo-European,Germanic,Denmark Faroe Islands
Farsi [pes],32.86,57,#537245,Indo-European,Indo-Iranian,Iran
Fasu [faa],-6.417,143.167,#A07228,Papuan Gulf,Kikorian,Papua New Guinea
Fataluku [ddg],-8.5,127,#7C3371,Timor-Alor-Pantar,Mainland Timor-Alor-Pantar,Timor leste
Fayu [fau],-3.138,136.885,#86511E,Lakes Plains,Tariku,Indonesia-Papua
Figuig [grr],29.11,0.02,#36B1BC,Afro-Asiatic,Berber,Morocco
Fijian [fij],-17.8,178.525,#4F7DE6,Oceanic,Central Pacific,Fiji
Fijian_Boumaa [fij-2],-16.822,-179.872,#4578E1,Oceanic,Central Pacific,Fiji
Fijian_Nadrau [wyy],-17.71,177.95,#4F8BEB,Oceanic,Central Pacific,Fiji
Finnish [fin],60.2,24.95,#9F6842,Uralic,Finnic,Finland
Finnish_Savonian [fin-2],63.58,27.82,#9F6C3F,Uralic,Finnic,Finland
Flinders Island [fln],-14.184,144.255,#E369A1,Pama-Nyungan,Paman,Australia
Foe [foi],-6.333,143.5,#8A7323,Papuan Gulf,Kikorian,Papua New Guinea
Fon Gbe [fon],6.42,2.17,#3C2F58,Niger-Kongo,Atlantic-Congo,Benin
Fordata [frd],-7.17,131.5,#5058C2,Malayo-Polynesian,Southeast Maluku,Indonesia-Maluku-south
Fore [for],-6.75,145.5,#A2982D,Trans New Guinea,Morobe-Eastern Highlands,Papua New Guinea
French [fra],48.197,3.28,#593666,Indo-European,Romance,France
French_Lyonnais [fra-2],45.76,4.84,#473E5F,Indo-European,Romance,France
Frisian [frs],53.13,5.82,#663161,Indo-European,Germanic,Netherlands
Friulian [fur],46.2,13,#653C79,Indo-European,Romance,Italy
Fula [fuh],11.498,-12.5,#4686B0,Niger-Kongo,Atlantic-Congo,Guinea
Fulniô [fun],-8.2,-37.3,#959D39,Fulniô,Yate,Brazil
Fur [fvr],12.05,23.64,#975637,Nilo-Saharan,Fur,Sudan
Futuna_East [fud],-14.29,-178.16,#7963CF,Oceanic,Central Pacific,Wallis and Futuna
Futuna_West [fut],-19.667,170.667,#7C45A3,Oceanic,Central Pacific,Vanuatu
Fuyü Gïrgïs [fyk],47.8,124.66,#938A13,Turkic,Common Turkic,China
Fuyuge [fuy],-8.667,147.333,#A25A42,Trans New Guinea,Oro-Wharton,Papua New Guinea
Fuzhou [cdo],26.5,119,#591567,Tibeto-Burman,Sinitic,China
Fwe [fwe ],-17.72,24.43,#167983,Niger-Kongo,Atlantic-Congo,Namibia
Fyam [pym],9.65,9.25,#384295,Niger-Kongo,Atlantic-Congo,Nigeria
Gã [gaa],5.67,-0.17,#344570,Niger-Kongo,Atlantic-Congo,Ghana
Ga'anda [gqa],10.33,12.58,#2A6E88,Afro-Asiatic,Chadic,Nigeria
Gaagudju [gbu],-12.583,132.833,#B49EE0,Macro-Gunwinygu,Gaagudju,Australia
Gaahmg [tbi],11.767,34.35,#334385,Nilo-Saharan,Eastern Sudanic,Sudan
Gabadi [kbt],-9.006,146.932,#7A5279,Oceanic,Western Oceanic,Papua New Guinea
Gabigabi [gbw],-25.5,153,#ED5A93,Pama-Nyungan,Waka-Kabic,Australia
Gabrielino [xgf],33.93,-118.4,#A78C36,Uto-Aztecan,Tongva,USA
Gadaba [gdb],19,83.667,#BF7938,Dravidian,Central Dravidian,India
Gaddi [gbk],32.44,76.54,#B76A34,Indo-European,Indo-Iranian,India
Gadsup [gaj],-6.333,146,#A49227,Trans New Guinea,Morobe-Eastern Highlands,Papua New Guinea
Gahuku [gah],-6.083,145.4,#8C991F,Trans New Guinea,Morobe-Eastern Highlands,Papua New Guinea
Galela [gbi],2,128.417,#5A69BF,West Papuan,North Halmahera,Indonesia-Maluku-north
Galician [glg],43.4,-5.8,#6E3B87,Indo-European,Romance,Spain
Gallo [fra-3],48.11,-1.68,#473767,Indo-European,Romance,France
Gallurese [sdn],41.18,9.38,#5D408C,Indo-European,Romance,Italy-Sardinia
Galo [adi],28,94.75,#9E6037,Tibeto-Burman,Macro-Tani,India
Galolen [gal],-8.58,126,#5D45AD,Malayo-Polynesian,Timoric,Timor leste
Gamilaraay [kld-2],-31,149.5,#EC87B7,Pama-Nyungan,Wiradhuric,Australia
Gangou [cmn-8],36.34,102.86,#97402C,Tibeto-Burman,Sinitic,China
Ganta [kcx-2],6.04,37.57,#71820F,Afro-Asiatic,Omotic,Ethiopia
Gapapaiwa [pwg],-9.8,149.833,#65819B,Oceanic,Western Oceanic,Papua New Guinea
Garawa [gbc],-17.25,137.667,#D483E3,Wanyi-Garrwa,,Australia
Garifuna [cab],15.85,-85,#4DA2CF,Arawak,Northern Maipuran,Honduras
Garmsiri_Jirofti [bsg],28.68,57.75,#5E7D7A,Indo-European,Indo-Iranian,Iran
Garo [grt],26,90,#B5693C,Tibeto-Burman,Bodo-Garo,India
Gathang [kda],-32,152.5,#ED6A8C,Pama-Nyungan,Yuin-Kuri,Australia
Gavar [gou],10.56,13.82,#18709E,Afro-Asiatic,Central Afro-Asiatic,Cameroon
Gavião [gvo],-11,-61,#9FAD80,Tupian,Mondé,Brazil
Gawri [gwc-2],35.53,72.57,#956D1D,Indo-European,Indo-Iranian,Pakistan
Gayo [gay],4.55,96.95,#6063E2,Malayo-Polynesian,Batak-Barrier Islands,Indonesia-Sumatra
Gbaya-Kara [gya],6,15,#4A1D94,Niger-Kongo,Atlantic-Congo,Central African Republic
Gbaya-Mbodomo [mdo],4.5,15,#3A2C89,Niger-Kongo,Atlantic-Congo,Central African Republic
Gbeya_Bossangoa [gbp],6.67,17.5,#3A389A,Niger-Kongo,Atlantic-Congo,Central African Republic
Gebe [gei],0,129.5,#6739AC,Malayo-Polynesian,Eastern Malayo-Polynesian,Indonesia-Maluku-north
Gedeo [drs],6.158,38.196,#AC8926,Afro-Asiatic,Cushitic,Ethiopia
Gela [nlg],-9.167,160.333,#4E80E6,Oceanic,Southeast Solomonic,Solomons
Gelao [gio],22.92,105.5,#46108F,Tai-Kadai,Kadaic,China
Gemzek [gnd],10.7,14.31,#3D5E93,Afro-Asiatic,Chadic,Cameroon
Genoese [lij-2],44.4,8.9,#533887,Indo-European,Romance,Italy
Geordie [eng-2],54.99,-1.46,#484B75,Indo-European,Germanic,Britain
Georgian [kat],41.72,44.78,#58A439,Kartvelian,Georgian,Georgia
German [deu],50,10,#5D4552,Indo-European,Germanic,Germany
German_Swiss [gsw],46.975,8.405,#643D51,Indo-European,Germanic,Switzerland
Geser [ges],-4,131,#5C46C7,Malayo-Polynesian,Central Maluku,Indonesia-Maluku-south
Ghale [ghe],28.25,84.9,#B44033,Tibeto-Burman,Ghale,Nepal
Ghomara [gho],35.57,-5.37,#239FC9,Afro-Asiatic,Berber,Morocco
Ghulfan [ghl],11.64,29.81,#C28450,Nilo-Saharan,Eastern Sudanic,Sudan
Gidra [gdr],-8.817,143.034,#B4566C,Eastern Trans Fly,,Papua New Guinea
Gikuyu [kik],-0.75,36.75,#2D5FA1,Niger-Kongo,Atlantic-Congo,Kenya
Gikyode [acd],8.39,0.57,#3F378C,Niger-Kongo,Atlantic-Congo,Ghana
Gilaki [glk],37.75,49,#7E7526,Indo-European,Indo-Iranian,Iran
Gimi [gim],-6.639,145.377,#999825,Trans New Guinea,Morobe-Eastern Highlands,Papua New Guinea
Girirra [gex],5.84,42.11,#796330,Afro-Asiatic,Cushitic,Somalia
Githabul [bdy-3],-29.05,152.02,#E47370,Pama-Nyungan,Yugambeh-Bundjalung,Australia
Gitxsan [git],55.33,-127.75,#49CDB9,Tsimshian,Nass-Gitksan,Canada
Giziga [gis],10.68,14.22,#2B5695,Afro-Asiatic,Central Afro-Asiatic,Cameroon
Godoberi [gdo],42.63,46.11,#8B8A16,Nakh-Daghestanian,Avar-Andi,Russia
Goemai [ank],8.67,9.75,#40267E,Afro-Asiatic,Chadic,Nigeria
Gogo_central [gog],-5.91,35.11,#2762A4,Niger-Kongo,Atlantic-Congo,Tanzania
Gogodala [ggw],-8.083,143,#AD9A31,Papuan Gulf,Gogodala-Suki,Papua New Guinea
Gojri [gju],33,76,#A36032,Indo-European,Indo-Iranian,India
Gola [gol],7.6,-10.81,#4E33A3,Niger-Kongo,Atlantic-Congo,Liberia
Golden Palaung [pll],22.97,97.17,#4B1E99,Austroasiatic,Khasi-Palaung,Myanmar
Golin [gvf],-6.25,144.833,#A2633C,Trans New Guinea,Chimbu-Wahgi,Papua New Guinea
Golpu [dhg],-11.23,136.63,#E965BB,Pama-Nyungan,Yolngu,Australia
Gondi [gno],19,84.6,#BF712D,Dravidian,South-Central Dravidian,India
Gongduk [goe],27.075,91.145,#A77228,Tibeto-Burman,Gongduk,Bhutan
Gooniyandi [gni],-18.5,126.6,#DF83D6,Bunuban,,Australia
Gorontalo [gor],0.5,122,#6C60D9,Malayo-Polynesian,Philippines,Indonesia-Sulawesi
Gorum [pcj],18.5,82.733,#C19554,Austroasiatic,Munda,India
Gorwaa [gow],-4.24,35.8,#1D866A,Afro-Asiatic,Cushitic,Tanzania
Great Andamanese [abj],12.5,92.83,#AC7E3E,Andaman,,India_Andaman-Nicobars
Grebo [gry],5.3,-8,#5C3779,Niger-Kongo,Atlantic-Congo,Liberia
Greek [ell],38,23,#5D4E90,Indo-European,Graeco-Phrygian,Greece
Greek_Cypriot [ell-3],35,32.7,#52548A,Indo-European,Graeco-Phrygian,Cyprus
Greek_Istanbul [ell-6],41.04,28.95,#6E4A5C,Indo-European,Graeco-Phrygian,Turkey
Green Hmong [hnj],18.816,98.883,#3B128E,Hmong-Mien,Hmongic,Thailand
Gresi [grs],-2.72,140.28,#A22C75,Trans New Guinea,Nimboran,Indonesia-Papua
Griko [ell-2],40.35,18.17,#5F3B84,Indo-European,Graeco-Phrygian,Italy
Gtaq [gaq],18.633,83.5,#C0824C,Austroasiatic,Munda,India
Guajajara [gub],-5,-45,#60B6B6,Tupian,Tupi-Guarani,Brazil
Guajira [guc],12,-72,#59B2C0,Arawak,Northern Maipuran,Colombia
Guambiano [gum],2.5,-76.67,#B1713F,Barbacoan,Northern Barbacoan,Colombia
Guarani [gug],-23,-56,#6B8AA9,Tupian,Tupi-Guarani,Paraguay
Guarani_Bolivia [gui],-20.25,-63.5,#478578,Tupian,Tupi-Guarani,Bolivia
Guarani_Paraguay [gug-2],-25.61,-57.09,#529B3C,Tupian,Tupi-Guarani,Paraguay
Guarijio [var],27.75,-108.67,#8EBE7F,Uto-Aztecan,Tarahumaran,Mexico
Guató [gta],-16,-66,#31A2B5,Macro-Je,Guato,Bolivia
Guatuso [gut],10.67,-84.82,#B19970,Chibchan,Core Chibchan,Costa Rica
Guayabero [guo],2.709,-71.98,#747E3D,Guahiban,Southwest Guahiban,Colombia
Guaymi [gym-2],8.77,-81.73,#AA3F57,Chibchan,Core Chibchan,Panama
Guazacapan [xin],14.07,-90.42,#479CD5,Xinca,,Guatemala
Gubeeher [bcb],12.5,-16.5,#3976B7,Niger-Kongo,Atlantic-Congo,Senegal
Gudandji [nji-2],-16.33,136.6,#ED6FB6,Mirndi,Ngurlun,Australia
Gude [gde],10.05,14.3,#3964BE,Afro-Asiatic,Chadic,Cameroon
Gugada [ktd],-30,134,#FD6B96,Pama-Nyungan,Wati,Australia
Gugu-Badhun [gdc],-18.549,144.484,#F5758B,Pama-Nyungan,Greater Maric,Australia
Guhu-Samane [ghs],-8,147.25,#AB902C,Trans New Guinea,Oro-Wharton,Papua New Guinea
Guiqiong [gqi],30.055,101.964,#844E14,Tibeto-Burman,Na-Qiangic,China
Gujarati [guj],23.25,72.7,#A65139,Indo-European,Indo-Iranian,India
Gula-Iro [glj],10.251,19.421,#6A299F,Niger-Kongo,Atlantic-Congo,Chad
Gumawana [gvs],-9.25,150.833,#4C7DC5,Oceanic,Western Oceanic,Papua New Guinea
Gumbaynggir [kgs],-30.4,152.5,#EA7DA9,Pama-Nyungan,Gumbaynggiric,Australia
Gumer [sgw-2],8.02,38.12,#4BA93E,Afro-Asiatic,Semitic,Ethiopia
Gumuz [guk],11.29,35.38,#266F8E,Nilo-Saharan,Gumuz,Ethiopia
Gunbarlang [wlg],-11.8,133.7,#A78CE1,Macro-Gunwinygu,Gunwingyuan proper,Australia
Gundungurra [xrd],-34.33,150,#E1949B,Pama-Nyungan,Yuin-Kuri,Australia
Gününa_Yajich [xxx-19],-38,-62.5,#5BCE8A,Chonan,Chonan Proper,Argentina
Gunya [gyy],-27.06,145.86,#F7749E,Pama-Nyungan,Greater Maric,Australia
Gupapuyngu [guf],-12.166,135.466,#E356BD,Pama-Nyungan,Yolngu,Australia
Gureng-Gureng [gnr],-25.25,151,#E45897,Pama-Nyungan,Waka-Kabic,Australia
Gurindji [gue],-17.401,130.805,#EA85C2,Pama-Nyungan,Ngumbin-Yapa,Australia
Gurnu [drl-2],-30,145.2,#F97BBA,Pama-Nyungan,Yarli-Baagandji,Australia
Gurr-goni [gge],-12.25,134.417,#B974DF,Macro-Gunwinygu,Maningrida,Australia
Gurung [gvr],28.333,84.333,#A3353E,Tibeto-Burman,Bodic,Nepal
Gutob [gbj],18.583,82.867,#C98856,Austroasiatic,Munda,India
Guugu Yimidhirr [kky],-15,144.833,#F56C94,Pama-Nyungan,Paman,Australia
Gwama [kmq],9.4,34.4,#523F62,Nilo-Saharan,Koman,Ethiopia
Gwari [gby],9.5,7,#453C78,Niger-Kongo,Atlantic-Congo,Nigeria
Gweno [gwe],-3.65,37.65,#24739A,Niger-Kongo,Atlantic-Congo,Kenya
Gyalsumdo [bod-7],28.552,84.24,#AD522E,Tibeto-Burman,Bodic,Nepal
Gyeli [nmg],2.35,9.98,#3B3494,Niger-Kongo,Atlantic-Congo,Cameroon
Haa_Zongkha [dzo-2],27.135,89.12,#983A30,Tibeto-Burman,Bodic,Bhutan
Hadoti [hoj],25.1,76.52,#BD5055,Indo-European,Indo-Iranian,India
Hadza [hts],-3.75,35.17,#167A90,Hadza,,Tanzania
Haida [hdn],53,-132,#65A63C,Haida,,Canada
Hainan [nan-3],19.8,110.55,#49117A,Tibeto-Burman,Sinitic,China
Hainan_Hakka [hak-2],19.52,109.65,#5E1C74,Tibeto-Burman,Sinitic,China
Haisla [has],54,-128.75,#29DAB3,Wakashan,North Wakashan,Canada
Hajong [haj],26.2,90.5,#AF582B,Indo-European,Indo-Iranian,India
Hakha Lai [cnh],22.667,93.667,#624860,Tibeto-Burman,Kuki-Chin-Naga,Myanmar
Hakka [hak],24.25,116.5,#641F7D,Tibeto-Burman,Sinitic,China
Halbi [hlb],20.31,81.37,#AA5A30,Indo-European,Indo-Iranian,India
Halia [hla],-5.25,154.75,#6B68C9,Oceanic,Western Oceanic,Papua New Guinea-Bougainville
Halkomelem [hur],49.5,-121.85,#37E3A2,Salish,Central Salish,Canada
Halkomelem_Musqueam [hur-2],49.275,-123.2,#31D7C2,Salish,Central Salish,Canada
Hamer [amf],5,36.5,#7D7825,Afro-Asiatic,Omotic,Ethiopia
Hanga Hundi [wos],-3.833,142.833,#A2692C,Ndu,Nuclear Ndu,Papua New Guinea
Hangaza [han],-2.52,30.71,#226F9F,Niger-Kongo,Atlantic-Congo,Tanzania
Hangzhou [wuu-2],30.25,120.167,#48145C,Tibeto-Burman,Sinitic,China
Hani [hni],23.48,100.7,#7E352E,Tibeto-Burman,Lolo-Burmese,China
Hanunoo [hnn],12.33,121.25,#858AE1,Malayo-Polynesian,Philippines,Philippines
Haro [kcx],6.4,37.93,#729115,Afro-Asiatic,Omotic,Nigeria
Haroi [hro],13.335,108.907,#571FA7,Malayo-Polynesian,Malayo-Sumbawan,Vietnam
Harsusi [hss],19.7,55.85,#1C9372,Afro-Asiatic,Semitic,Oman
Haruai [tmd],-5.1,144.34,#BD786E,Piawi,,Papua New Guinea
Hasköy_Arabic [arb-5],36.685,41.7,#359164,Afro-Asiatic,Semitic,Turkey
Hatam [had],-1,134,#5C41BF,Hatam,,Indonesia-Papua
Hausa [hau],12,7,#1E6C9C,Afro-Asiatic,Chadic,Nigeria
Hawaiian [haw],21.905,-160.2,#8768CF,Oceanic,Central Pacific,USA-Hawaii
Hayu [vay],27.25,86,#AC6B47,Tibeto-Burman,Kiranti,Nepal
Hazaragi [haz],33.37,64.51,#778E2E,Indo-European,Indo-Iranian,Iran
Hdi [xed],11.87,13.72,#3FB2B1,Afro-Asiatic,Chadic,Nigeria
Hebbar [tam-5],13,78.67,#B07620,Dravidian,South Dravidian,India
Hebrew [heb],31.75,35.17,#347E96,Afro-Asiatic,Semitic,Israel
Helong [heg],-10.2,123.42,#554EBA,Malayo-Polynesian,Timoric,Indonesia-NTT
Herero [her],-21,20,#375CAE,Niger-Kongo,Atlantic-Congo,Namibia
Hewa [ham],-5.066,142.489,#824C43,Sepik,Sepik Hill,Papua New Guinea
Hezhou [cmn-2],35.6,103.24,#7D2350,Tibeto-Burman,Sinitic,China
Hiberno-English [eng-3],54,-6.5,#60386B,Indo-European,Germanic,Ireland
Hidatsa [hid],48,-110,#6BBE48,Siouan,Western Siouan,USA
Hiligaynon [hil],10.254,123,#7D92EB,Malayo-Polynesian,Philippines,Philippines
Hill_Madia [mrr],18.9,81.15,#B8882C,Dravidian,South-Central Dravidian,India
Hindi [hin],27.2,79.5,#A65F36,Indo-European,Indo-Iranian,India
Hinuq [gin],42.45,45.81,#73B21A,Nakh-Daghestanian,Tsezic,Russia
Hitnü [mbn],6.459,-71.286,#817F44,Guahiban,Macaguane,Colombia
Hiw [hiw],-13.25,166.5,#6F49BA,Oceanic,Southern Oceanic,Vanuatu
Hixkaryana [hix],1.5,-60,#64B09C,Cariban,Parukotan,Brazil
Hkongso [mro],21.5,93,#5B1860,Tibeto-Burman,Mru,Myanmar
Hlai [lic],18.65,109.4,#520C9B,Tai-Kadai,Hlaic,China
Hlai-Cun [lic-2],19.1,109.01,#4B128B,Tai-Kadai,Hlaic,China
Hlai-Nadou [lic-3],19.36,108.9,#501295,Tai-Kadai,Hlaic,China
Hlersu [hle],24.05,101.975,#752B41,Tibeto-Burman,Lolo-Burmese,China
Hmar [hmr],25,92.2,#86443B,Tibeto-Burman,Kuki-Chin-Naga,India
Hmong Nzhuab_East [hnj-3],23.2,104.7,#2F1281,Hmong-Mien,Hmongic,China
Hmong Soud [sfm],24,104.2,#2D0E8B,Hmong-Mien,Hmongic,China
Hmu_Northern [hea-3],26.81,108.23,#4C1D63,Hmong-Mien,Hmongic,China
Ho [hoc],22,86,#AF9A51,Austroasiatic,Munda,India
Hobyot [hoh],16.21,52.2,#1E996E,Afro-Asiatic,Semitic,Oman
Hohhot [cjy],40.82,111.65,#581F6A,Tibeto-Burman,Sinitic,China
Holoholo [hoo],-5.5,28.25,#2D5793,Niger-Kongo,Atlantic-Congo,Democratic Republic of the Congo
Hoozo [hoz],9.39,34.6,#7D7E19,Afro-Asiatic,Omotic,Ethiopia
Hopi [hop],36,-110,#8EB138,Uto-Aztecan,Hopi,USA
Hote Misim [hot],-7.027,146.924,#4B49B6,Oceanic,Western Oceanic,Papua New Guinea
Hresuk [adb],-8.22,125.61,#643BB9,Malayo-Polynesian,Timoric,Timor leste
Hua [ygr],-6.333,145.3,#8D9521,Trans New Guinea,Morobe-Eastern Highlands,Papua New Guinea
Huariapano [pno],-7.17,-75,#A69942,Panoan,Southern Panoan,Peru
Huastec [hsf],22.08,-99.33,#3FB2B0,Mayan,Huastecan Mayan,Mexico
Huave [huv],16.2,-95,#2F90AF,Huave,,Mexico
Huichol [hch],22,-104,#A3A635,Uto-Aztecan,Corachol,Mexico
Huitoto_Minica [huu],-2.4,-72.25,#A5843D,Boran,Witoto,Colombia
Huitoto_Murui [hux],-1,-73.5,#938625,Boran,Witoto,Colombia
Hunan_Guanxia [cmn-17],26.572,110.279,#501A6E,Hmong-Mien,Hmongic,China
Hunan_Matang [cmn-18],27.006,110.45,#531B6C,Hmong-Mien,Hmongic,China
Hungarian [hun],47,19,#7C5D44,Uralic,Hungarian,Hungary
Hunter River [awk-2],-32.92,151.79,#E58799,Pama-Nyungan,Yuin-Kuri,Australia
Hunzib [huz],42.16,46.23,#73A019,Nakh-Daghestanian,Tsezic,Russia
Hup [jup],0.167,-69.25,#847415,Nadahup,Vaupés,Brazil
Hupa [hup],41.08,-123.67,#68CE5E,Dene-Yeniseic,Na-Dene,USA
I’saka [ksi],-2.9,141.4,#425958,Skou,South Skou,Papua New Guinea
Iaai [iai],-20.417,166.417,#4560E1,Oceanic,Southern Oceanic,New Caledonia
Iatmul [ian],-4.25,143.25,#C47740,Ndu,Nuclear Ndu,Papua New Guinea
Iau [tmu],-3.167,138,#691E3B,Lakes Plains,Tariku,Indonesia-Papua
Iban [iba],2,112,#6D37C6,Malayo-Polynesian,Malayo-Sumbawan,Malaysia-Borneo
Ibanag [ibg],17.411,121.875,#6B80D6,Malayo-Polynesian,Philippines,Philippines
Icelandic [isl],64.1,-21.9,#673563,Indo-European,Germanic,Iceland
Idaho Shoshone [shh-2],42.7,-114.4,#B08931,Uto-Aztecan,Numic,USA
Idaté [idt],-8.75,125.91,#563EAE,Malayo-Polynesian,Timoric,Timor leste
Idi [idi],-8.667,142.333,#B16C54,South New Guinea,East Morehead,Papua New Guinea
Idũ [ldb],9.13,7.78,#253A85,Niger-Kongo,Atlantic-Congo,Nigeria
Idu Mishmi [clk],29,96,#8F4438,Tibeto-Burman,Digarish,India
Iduna [viv],-9.417,150.25,#56A1A7,Oceanic,Western Oceanic,Papua New Guinea
Ifugao_Batad [ifb],16.833,121.083,#7E87E8,Malayo-Polynesian,Philippines,Philippines
Igbo [ibo],6,7.33,#3F3D7E,Niger-Kongo,Atlantic-Congo,Nigeria
Igede [ige],7,8.17,#6D1E97,Niger-Kongo,Atlantic-Congo,Nigeria
Ignaciano [ign],-12.5,-65.5,#4AB7C9,Arawak,Southern Maipuran,Bolivia
Iha [ihp],-2.8,132.35,#62763E,Trans New Guinea,Bomberai,Indonesia-Papua
Ik [ikx],3.75,34.17,#3B7784,Nilo-Saharan,Eastern Sudanic,Uganda
Ika [arh],10.75,-73.5,#8E982D,Chibchan,Core Chibchan,Colombia
Ikaan [kcf],7.6,6.04,#385186,Niger-Kongo,Atlantic-Congo,Nigeria
Ikalanga [kck],-20.15,28.38,#147D8F,Niger-Kongo,Atlantic-Congo,Botswana
Ikoma [ntk],-1.95,34.54,#256B88,Niger-Kongo,Atlantic-Congo,Tanzania
Ikpeng [txi],-12,-54,#9BB498,Cariban,Pekodian,Brazil
Ikposso [kpo],7.58,0.6,#3F2B72,Niger-Kongo,Atlantic-Congo,Togo
Ilokano [ilo],18.17,120.45,#688DDF,Malayo-Polynesian,Philippines,Philippines
Imonda [imn],-3.25,141.167,#955F3B,Trans New Guinea,Border,Papua New Guinea
Inanwatan [szp],-2.17,132,#70983E,Trans New Guinea,South Birds Head,Indonesia-Papua
Iñapari [inp],-12.0875,-69.5439,#63AB78,Arawak,Southern Maipuran,Peru
Inati [atk],11.289778,122.51,#6B88D8,Malayo-Polynesian,Philippines,Philippines
Indonesian [ind],-2.5,104.75,#6347CB,Malayo-Polynesian,Malayo-Sumbawan,Indonesia-Sumatra
Ingarikó [ake-2],5.85,-60.68,#AEA254,Cariban,Venezuelan,Guyana
Ingush [inh],42.97,44.77,#7F8B15,Nakh-Daghestanian,Nakh,Russia
Inpui [nkf],24.88,93.69,#90462C,Tibeto-Burman,Kuki-Chin-Naga,India
Inuktun [kal-3],77.47,-69.25,#ADC050,Eskimo-Aleut,Eskimo,Denmark Greenland
Iñupiaq [esi],68.13,-151.72,#A0CC48,Eskimo-Aleut,Eskimo,USA-Alaska
Inutttitut_Labrador [ike-2],58.4855,-62.674,#AABF44,Eskimo-Aleut,Eskimo,Canada
Iquito [iqu],-3,-74,#90B871,Zaparoan,Iquito-Arabela,Peru
Irabu_Ryukyu [mvi-2],24.833,125.183,#A87A1B,Japonic,Ryukyuan,Japan-Ryukyu
Iranxe [irn],-12.72,-57.98,#839D44,Irantxe-Münkü,,Brazil
Iraqw [irk],-3.5,35,#398459,Afro-Asiatic,Cushitic,Tanzania
Irarutu [irh],-3,133.5,#4A4FB4,Malayo-Polynesian,Eastern Malayo-Polynesian,Indonesia-Papua
Iraya [iry],13.442,120.572,#9450BB,Malayo-Polynesian,Philippines,Philippines
Irigwe [iri],9.85,8.65,#491B97,Niger-Kongo,Atlantic-Congo,Nigeria
Irish [gle],52.67,-8.6,#5170C1,Indo-European,Celtic,Ireland
Irula [iru],13,77,#CE7D38,Dravidian,South Dravidian,India
Isinay Dupax [inn],16.28,121.1,#8184E7,Malayo-Polynesian,Philippines,Philippines
Italian [ita],43,12.5,#563B82,Indo-European,Romance,Italy
Itelmen [itl],57,157,#9EBB67,Chukotko-Kamchatkan,Main Chukotko-Kamchatkan,Russia
Itonama [ito],-12,-65,#4BCBAD,Itonama,,Bolivia
Ivatan_Southern [ivv],20.33,121.83,#7F83EB,Malayo-Polynesian,Bashiic,Philippines
Ivori [ago],-7.456,145.583,#A49634,Trans New Guinea,Morobe-Eastern Highlands,Papua New Guinea
Iwaidja [ibd],-11.5,132.667,#C690E4,Iwaidjan,Central Iwaidjic,Australia
Iwal [kbm],-7.226,146.991,#5547BB,Oceanic,Western Oceanic,Papua New Guinea
Iwam [iwm],-4.25,141.83,#A3673F,Sepik,Iwam-Wogamus,Papua New Guinea
Ixil [ixl],15.5,-91.2,#3EB9B7,Mayan,Core Mayan,Guatemala
Iyo [nca],-5.807,146.143,#A77752,Trans New Guinea,Morobe-Eastern Highlands,Papua New Guinea
Izere [izr],9.93,9.1,#3E238A,Niger-Kongo,Atlantic-Congo,Nigeria
Izi [izi],6.332,8.104,#5C219C,Niger-Kongo,Atlantic-Congo,Nigeria
Jabutí [jbt],-12,-63,#6E834F,Macro-Je,Jabutí,Brazil
Jacaltec [jac],15.75,-91.75,#3DAFC9,Mayan,Core Mayan,Guatemala
Jad [jda],30.24,79.15,#C55146,Tibeto-Burman,Bodic,India
Jaffna Tamil [tam-6],9.66,80.02,#B37126,Dravidian,South Dravidian,Sri Lanka
Jahai [jhi],5.9,101.5,#5858D2,Austroasiatic,Aslian,Malaysia
Jalkunan [bxl],10.54,-5.22,#5F3052,Mande,Western Mande,Burkina Faso
Jambi Dusun Dalam [jax-2],-2.27,102.55,#6E37CE,Malayo-Polynesian,Malayo-Sumbawan,Indonesia-Sumatra
Jambi Malay [jax],-1.25,104.1,#633BD3,Malayo-Polynesian,Malayo-Sumbawan,Indonesia-Sumatra
Jamee [min-2],3.13,97.45,#5D47D5,Malayo-Polynesian,Malayo-Sumbawan,Indonesia-Sumatra
Jaminjung [djd],-15.083,130.5,#DBA0CA,Mirndi,Yirram,Australia
Jamsay Dogon [djm],14.18,-2.58,#745B38,Niger-Kongo,Dogon,Mali
Jämtska [swe-2],63.5,13,#65245B,Indo-European,Germanic,Sweden
Jamul Tiipay [dih-2],32.17,-116.5,#80BB59,Yuman-Cochimi,Yuman,USA
Japanese [jpn],37,140,#856112,Japonic,Japanese,Japan
Japhug [jya-2],32.1,103.36,#72922C,Tibeto-Burman,Na-Qiangic,China
Jaqaru [jqr],-12.85,-76,#AAB83F,Aymaran,Jaqaru-Kawki,Peru
Jarai [jra],13.914,107.753,#5A1FAC,Malayo-Polynesian,Malayo-Sumbawan,Vietnam
Jarawa [anq],11.55,92.7,#B37E3E,Andaman,,India_Andaman-Nicobars
Jarawa [jar],9.9,9.8,#39418D,Niger-Kongo,Atlantic-Congo,Nigeria
Jarawara [jap],-8.1,-67,#96B047,Arawá,Madi-Madiha,Brazil
Javanese [jav],-7.5,110.667,#5B3AC9,Malayo-Polynesian,Javanic,Indonesia-Java
Jebero [jeb],-5.2,-76.4,#A8BC88,Cahuapanan,,Peru
Jeh [jeh],15.17,107.83,#6026B1,Austroasiatic,Bahnaric,Vietnam
Jejara [pzn],25.45,94.95,#562457,Tibeto-Burman,Kuki-Chin-Naga,Myanmar
Jeju_Korean [jjm],33.51,126.55,#864D1E,Korean,,Korea
Jero [jee],27.2,86.25,#B17B36,Tibeto-Burman,Kiranti,Nepal
Jèrriais [fra-4],49.2,-2.15,#44396F,Indo-European,Romance,Britain
Jhangvi [skr-2],31,72,#B95642,Indo-European,Indo-Iranian,Pakistan
Ji'an [gan-4],27.13,115,#5B2468,Tibeto-Burman,Sinitic,China
Jiamao [jio],18.553,109.69,#4B1888,Jiamao,,China
Jiangyong Tuhua [xxx-120],25.27,111.34,#581565,Tibeto-Burman,Sinitic,China
Jiaomuzu [qxs-2],31.9,102.43,#7A7438,Tibeto-Burman,Na-Qiangic,China
Jibbali [shv],17.2,54.9,#23AB82,Afro-Asiatic,Semitic,Oman
Jicarilla [apj],36,-104,#2AAB4A,Dene-Yeniseic,Na-Dene,USA
Jing [vie-3],21.548,107.972,#361693,Austroasiatic,Vietic,China
Jingpho [kac],25.46,97.33,#702159,Tibeto-Burman,Jingpho,Myanmar
Jirel [jul],27.65,86.23,#A95329,Tibeto-Burman,Bodic,Nepal
Jivaro [jiv],-3,-78.25,#B19339,Jivaroan,Shuaric,Ecuador
Jiwarli [djl],-24.11,116.99,#FA78B1,Pama-Nyungan,Kanyara-Mantharta,Australia
Jizhao [onb-2],21.39,110.87,#55168A,Tai-Kadai,Kam-Tai,China
Jomang [tlo],10.58,30.5,#735BD6,Talodi-Heiban,Talodi,Sudan
Jowshaqani [soj-2],33.6,51.23,#5A9435,Indo-European,Indo-Iranian,Iran
Jru' [lbo],15.333,106.333,#651FAF,Austroasiatic,Bahnaric,Laos
Ju|'hoan [ktz],-19,21,#2B3583,Kx'aa,Ju-Kung,Namibia
Juang [jun],21.167,85.833,#BD8849,Austroasiatic,Munda,India
Jukun [jbu],6.92,10.42,#422380,Niger-Kongo,Atlantic-Congo,Nigeria
Jumaytepeque [xin-3],14.34,-90.26,#409ED0,Xinca,,Guatemala
Juray [juy],19.09,84.12,#9E9535,Austroasiatic,Munda,India
Juruna [jur],-5.5,-53,#777298,Tupian,Juruna,Brazil
K'chò [mwq],20.29,94.39,#716932,Tibeto-Burman,Kuki-Chin-Naga,Myanmar
Kabardian [kbd],43.52,43.63,#58E146,Northwest Caucasus,Ubykh-Circassian,Russia
Kabiye [kbp],7,1.15,#464D84,Niger-Kongo,Atlantic-Congo,Togo
Kabui [nbu],24.76,93.92,#92742B,Tibeto-Burman,Kuki-Chin-Naga,India
Kabyle [kab],36.5,5,#1BB5B4,Afro-Asiatic,Berber,Algeria
Kachi [gjk],24.4,71.625,#B67133,Indo-European,Indo-Iranian,India
Kadazan [kzj],5.917,117.167,#737AE4,Malayo-Polynesian,North Borneo,Malaysia-Borneo
Kadiwéu [kbc],-20,-57,#506CC7,Guaicuruan,Northern Guaicuruan,Brazil
Kadu [kdv],24.156,94.939,#7C5C26,Tibeto-Burman,Jingpho,Myanmar
Kadugli [xtc],11,29.67,#5E50AA,Kadugli-Krongo,Central-western Kadugli-Krongo,Sudan
Kaera [xxx-15],-8.38,124.21,#7D487A,Timor-Alor-Pantar,Alor-Pantar,Indonesia-NTT
Kagoshima [jpn-2],31.6,130.55,#965F1F,Japonic,Japanese,Japan
Kagulu [kki],-6.38,37.05,#2D61AE,Niger-Kongo,Atlantic-Congo,Tanzania
Kaike [kzq],28.9,83.17,#AB6127,Tibeto-Burman,Bodic,Nepal
Kaili Ledo [lew],-0.974,119.998,#465ED4,Malayo-Polynesian,Celebic,Indonesia-Sulawesi
Kaingang [kgp],-22,-48,#98354D,Macro-Je,Je,Brazil
Kaiping [yue-5],22.38,112.7,#5A1F68,Tibeto-Burman,Sinitic,China
Kairi [klq],-7.141,144.14,#9D5147,Papuan Gulf,Kikorian,Papua New Guinea
Kairiru [kxa],-3.417,143.583,#7A4EB6,Oceanic,Western Oceanic,Papua New Guinea
Kakabe [kke],10.6,-11.44,#6E3F5F,Mande,Western Mande,Guinea
Kakchikel [cak],14.47,-90.99,#2EA5B3,Mayan,Core Mayan,Guatemala
Kaki Ae [tbd],-8,145.833,#AE6A52,Trans New Guinea,Eleman,Papua New Guinea
Kakua [cbv],1.08,-70,#9C8526,Kakua-Nukak,,Brazil
Kala Lagaw Ya [mwp],-10.12,142.12,#D05355,Pama-Nyungan,Torres Strait,Australia
Kalaallisut [kal],61,-48,#95C33D,Eskimo-Aleut,Eskimo,Denmark Greenland
Kalam [kmh],-5.25,144.583,#AE6551,Trans New Guinea,Madang,Papua New Guinea
Kalamang [kgv],-3.6,132.667,#94387C,Trans New Guinea,Bomberai,Indonesia-Papua
Kalami [gwc],35.48,72.59,#88602C,Indo-European,Indo-Iranian,Pakistan
Kalapalo [kui-2],-12.3,-53.23,#84C26A,Cariban,Nahukwa,Brazil
Kalapuya [kyl],44.5,-123,#37BC93,Kalapuyan,,USA
Kalasha [kls],35.73,71.75,#996E2A,Indo-European,Indo-Iranian,Pakistan
Kaliai-Kove [kvc],-5.667,149.75,#476ACF,Oceanic,Western Oceanic,Papua New Guinea-Bismarcks
Kalkatungu [ktg],-21,139.5,#E998C3,Pama-Nyungan,Kalkatungic,Australia
Kalkoti [xka],35.37,72.05,#8B6217,Indo-European,Indo-Iranian,India
Kalmyk [xal],45,47,#91771C,Mongolic,Core Mongolic,Russia
Kalo [khz],-10.13,147.95,#A09595,Oceanic,Western Oceanic,Papua New Guinea
Kaluli [bco],-6.417,142.833,#946D21,Trans New Guinea,Bosavi,Papua New Guinea
Kam [kmc],27,104,#470B8B,Tai-Kadai,Kam-Tai,China
Kamaiurá [kay],-12,-52.67,#97BE5E,Tupian,Tupi-Guarani,Brazil
Kamang [woi],-8.25,124.833,#734B7C,Timor-Alor-Pantar,Alor-Pantar,Indonesia-NTT
Kamas [xas],52,92,#98871F,Uralic,Samoyedic,Russia
Kamasau [kms],-3.83,143.83,#5C3A81,Torricelli,Marienberg,Papua New Guinea
Kamassian [xas-2],55.07,94.83,#8D8817,Uralic,Samoyedic,Russia
Kamba [kam],-2,38,#2B4DA2,Niger-Kongo,Atlantic-Congo,Kenya
Kambera [xbr],-9.833,120.5,#5A73ED,Malayo-Polynesian,Flores-Sawu-Sumba,Indonesia-NTT
Kambot [kbx],-4.333,144.133,#BA4B5A,Ap Ma,,Papua New Guinea
Kambran [bed],-2.78,132.7,#5A2EAD,Malayo-Polynesian,Eastern Malayo-Polynesian,Indonesia-Papua
Kammu_Northern [kjg-2],21.01,101.33,#4E29AC,Austroasiatic,Khmuic,Laos
Kamoro [kgq],-4.333,136,#B3B557,Trans New Guinea,Asmat-Kamoro,Indonesia-Papua
Kamrup Barpetiya [asm-2],26.53,91,#916321,Indo-European,Indo-Iranian,India
Kamu [xmu],-13.583,130.833,#C08EBB,Eastern Daly,,Australia
Kamula [xla],-7.3,142.5,#886C1D,Trans New Guinea,Awin-Pa,Papua New Guinea
Kana [ogo],4.75,6.5,#4D2C8B,Niger-Kongo,Atlantic-Congo,Nigeria
Kanakuru [kna],10,12,#424799,Afro-Asiatic,Chadic,Nigeria
Kanamarí [knm],-6.45,-68.77,#98ADA6,Harakmbet,Katukina,Brazil
Kanashi [xns],32,77.55,#B0553D,Tibeto-Burman,Western Himalayan,India
Kanasi [soq],-10.119,149.706,#8B8846,Southeast Papuan,Dagan,Papua New Guinea
Kangri [xnr],31.5,77,#A05C27,Indo-European,Indo-Iranian,India
Kanikkara [kev],8.44,77.25,#D7674B,Dravidian,South Dravidian,India
Kannada [kan],15,76,#B4882B,Dravidian,South Dravidian,India
Kannada_Bidar [kan-2],17.8,77.15,#A67520,Dravidian,South Dravidian,India
Kannada_Havyaka [kan-3],13.93,75.57,#BF812E,Dravidian,South Dravidian,India
Kanoê [kxo],-12.5,-62.25,#8F9D4F,Kanoê,,Brazil
Kansai [jpn-4],34.69,135.2,#896514,Japonic,Japanese,Japan
Kanum [kcd],-8.583,140.75,#C68A7A,South New Guinea,West Morehead,Indonesia-Papua
Kanuri [knc],11.25,14.25,#61684B,Nilo-Saharan,Saharan,Cameroon
Kapampangan [pam],15.333,120.5,#739EEA,Malayo-Polynesian,Philippines,Philippines
Kapau [hmt],-7.667,146.167,#749E2E,Trans New Guinea,Morobe-Eastern Highlands,Papua New Guinea
Kapingamarangi [kpg],1,155,#8747C9,Oceanic,Central Pacific,USA Federated States of Micronesia
Kara [kah],9,24,#482E84,Nilo-Saharan,Central Sudanic,Central African Republic
Kara [kxh],5.21,36.17,#7D621A,Afro-Asiatic,Omotic,Ethiopia
Karachay-Balkar [krc],44,42,#8D870C,Turkic,Common Turkic,Russia
Karaim [kdr],54.63,24.93,#645A31,Turkic,Common Turkic,Lithuania
Karajá [kpj],-10,-50.2,#68812D,Macro-Je,Karaja,Brazil
Karajarri [gbd],-18.5,122.5,#F167A5,Pama-Nyungan,Marngu,Australia
Karakalpak [kaa],43,60,#927C18,Turkic,Common Turkic,Uzbekistan
Karankawa [zkk],28.91,-96.49,#66AF53,Karankawa,,USA
Karbi [mjw],26.2,93.5,#9E802E,Tibeto-Burman,Kuki-Chin-Naga,India
Karelian [krl],63,32,#7E642D,Uralic,Finnic,Russia
Karen [bwe],17,98,#4F168D,Tibeto-Burman,Karen,Myanmar
Karen_Geba [kvq],19.02,96.58,#392685,Tibeto-Burman,Karen,Myanmar
Karen_Pho [pwo],14.333,98.3,#561287,Tibeto-Burman,Karen,Myanmar
Karen_Pho_Kyonbyaw [pwo-2],17.6,95.2,#381D87,Tibeto-Burman,Karen,Myanmar
Karen_Pwo_Omkoi [pwo-3],17.8,98.36,#4C128B,Tibeto-Burman,Karen,Thailand
Karen_Pwo_West-Central Thailand [pwo-4],14.72,99.07,#481891,Tibeto-Burman,Karen,Thailand
Karen_Sgaw [ksw],16.9,94.9,#511790,Tibeto-Burman,Karen,Myanmar
Karhadi [mal-3],12.5,75,#B7712B,Dravidian,South Dravidian,India
Karii [xxx-22],17.917,105.5,#5927B3,Austroasiatic,Vietic,Laos
Karimojong [kdj],3,34.17,#256DB3,Nilo-Saharan,Eastern Sudanic,Uganda
Karirí_Dzubukua [kzw],-10,-37,#5B80BA,Karirí,,Brazil
Karitiána [ktn],-4,-64,#68AA7D,Tupian,Arikem,Brazil
KarkarYuri [yuj],-3.75,141.083,#955744,Trans New Guinea,Karkar-Yuri,Papua New Guinea
Karko [adi-6],28,94.8,#AC5B31,Tibeto-Burman,Macro-Tani,India
Káro [arr],-9,-62.25,#A79D71,Tupian,Ramarama,Brazil
Karok [kyh],41.67,-123,#61BF59,Karok,,USA
Kashmiri [kas],34,76,#8B762B,Indo-European,Indo-Iranian,India
Kaska [kkz],60.05,-128.7,#3EAA40,Dene-Yeniseic,Na-Dene,Canada
Kasong [cog],12.58,102.53,#4C0593,Austroasiatic,Pearic,Thailand
Kasua [khs],-6.513,143.005,#B65F40,Trans New Guinea,Bosavi,Papua New Guinea
Katcha [xtc-2],10.83,29.67,#4F55C6,Kadugli-Krongo,Central-western Kadugli-Krongo,Sudan
Kate [kmg],-6.5,147.833,#A18D3A,Trans New Guinea,Morobe-Eastern Highlands,Papua New Guinea
Kati_North [yon],-5.5,141,#9B6542,Trans New Guinea,Ok,Indonesia-Papua
Katla [kcr],11.9,29.2,#475CA9,Katla-Tima,Katla-Julud,Sudan
Kattunaicka [xuj],11.503,76.581,#B87525,Dravidian,South Dravidian,India
Katu [ktv],15.833,107.583,#51249F,Austroasiatic,Katuic,Vietnam
Kaugel [ubu],-5.95,144.167,#C27D46,Trans New Guinea,Chimbu-Wahgi,Papua New Guinea
Kaulong [pss],-6.25,150.5,#5A4DBB,Oceanic,Western Oceanic,Papua New Guinea-Bismarcks
Kaure [bpp],-3.333,139.333,#83831D,Nawa River,Kaure,Indonesia-Papua
Kaurna [zku],-33.5,138.75,#F77994,Pama-Nyungan,Thura-Yura,Australia
Kavaras [mal-2],10.8,76.65,#BD7E28,Dravidian,South Dravidian,India
Kawaiisu [xaw],36,-117.5,#65BE42,Uto-Aztecan,Numic,USA
Kayah Lahta [eky-3],19.55,97.15,#4F1686,Tibeto-Burman,Karen,Myanmar
Kayah Li [eky],19.89,98.34,#461D73,Tibeto-Burman,Karen,Myanmar
Kayah Monu [eky-2],19.167,97.159,#461D7E,Tibeto-Burman,Karen,Myanmar
Kayan Lahta [kvt],20.18,97.38,#47168A,Tibeto-Burman,Karen,Myanmar
Kayardild [gyd],-17.05,139.5,#EF6A96,Tangkic,Southern Tangkic,Australia
Kaytetye [gbb],-22,135.5,#F678B9,Pama-Nyungan,Arandic,Australia
Kazakh [kaz],50,70,#97881A,Turkic,Common Turkic,Kazakhstan
Kedang [ksx],-8.25,123.75,#5152BD,Malayo-Polynesian,Timoric,Indonesia-NTT
Kei [kei],-5.67,133.08,#5044B3,Malayo-Polynesian,Kei,Indonesia-Maluku-south
Keiga [kec],11.23,29.68,#5A42A2,Kadugli-Krongo,Keiga,Sudan
Kelabit [kzi],3.736,115.468,#5351D4,Malayo-Polynesian,North Borneo,Malaysia-Borneo
Kele [khy],0.37,24.31,#285CA0,Niger-Kongo,Atlantic-Congo,Democratic Republic of the Congo
Kele [sbc],-2.083,147.333,#5F60D5,Oceanic,Admiralties,Papua New Guinea-Bismarcks
Kemak [kem],-8.92,125.2,#5A3DAF,Malayo-Polynesian,Timoric,Timor leste
Kenga [kyq],12,18,#673A90,Nilo-Saharan,Central Sudanic,Chad
Kensiw [kns],6.034,100.998,#5C27AE,Austroasiatic,Aslian,Malaysia
Kenta' Bong [knq],6.235,100.84,#5932B6,Austroasiatic,Aslian,Malaysia
Kéo [xxk],-8.83,121.25,#5D25AE,Malayo-Polynesian,Flores-Sawu-Sumba,Indonesia-NTT
Kera [ker],9.83,15.08,#5D3B92,Afro-Asiatic,Chadic,Chad
Keraq [unr-2],24,85.2,#D9816D,Austroasiatic,Munda,India
Kerek [krk],62.25,175,#C2A95C,Chukotko-Kamchatkan,Main Chukotko-Kamchatkan,Russia
Kerinci [kvr],-2.15,101.5,#8332B0,Malayo-Polynesian,Malayo-Sumbawan,Indonesia-Sumatra
Kermani [pes-6],31.27,56.81,#4F8739,Indo-European,Indo-Iranian,Iran
Kesui [wah],-4.5,131.667,#634EC1,Malayo-Polynesian,Central Maluku,Indonesia-Maluku-south
Ket [ket],64,87,#49704D,Dene-Yeniseic,Yeniseic,Russia
Keuw [khh],-3.2,136.2,#863449,Keuw,,Indonesia-Papua
Kewa [kew],-6.333,143.75,#A56C33,Trans New Guinea,Engan,Papua New Guinea
Khakas [kjh],53,90,#9F8017,Turkic,Common Turkic,Russia
Khalaj [klj],35,50,#977E20,Turkic,Common Turkic,Iran
Khaling [klr],27.6,86.7,#8D732D,Tibeto-Burman,Kiranti,Nepal
Khalkha [khk],47,108,#A56C22,Mongolic,Core Mongolic,Mongolia
Kham [kgj],28.5,82.75,#816017,Tibeto-Burman,Kham,Nepal
Khamti [kht],26.5,96.4,#541AA2,Tai-Kadai,Kam-Tai,Myanmar
Khanty [kca],64,69,#B56656,Uralic,Khantyic,Russia
Khargi [luz],29.25,50.31,#3F825E,Indo-European,Indo-Iranian,Iran
Kharia [khr],22.5,83.5,#B88747,Austroasiatic,Munda,India
Khasi [kha],26,92,#5D3F95,Austroasiatic,Khasi-Palaung,India
Khatri [guj-2],15.36,75.09,#B86D33,Indo-European,Indo-Iranian,India
Khengkha [xkf],27.28,90.75,#AF443A,Tibeto-Burman,Bodic,Bhutan
Khmer [khm],12.05,105.02,#6620B1,Austroasiatic,Khmer,Cambodia
Khmer_Surin [kxm],15,103.75,#5F17A2,Austroasiatic,Khmer,Thailand
Khmu' [kjg],19,100.75,#5424AA,Austroasiatic,Khmuic,Thailand
Khorasani_Arabic [abh-2],35.86,59.14,#3A8359,Afro-Asiatic,Semitic,Iran
Khowar [khw],36.5,72.5,#7C8211,Indo-European,Indo-Iranian,Pakistan
Khroskyabs_Siyuewu [jiq-2],31.754,101.42,#627C24,Tibeto-Burman,Na-Qiangic,China
Khroskyabs_Wobzi [jiq],31.57,101.93,#72981A,Tibeto-Burman,Na-Qiangic,China
Khuri [xxx-41],33.775,55.085,#538538,Indo-European,Indo-Iranian,Iran
Khwarshi [khv],42.27,46,#5EBD29,Nakh-Daghestanian,Tsezic,Russia
Kickapoo [kic],41.94,-83.734,#6FDB97,Algic,Algonquian,USA
Kienyang [cdo-2],27.35,118.15,#5F127C,Tibeto-Burman,Sinitic,China
Kija [gia],-17.5,127.75,#E19FBF,Jarrakan,,Australia
Kikaonde [kqn],-12.41,25.76,#2F709A,Niger-Kongo,Atlantic-Congo,Zambia
Kikongo [kng],-5,16.8,#14609A,Niger-Kongo,Atlantic-Congo,Democratic Republic of the Congo
Kilivila [kij],-8.5,151,#507BEB,Oceanic,Western Oceanic,Papua New Guinea
Kiliwa [klb],31.33,-115.67,#8FB858,Yuman-Cochimi,Yuman,USA
Kiluba [lub],-8.5,26,#2865A2,Niger-Kongo,Atlantic-Congo,Democratic Republic of the Congo
Kim Mun [mji],18.685,109.575,#490C87,Hmong-Mien,Mienic,China
Kim Mun_Funing [mji-3],23.63,105.63,#511289,Hmong-Mien,Mienic,China
Kimaama [kig],-8,138.883,#863864,Trans New Guinea,Kayagar-Kolopom,Indonesia-Papua
Kinga [zga],-9.36,34.23,#296C94,Niger-Kongo,Atlantic-Congo,Kenya
Kinikinao [gqn],-19.9891,-57.028,#5DBAB2,Arawak,Southern Maipuran,Brazil
Kinnauri [kfk],31.5,78.25,#914937,Tibeto-Burman,Western Himalayan,India
Kinnauri Pahari [kjo],31.78,77.06,#9A6F1D,Indo-European,Indo-Iranian,India
KinyaRwanda [kin],-2,30,#127691,Niger-Kongo,Atlantic-Congo,Rwanda
Kiowa [kio],37,-99,#539B38,Kiowa-Tanoan,Kiowa,USA
Kiput [kyi],4.083,114.355,#573CC1,Malayo-Polynesian,North Borneo,Malaysia-Borneo
Kire [geb],-4.417,144.75,#733E37,Lower Sepik-Ramu,Ramu,Papua New Guinea
Kiribati [gil],1.333,173,#5E79ED,Oceanic,Micronesian,Kiribati
KiSamba [hum],-4.7,18.13,#1A61A0,Niger-Kongo,Atlantic-Congo,Democratic Republic of the Congo
Kĩsêdjê [suy-2],-11.52,-53.07,#A35344,Macro-Je,Je,Brazil
Kisi [kiz],-9.93,34.48,#1B629D,Niger-Kongo,Atlantic-Congo,Tanzania
Kisi [kss],8.57,-10.13,#424396,Niger-Kongo,Atlantic-Congo,Guinea
Kitaabwa [tap],-7.91,29.52,#1A5A8B,Niger-Kongo,Atlantic-Congo,Zambia
Kitanemuk [xxx-14],34.5,-117.5,#95A57A,Uto-Aztecan,Serran Uto-Aztecan,USA
Kituba [ktu],-5.047,18.812,#392F93,Niger-Kongo,Atlantic-Congo,Democratic Republic of the Congo
Kiwai [kjd],-8.583,143.25,#8E9549,Kiwaian,Southern Kiwai,Papua New Guinea
Kiwai-Urama [kiw],-7.6,144.62,#7C7E39,Kiwaian,Northeast Kiwai,Papua New Guinea
Klallam [clm],48.14,-123.57,#42D9BC,Salish,Central Salish,USA
Klamath [kla],42.5,-121.5,#6BD5A3,Klamath-Modoc,,USA
Klao [klu],4.75,-8.75,#507D3B,Niger-Kongo,Atlantic-Congo,Liberia
Klon [kyo],-8.417,124.417,#74449A,Timor-Alor-Pantar,Alor-Pantar,Indonesia-NTT
Koasati [cku],34.83,-85.17,#74B538,Muskogean,Alabama-Koasati,USA
Kobon [kpw],-5.167,144.417,#A55357,Trans New Guinea,Madang,Papua New Guinea
Koch_Harigaya [kdq],25.45,89.93,#9F652A,Tibeto-Burman,Bodo-Garo,India
Kodagu [kfa],13.08,76.42,#B16726,Dravidian,South Dravidian,India
Kogi [kog],11,-73.9,#83A12A,Chibchan,Core Chibchan,Colombia
Koho [kpm-2],11.667,108,#5325B0,Austroasiatic,Bahnaric,Vietnam
Koiali_Mountain [kpx],-9.083,147.5,#A48F37,Southeast Papuan,Owen Stanley Ranges,Papua New Guinea
Koiari [kbk],-9.5,147.333,#867D2D,Southeast Papuan,Owen Stanley Ranges,Papua New Guinea
Koita [kqi],-9.333,147.083,#89852E,Southeast Papuan,Owen Stanley Ranges,Papua New Guinea
Koiwai [kwh],-4,134,#5F55BD,Malayo-Polynesian,Koiwai,Indonesia-Papua
Kokborok [trp],24.33,92.5,#A75826,Tibeto-Burman,Bodo-Garo,India
Kokota [kkk],-8,159.25,#4E81D7,Oceanic,Western Oceanic,Solomons
Kola [kvv],-5.42,134.5,#5058C5,Malayo-Polynesian,Southeast Maluku,Indonesia-Maluku-south
Kolami [kfb],20,78.5,#AC6825,Dravidian,Central Dravidian,India
Kolana [kvw],-8.3,125.133,#8D5C7A,Timor-Alor-Pantar,Alor-Pantar,Indonesia-NTT
Kolokuma [ijc],4.92,5.67,#7E6829,Ijoid,Ijo,Nigeria
Koluwawa [klx],-9.418,150.437,#586AC1,Oceanic,Western Oceanic,Papua New Guinea
Komba [kpf],-6.137,147.281,#B68345,Trans New Guinea,Morobe-Eastern Highlands,Papua New Guinea
Kombai [tyn],-5.75,140,#7C6334,Trans New Guinea,Awyu-Dumut,Indonesia-Papua
Kombio [xbi],-3.5,142.77,#744FC2,Torricelli,Kombio-Arapesh,Papua New Guinea
Komi [koi],59.5,54.5,#997B1E,Uralic,Permic,Russia
Komi-Zyrian [kpv],65,55,#8E802C,Uralic,Permic,Russia
Komnzo [tci],-8.618,141.55,#9C6E45,South New Guinea,East Morehead,Papua New Guinea
Komo [bhy],-0.76,26.71,#275EA7,Niger-Kongo,Atlantic-Congo,Democratic Republic of the Congo
Komo [xom],9,33.75,#286186,Nilo-Saharan,Koman,South Sudan
Komodo [knh],-8.5,119.5,#484ED4,Malayo-Polynesian,Bima,Indonesia-NTT
Konai [kxw],-5.655,142.07,#794F2A,Papuan Gulf,Strickland,Papua New Guinea
Konda [kfc],19.5,83,#B7812F,Dravidian,South-Central Dravidian,India
Kongo-Matadi [kng-2],-5.82,13.48,#1D55A5,Niger-Kongo,Atlantic-Congo,Democratic Republic of the Congo
Konjo [kjc],-5.333,119.833,#5B92E6,Malayo-Polynesian,Greater South Sulawesi,Indonesia-Sulawesi
Konkani [knn],15.25,74.4,#AE5A35,Indo-European,Indo-Iranian,India
Konkomba [xon],9.408,0.431,#48418E,Niger-Kongo,Atlantic-Congo,Ghana
Konkow [nmu-2],39.7,-121.52,#9AB32B,Maiduan,Northwest Maidu,USA
Konni [kma],10.24,-1.54,#4C3A9A,Niger-Kongo,Atlantic-Congo,Ghana
Kono [knu],7.85,-8.26,#524B6D,Mande,Western Mande,Liberia
Konso [kxc],5.4,37.5,#607F32,Afro-Asiatic,Cushitic,Ethiopia
Konyak_Wakching [nbe],26.702,94.896,#97572E,Tibeto-Burman,Konyak,India
Koozime [ozm],2.617,14.017,#413AA1,Niger-Kongo,Atlantic-Congo,Cameroon
Korafe [kpr],-9.08,149.17,#897B24,Trans New Guinea,Oro-Wharton,Papua New Guinea
Koraga [kfd],12.888,75.282,#AA6E25,Dravidian,South Dravidian,India
Korana [kqz],-26,22,#5D5A45,Khoe,Khoe,Botswana
Korean [kor],37,128,#8B5422,Korean,,Korea
Koreguaje [coe],1,-75.5,#6C8D2F,Tucanoan,West Tucanoan,Colombia
Korku [kfq],25,78.5,#AD5D42,Austroasiatic,Munda,India
Koro [hru],27.25,92.8,#AC4837,Tibeto-Burman,Macro-Tani,India
Koromfe [kfz],14.25,-0.92,#3F508B,Niger-Kongo,Atlantic-Congo,Burkina Faso
Koroshi [ktl],28,58,#967A2B,Indo-European,Indo-Iranian,Iran
Korowai [khe],-5.417,140.45,#756A23,Trans New Guinea,Awyu-Dumut,Indonesia-Papua
Koryak [kpy],63.9,166.8,#95BF70,Chukotko-Kamchatkan,Main Chukotko-Kamchatkan,Russia
Kosraean [kos],5.3,163,#4B5BBE,Oceanic,Micronesian,USA Federated States of Micronesia
Kotiria [gvc-2],0.5,-69.3,#7C660F,Tucanoan,East Tucanoan,Brazil
Kouya [kyf],7.27,-6.57,#522B79,Niger-Kongo,Atlantic-Congo,Côte d'Ivoire
Kouzie [nwb],7.01,-6.51,#5B1F8D,Niger-Kongo,Atlantic-Congo,Côte d'Ivoire
Koya [kff],17.5,81.333,#B57728,Dravidian,South-Central Dravidian,India
Koyi [kkt],27.4,86.9,#A49A3D,Tibeto-Burman,Kiranti,Nepal
Koyra Chiini [khq],16.75,3.5,#613488,Nilo-Saharan,Songhai,Mali
Koyukon [koy],65,-155,#4CB239,Dene-Yeniseic,Na-Dene,USA-Alaska
Kpa' [ksf],4.751,11.231,#234B82,Niger-Kongo,Atlantic-Congo,Cameroon
Kpelle [xpe],7,-10,#3C3976,Mande,Western Mande,Liberia
Krahô [xra],-8,-48,#8B475A,Macro-Je,Je,Brazil
Krongo [kgo],10.5,30,#5441A2,Kadugli-Krongo,Central-western Kadugli-Krongo,Sudan
Kryts_Alik [kry],41.22,48.25,#66B523,Nakh-Daghestanian,Lezgic,Russia
Ku Waru [mux],-6,144.15,#C97852,Trans New Guinea,Chimbu-Wahgi,Papua New Guinea
Kube [kgf],-6.444,147.515,#99784D,Trans New Guinea,Morobe-Eastern Highlands,Papua New Guinea
Kuhpayi [mzn],32.715,52.44,#4F6C3F,Indo-European,Indo-Iranian,Iran
Kui [kvd],-8.39,124.67,#7D5094,Timor-Alor-Pantar,Alor-Pantar,Indonesia-NTT
Kui [kxu],20,83.5,#B86732,Dravidian,South-Central Dravidian,India
Kui Ntua [kdt-2],13.85,105.04,#4D2DB3,Austroasiatic,Katuic,Cambodia
Kuikuro [kui],-13,-54.2,#809CC7,Cariban,Nahukwa,Brazil
Kujireray [bqj],12.53,-16.42,#3E69BB,Niger-Kongo,Atlantic-Congo,Senegal
Kukatj [ggd],-17.95,140.8,#E86BA7,Pama-Nyungan,Paman,Australia
Kuke [ght],28.508,84.863,#893839,Tibeto-Burman,Kuke,Nepal
Kuku Nganhcara [wua],-14.8,141.9,#E55FA0,Pama-Nyungan,Paman,Australia
Kuku Yalanji [gvn],-16,145,#ED6799,Pama-Nyungan,Paman,Australia
Kula [tpg-2],-8.24,125,#6F5D67,Timor-Alor-Pantar,Alor-Pantar,Indonesia-NTT
Kullu [kfx],31.96,77.11,#CA603F,Indo-European,Indo-Iranian,India
Kumam [laj-2],1.75,33.21,#4774D8,Nilo-Saharan,Eastern Sudanic,Uganda
Kuman [kue],-5.917,144.917,#9B6035,Trans New Guinea,Chimbu-Wahgi,Papua New Guinea
Kumauni [kfy],30,80,#C96740,Indo-European,Indo-Iranian,India
Kumyk [kum],42.6,47.8,#928814,Turkic,Common Turkic,Russia
Kumzari [zum],26,56.3,#316A8D,Indo-European,Indo-Iranian,Oman
Kuna [kvn],8,-77.33,#B2654D,Chibchan,Core Chibchan,Panama
Kunama [kun],14.5,37,#766432,Nilo-Saharan,Kunama,Eritrea
Kundal Shahi [shd],34.55,73.84,#91631D,Indo-European,Indo-Iranian,Pakistan
Kunimaipa [kup],-8.083,146.917,#A78634,Trans New Guinea,Oro-Wharton,Papua New Guinea
Kunjen [kjn],-16.5,142,#E44F93,Pama-Nyungan,Paman,Australia
Kuot [kto],-3.083,151.5,#648EE7,Kuot,,Papua New Guinea-Bismarcks
Kupang Malay [mkn],-10.18,123.58,#6E30B6,Malayo-Polynesian,Malayo-Sumbawan,Indonesia-NTT
Kupia [ori-2],16.47,79.52,#BB742E,Indo-European,Indo-Iranian,India
Kurdish [kur],36,44,#689140,Indo-European,Indo-Iranian,Iraq
Kuria [kuj],-1.345,34.383,#22639B,Niger-Kongo,Atlantic-Congo,Tanzania
Kurmanji [kmr],38,42,#5A9E39,Indo-European,Indo-Iranian,Turkey
Kurmuk [bdi],10.55,34.28,#514EA1,Nilo-Saharan,Eastern Sudanic,Uganda
Kurrama [vku],-22.21,117.51,#F26CA4,Pama-Nyungan,Ngayarda,Australia
Kurtöp [xkz],27.83,91,#B1492D,Tibeto-Burman,Bodic,Bhutan
Kurumba [kfi],11.784,76.2,#C07637,Dravidian,South Dravidian,India
Kurux [kxl],26.5,87.35,#B8813F,Dravidian,North Dravidian,Nepal
Kusaal [kus],10.891,-0.363,#384796,Niger-Kongo,Atlantic-Congo,Ghana
Kusunda [kgg],28.33,83.1,#82444D,Kusunda,,Nepal
Kutai Malay [vkt],-0.3,116.53,#5E4CD3,Malayo-Polynesian,Malayo-Sumbawan,Malaysia-Borneo
Kutenai [kut],49.5,-116,#60C3CF,Kutenai,,Canada
Kuuk Thaayorre [thd],-14,142.25,#E563A3,Pama-Nyungan,Paman,Australia
Kuuku Ya'u [kuy],-12.583,143.083,#F366A5,Pama-Nyungan,Paman,Australia
Kuvi [kxv],18.75,82.667,#C17036,Dravidian,South-Central Dravidian,India
Kuy [kdt],14.833,103.917,#591FA5,Austroasiatic,Katuic,Thailand
Kven [fkv],69.27,19.96,#8C5156,Uralic,Finnic,Norway
Kwadi [kwz],-15,14.5,#8F573A,Khoe,Kwadi,Angola
Kwaio [kwd],-8.917,161.083,#4473CC,Oceanic,Southeast Solomonic,Solomons
Kwakum [kwu],4.24,13.45,#382699,Niger-Kongo,Atlantic-Congo,Cameroon
Kwakw'ala [kwk],51,-127,#3DD9AC,Wakashan,North Wakashan,Canada
Kwamera [tnk],-19.649,169.445,#505BB4,Oceanic,Southern Oceanic,Vanuatu
Kwangari [kwn],-18.5,20,#3B72BA,Niger-Kongo,Atlantic-Congo,Namibia
Kwanyama [kua],-17.72,16.58,#2C65AE,Niger-Kongo,Atlantic-Congo,Namibia
Kwara'ae [kwf],-8.65,160.744,#5173DB,Oceanic,Southeast Solomonic,Solomons
Kwarandzyey [kcy],29.405,-3.255,#1F8FB4,Nilo-Saharan,Songhai,Algeria
Kwaza [xwa],-12,-60.5,#819C46,Kwaza,,Brazil
Kwerba [kwe],-2.167,138.5,#BF925E,Kwerba,Nuclear Kwerba,Indonesia-Papua
Kwere [cwe],-6.51,38.44,#3E71C1,Niger-Kongo,Atlantic-Congo,Tanzania
Kwini [gww],-14.333,126.75,#C580C7,Worrorran,Northern Worrorran,Australia
Kwomtari [kwo],-3.635,141.398,#977031,Kwomtari,,Papua New Guinea
Kyaka_Enga [kyc],-5.5,144.083,#AD5944,Trans New Guinea,Engan,Papua New Guinea
Kyirong_Tibetan [bod-3],28.4,85.2,#944A21,Tibeto-Burman,Bodic,China
Kyrgyz [kir],42,75,#948212,Turkic,Common Turkic,Kyrgystan
Laal [gdm],10,17.67,#423B90,Laal,,Chad
Laboya [lmy],-9.747,119.365,#5B62DC,Malayo-Polynesian,Flores-Sawu-Sumba,Indonesia-NTT
Lachi [lbt],23.123,104.703,#471393,Tai-Kadai,Kadaic,China
Ladakhi [lbj],34,78,#A96D23,Tibeto-Burman,Bodic,India
Ladin [lld],46.68,11.9,#5B386D,Indo-European,Romance,Italy
Laguna [kjq],35.25,-107.33,#41A35F,Keresan,Western Keresan,USA
Lahu [lhu],20.75,100.75,#602F5D,Tibeto-Burman,Lolo-Burmese,Myanmar
Laiwu [cmn-15],36.21,117.68,#57195E,Tibeto-Burman,Sinitic,China
Lak [lbe],42.17,47.11,#78AA1E,Nakh-Daghestanian,Lak-Dargwa,Russia
Lakhota [lkt],45,-102,#237D58,Siouan,Western Siouan,USA
Lakkia [lbc],24.08,110.17,#4C0B98,Tai-Kadai,Kam-Tai,China
Lala-Bisa [leb],-12.95,30.23,#266B9D,Niger-Kongo,Atlantic-Congo,Zambia
Lalo [yik],25.335,99.78,#593151,Tibeto-Burman,Lolo-Burmese,China
Lamaholot [slp],-8.25,123,#623AA2,Malayo-Polynesian,Timoric,Indonesia-NTT
Lamani [lmn],19,76.5,#B2513D,Indo-European,Indo-Iranian,India
Lamba [lam],-13,28,#5752BD,Niger-Kongo,Atlantic-Congo,Zambia
Lamjung_Yohlmo [scp-2],28.33,84.42,#B3483D,Tibeto-Burman,Bodic,Nepal
Lamkang [lmk],24.15,94.27,#8D742F,Tibeto-Burman,Kuki-Chin-Naga,India
Lamma [lev],-8.409,124.007,#695389,Timor-Alor-Pantar,Alor-Pantar,Indonesia-NTT
Lamnso [lns],6.159,10.769,#48217E,Niger-Kongo,Atlantic-Congo,Cameroon
Lampung [ljp],-5,105,#634ED1,Malayo-Polynesian,Lampungic,Indonesia-Sumatra
Lango [laj],2,33,#5554CA,Nilo-Saharan,Eastern Sudanic,Uganda
Lani [dnw],-3.75,138.2,#B49A4C,Trans New Guinea,Western Trans New Guinea,Indonesia-Papua
Lao [lao],19,103,#57158B,Tai-Kadai,Kam-Tai,Laos
Laomian [lwm],21.95,100.1,#6F1E54,Tibeto-Burman,Lolo-Burmese,Thailand
Laragia [lrg],-12.667,130.833,#AF9BD3,Darwin,,Australia
Larantuka Malay [lrt],-8.33,123,#7D24A4,Malayo-Polynesian,Malayo-Sumbawan,Indonesia-NTT
Lardil [lbz],-16.5,139.5,#E762B3,Tangkic,Lardil,Australia
Larëvat [lrv],-16.152,167.361,#5248C9,Oceanic,Southern Oceanic,Vanuatu
Larike [alo],-3.783,127.917,#5176BD,Malayo-Polynesian,Central Maluku,Indonesia-Maluku-north
Lashi [lsi],26.05,98.5,#712E43,Tibeto-Burman,Lolo-Burmese,Myanmar
Latege [teg],-1.62,14.87,#423693,Niger-Kongo,Atlantic-Congo,Congo
Latgalian [ltg],56.5,27.5,#8A6533,Indo-European,Balto-Slavic,Latvia
Latvian [lav],56.8,24.1,#704D45,Indo-European,Balto-Slavic,Latvia
Lau [llu],-8.5,160.92,#4672DC,Oceanic,Southeast Solomonic,Solomons
Lavonggai [lcm-2],-2.58,150.33,#5962D0,Oceanic,Western Oceanic,Papua New Guinea-Bismarcks
Lavukaleve [lvk],-9,159,#93784F,Solomons East Papuan,,Solomons
Laz [lzz],41.274,41.151,#6CA71E,Kartvelian,Zan,Turkey
Lebbo' [whk],2.7,117.1,#663EC3,Malayo-Polynesian,North Borneo,Malaysia-Borneo
Leco [lec],-15.0146,-67.8341,#88B633,Leco,,Bolivia
Leggbo [agb],6,8,#3A389D,Niger-Kongo,Atlantic-Congo,Nigeria
Leitre [vam-2],-2.85,141.625,#6A3570,Skou,West Skou,Papua New Guinea
Lele [lln],9.08,15.58,#4A3BA4,Afro-Asiatic,Chadic,Chad
Lelemi [lef],7.33,0.5,#4B388A,Niger-Kongo,Atlantic-Congo,Ghana
Lelepa [lpa],-17.64,168.18,#515FCC,Oceanic,Southern Oceanic,Vanuatu
Lembena [leq],-5.046,143.848,#C27B46,Trans New Guinea,Engan,Papua New Guinea
Lenakel [tnl],-19.499,169.314,#4B70D8,Oceanic,Southern Oceanic,Vanuatu
Lepcha [lep],27,88.2,#91423D,Tibeto-Burman,Bodic,India
Leti [lti],-8.2,127.67,#4D66C2,Malayo-Polynesian,Southeast Maluku,Indonesia-Maluku-south
Lëtzebuergesch [ltz],49.85,6.15,#594A4B,Indo-European,Germanic,Luxembourg
Lewo [lww],-16.667,168.333,#5E6ADA,Oceanic,Southern Oceanic,Vanuatu
Lezgian [lez],41.58,47.78,#6F9E14,Nakh-Daghestanian,Lezgic,Russia
Lhagang Choyu [qvy],30,101.9,#91541D,Tibeto-Burman,Na-Qiangic,China
Lhokpu [lhp],26.92,89.24,#C25D3A,Tibeto-Burman,Lhokpu,Bhutan
Lhomi [lhm],27.75,87.4,#934236,Tibeto-Burman,Bodic,Nepal
Liangmai [njn],25.16,93.54,#794C2D,Tibeto-Burman,Kuki-Chin-Naga,India
Liko [kbo],3.75,30.5,#17558A,Nilo-Saharan,Central Sudanic,South Sudan
Lillooet [lil],50.75,-122,#25E5BB,Salish,Interior Salish,Canada
Limbu [lif],27.25,87.98,#939637,Tibeto-Burman,Kiranti,Nepal
Limbu_Chhathare [lif-2],27.04,87.45,#84B23D,Tibeto-Burman,Kiranti,Nepal
Limilngan [lmc],-12.5,131.917,#B883DB,Darwin,,Australia
Linda [liy],6,21,#24388D,Ubangian,Bandaic,Central African Republic
Lingala [lin],1,18.5,#1B5D99,Niger-Kongo,Atlantic-Congo,Democratic Republic of the Congo
Linghua [xxx-21],26.057,110.003,#4A1674,Tibeto-Burman,Sinitic,China
Lio [ljl],-8.648,121.861,#5829B0,Malayo-Polynesian,Flores-Sawu-Sumba,Indonesia-NTT
Lisu [lis],19.5,98.75,#6D1E4B,Tibeto-Burman,Lolo-Burmese,Myanmar
Lithuanian [lit],54.9,23.9,#6E6533,Indo-European,Balto-Slavic,Lithuania
Liuzhou [cmn-13],24.317,109.383,#59196D,Tibeto-Burman,Sinitic,China
Livonian [liv],57.7,22.5,#8E4D4D,Uralic,Finnic,Latvia
Lizu [ers-2],28.33,101.35,#623923,Tibeto-Burman,Na-Qiangic,China
Lodha [ben-4],22.4,87.4,#C46036,Indo-European,Indo-Iranian,Bangladesh
Logba [lgq],6.9,0.45,#283F8E,Niger-Kongo,Atlantic-Congo,Ghana
Logbara [lgg],3.08,30.92,#4D4655,Nilo-Saharan,Central Sudanic,Democratic Republic of the Congo
Lokono [arw-2],6.07,-57.6,#688A56,Arawak,Northern Maipuran,Guyana
Lom [mfb],-1.67,105.92,#6247CC,Malayo-Polynesian,Malayo-Sumbawan,Indonesia-Sumatra
Longgu [lgu],-9.696,160.658,#4886EB,Oceanic,Southeast Solomonic,Solomons
Loniu [los],-2.1,147.417,#6851CF,Oceanic,Admiralties,Papua New Guinea-Bismarcks
Lonwolwol [crc],-16.211,168.011,#3972B4,Oceanic,Southern Oceanic,Vanuatu
Looma [lom],7.97,-9.6,#3F3D92,Mande,Western Mande,Liberia
Lopit [lpx],4.8,33,#328DB8,Nilo-Saharan,Eastern Sudanic,South Sudan
Lote [uvl],-5.6,151.9,#665ACC,Oceanic,Western Oceanic,Papua New Guinea-Bismarcks
Lotha [njh],26.5,94.25,#865B1F,Tibeto-Burman,Kuki-Chin-Naga,India
Lou [loj],-2.367,147.333,#5745C6,Oceanic,Admiralties,Papua New Guinea-Bismarcks
Lovono [nk],-11.595,166.821,#683DC8,Oceanic,Te Motu,Solomons_East
Low German [nds-2],54.3,18,#5D3E4E,Indo-European,Germanic,Germany
Lozi [loz],-15,23,#366CA8,Niger-Kongo,Atlantic-Congo,Zambia
Lü [khb],22,100.67,#461393,Tai-Kadai,Kam-Tai,China
Luang [lex],-8.18,127.94,#4B5CBA,Malayo-Polynesian,Southeast Maluku,Indonesia-Maluku-south
Luangiua [ojv],-5.417,159.65,#6A34A6,Oceanic,Central Pacific,Solomons
Luchazi [lch],-13.71,19.86,#236C97,Niger-Kongo,Atlantic-Congo,Angola
Lufeng [hak-4],23.41,115.82,#591277,Tibeto-Burman,Sinitic,China
LuGanda [lug],0.5,32.17,#386CBC,Niger-Kongo,Atlantic-Congo,Uganda
Luiseño [lui],33.33,-117.17,#9F9145,Uto-Aztecan,North Uto-Aztecan,USA
Lumbu [lup],-3.42,10.65,#2767A8,Niger-Kongo,Atlantic-Congo,Gabon
Lumun [lmd],10.8,30.2,#6373C3,Talodi-Heiban,Talodi,Sudan
Lun Bawang [lnd],3.9,115.68,#5F3CC4,Malayo-Polynesian,North Borneo,Malaysia-Borneo
Lunda [lun],-11.18,23.87,#2A7396,Niger-Kongo,Atlantic-Congo,Zambia
Lungchang [nst-2],27.38,96.02,#A24939,Tibeto-Burman,Konyak,India
Luo [luo],-0.4,34.4,#366FBE,Nilo-Saharan,Eastern Sudanic,Kenya
Luoba [adi-9],29.48,95.5,#B04638,Tibeto-Burman,Macro-Tani,China
Luritja [piu],-23.3,131.9,#F37FA4,Pama-Nyungan,Wati,Australia
Lurö [tef],8.24,93.13,#8861CC,Austroasiatic,Nicobar,India_Andaman-Nicobars
Lushootseed [lut],48,-122,#40DCA6,Salish,Central Salish,USA
Lusoga [xog],0.4,33.39,#2D71A0,Niger-Kongo,Atlantic-Congo,Uganda
Luvale [lue],-12,22,#3471BA,Niger-Kongo,Atlantic-Congo,Angola
Ma_Manda [skc],-6.375,146.57,#B49E50,Trans New Guinea,Morobe-Eastern Highlands,Papua New Guinea
Ma'ya [slz],-1.25,130.92,#4341A4,Malayo-Polynesian,Eastern Malayo-Polynesian,Indonesia-Papua
Maanyan [mhy],-2,115,#6040CF,Malayo-Polynesian,Barito,Indonesia-Kalimantan
Maasai [mas],-3,36,#4489CA,Nilo-Saharan,Eastern Sudanic,Tanzania
Maasinankoore [ffm],11.13,-3.65,#2F7C9C,Niger-Kongo,Atlantic-Congo,Mali
Maay [ymm],3.22,43.62,#5A914D,Afro-Asiatic,Cushitic,Mali
Maba [mde],13.75,20.83,#6B6E2F,Nilo-Saharan,Maban,Chad
Macedonian [mkd],41.6,22,#71545A,Indo-European,Balto-Slavic,North Macedonia
Macuna [myy],-0.2,-70.15,#76B33C,Tucanoan,East Tucanoan,Colombia
Macushi [mbc],4.5,-60,#B8A770,Cariban,Venezuelan,Brazil
Mada [mda],9.02,8.34,#491694,Niger-Kongo,Atlantic-Congo,Nigeria
Madi [mhi],3.45,31.17,#402E79,Nilo-Saharan,Central Sudanic,Uganda
Madimadi [dmd],-34.5,143.5,#E772BA,Pama-Nyungan,Kulinic,Australia
Madurese [mad],-7.25,113.333,#684ADA,Malayo-Polynesian,Malayo-Sumbawan,Indonesia-Java
Magahi [mag],25,85,#B1782A,Indo-European,Indo-Iranian,India
Magar [mgp],28,83,#A7602E,Tibeto-Burman,Magar,Nepal
Magi [mgu],-10.25,149,#ACA041,Southeast Papuan,Owen Stanley Ranges,Papua New Guinea
Magori [zgr],-10.25,149.25,#669279,Oceanic,Western Oceanic,Papua New Guinea
Maha [mew],10.67,11.7,#43639F,Afro-Asiatic,Chadic,Nigeria
Mahali [mjx],22.85,87.1,#BB824B,Austroasiatic,Munda,India
Maia [sks],-4.459,145.089,#A28390,Trans New Guinea,Madang,Papua New Guinea
MaiBrat [ayz],-1.25,132.667,#5344BA,West Papuan,Birds Head,Indonesia-Papua
Maidu [nmu],40,-120.67,#9EA526,Maiduan,Northeast Maidu,USA
Maipure [yvt],4.8,-67.5,#9DA65C,Arawak,Northern Maipuran,Venezuela
Mairasi [zrs],-3.5,134,#5C515A,Tanah Merah-Mairasi,Etna Bay,Indonesia-Papua
Maisin [mbq],-9.5,149.167,#868640,Oceanic,Western Oceanic,Papua New Guinea
Maithili [mai],26.5,86,#976C2D,Indo-European,Indo-Iranian,India
Majang [mpe],7.6,34.95,#736EBA,Nilo-Saharan,Eastern Sudanic,Ethiopia
Majhi [mjz],27.25,86.15,#B67E37,Indo-European,Indo-Iranian,Nepal
Mak [mkg],26,107.75,#45118E,Tai-Kadai,Kam-Tai,China
