name,latitude,longitude,color,family,subgroup,country
!Xoon [nmn],-24,21.5,#D5C199,Tuu,Hua,Botswana
’Weenhayek [mtp],-21.99,-63.6,#BE9F60,Matacoan,Mataguayo II,Bolivia
||Ana [gnk],-22.2,22.4,#EDEAE0,Khoe,Khoe,Botswana
||Ani [hnh],-19.3,22.5,#85B5CC,Khoe,Khoe,Botswana
||Gana [gnk-2],-19,22.5,#E2EBEC,Khoe,Khoe,Botswana
|Xam [xam],-30.34,21.82,#DCCBA7,Tuu,!Kwi,South Africa
A-Hmao [hmd],25.75,106.08,#C7AC75,Hmong-Mien,Hmongic,China
Aari [aiw],6,36.6,#156898,Afro-Asiatic,Omotic,Ethiopia
Aashing [adi-10],28.99,94.9,#0B5F92,Tibeto-Burman,Macro-Tani,India
Abau [aau],-4,141.167,#95BED3,Sepik,Abau,Papua New Guinea
Abawiri [flh],-3.05,139.21,#A5C9D9,Lakes Plains,Eastern Lakes Plains,Indonesia-Papua
Abaza [abq],44.34,41.67,#B6D3E1,Northwest Caucasus,Abaza-Abkhaz,Russia
Abellen [abp],15.41,120.2,#B5924B,Malayo-Polynesian,Philippines,Philippines
Abenaki_Western [abe],44,-72.25,#D8C6A0,Algic,Algonquian,USA
Abinomn [bsa],-3,138.8,#8EBAD0,Abinomn,,Indonesia-Papua
Abipon [axb],-26,-61,#CDB583,Guaicuruan,Southern Guaicuruan,Argentina
Abkhaz [abk],43,41.03,#C6DCE7,Northwest Caucasus,Abaza-Abkhaz,Abkhazia
Abruzzo [nap],42.66,13.7,#DCCBA7,Indo-European,Romance,Italy
Abui [abz],-8.417,124.6,#D2BD92,Timor-Alor-Pantar,Alor-Pantar,Indonesia-NTT
Abun [kgr],-0.833,132,#D2BD92,West Papuan,Birds Head,Indonesia-Papua
Acehnese [ace],5.333,96.167,#9F711B,Malayo-Polynesian,Malayo-Sumbawan,Indonesia-Sumatra
Achagua [aca],4.002,-72.814,#EDECE5,Arawak,Northern Maipuran,Colombia
Aché [guq],-25.25,-55.17,#9EC3D6,Tupian,Tupi-Guarani,Paraguay
Achuar [acu],-3,-76,#2777A2,Jivaroan,Shuaric,Peru
Achumawi [acv],41.5,-121,#E2EBEC,Palaihnihan,,USA
Acoma [kjq-2],34.92,-107.58,#DCCBA7,Keresan,Western Keresan,USA
Adang [adn],-8.163,124.456,#E2D4B7,Timor-Alor-Pantar,Alor-Pantar,Indonesia-NTT
Adim [yay],5.81,8.03,#E4D8BE,Niger-Kongo,Atlantic-Congo,Nigeria
Adyghe [ady],44.1,39.08,#7DB0C9,Northwest Caucasus,Ubykh-Circassian,Russia
Adyghe_Black Sea Shapsugh [ady-2],44.375,38.4,#95BED3,Northwest Caucasus,Ubykh-Circassian,Abkhazia
Adynyamathanha [adt],-31,139.5,#5496B7,Pama-Nyungan,Thura-Yura,Australia
Adzera [azr],-6.417,146.25,#CDB583,Oceanic,Western Oceanic,Papua New Guinea
Afar [aar],11.85,42,#5D9CBB,Afro-Asiatic,Cushitic,Djibouti
Afrikaans [afr],-33.9,18.5,#ECE4D3,Indo-European,Germanic,South Africa
Aftari_Komisenian [sqo-2],35.6,53.11,#8EBAD0,Indo-European,Indo-Iranian,Iran
Agarabi [agd],-6.25,145.917,#2E7CA5,Trans New Guinea,Morobe-Eastern Highlands,Papua New Guinea
Aghem [agq],6.39,10.12,#BA9A59,Niger-Kongo,Atlantic-Congo,Cameroon
Aghu [ahh],-6.333,140,#85B5CC,Trans New Guinea,Awyu-Dumut,Indonesia-Papua
Aghu-Tharrnggala [gtu],-13.73,142.43,#6DA6C2,Pama-Nyungan,Paman,Australia
Agta [agt],17.967,121.833,#AC8536,Malayo-Polynesian,Philippines,Philippines
Aguaruna [agr],-5.25,-78,#458BB0,Jivaroan,Aguaruna,Peru
Agutaynen [agn],11.15,120.95,#AC8536,Malayo-Polynesian,Philippines,Philippines
Ahamb [ahb],-16.507,167.703,#AF893D,Oceanic,Southern Oceanic,Vanuatu
Ahtna [aht],62,-145,#EDE7DA,Dene-Yeniseic,Na-Dene,USA-Alaska
Ai-cham_Diwo [aih],25.8,107,#C7AC75,Tai-Kadai,Kam-Tai,China
Aikaná [tba],-12.1,-60.6,#E2EBEC,Aikaná,,Brazil
Ainu [ain],42.4,142.5,#DECFAF,Ainu,Hokkaido-Kuril,Japan
Ainu_Kuril [ain-2],46.5,151.5,#DCCBA7,Ainu,Hokkaido-Kuril,Japan
Ainu_Sakhalin [ain-3],47.975,142.2,#D5C199,Ainu,Sakhalin,Japan
Ainu_Saru [ain-4],42.88,142.4,#C9B07D,Ainu,Hokkaido-Kuril,Japan
Aiwoo [nfl],-10.5,166.5,#97660F,Oceanic,Te Motu,Solomons_East
Aka [axk],3.46,15.73,#B5924B,Ubangian,,Central African Republic
Aka [hru-2],27.2,92.9,#2E7CA5,Tibeto-Burman,Hrusish,India
Akabea [abj-2],12.38,92.78,#CEE0E9,Andaman,,India_Andaman-Nicobars
Akan [aka],6.5,-1.25,#C9B07D,Niger-Kongo,Atlantic-Congo,Ghana
Akawaio [ake],6,-59.5,#B6D3E1,Cariban,Venezuelan,Guyana
Akha [ahk],20.3,99.6,#9EC3D6,Tibeto-Burman,Lolo-Burmese,Thailand
Akhvakh [akv],42.379,46.384,#2E7CA5,Nakh-Daghestanian,Avar-Andi,Russia
Akie [oki],-5.43,37.19,#C4A86E,Nilo-Saharan,Eastern Sudanic,Kenya
Akuntsu [aqz],-12.74,-60.8,#A5C9D9,Tupian,Tupari,Brazil
Alaaba [alw],7.31,38.09,#3C86AC,Afro-Asiatic,Cushitic,Ethiopia
Alaala [nrz],-9,146.667,#E9E0CD,Oceanic,Western Oceanic,Papua New Guinea
Alabama [akz],32.7,-86.1,#85B5CC,Muskogean,Alabama-Koasati,USA
Alagwa [wbj],-4.64,35.72,#EDE7DA,Afro-Asiatic,Cushitic,Tanzania
Alamblak [amp],-4.667,143.25,#C6DCE7,Sepik,Sepik Hill,Papua New Guinea
Alawa [alh],-15.75,134.333,#CEE0E9,Macro-Gunwinygu,Marran,Australia
Albanian_Gheg_Kosovo [aln],42.58,21,#E2EBEC,Indo-European,Albanian,Kosovo
Albanian_Tosk [als],40.5,20,#E2EBEC,Indo-European,Albanian,Albania
Ale [gwd],5.38,37.27,#BDD7E3,Afro-Asiatic,Cushitic,Ethiopia
Aleut [ale],54,-166,#458BB0,Eskimo-Aleut,Aleut,USA-Alaska
Algherese [cat-3],40.55,8.32,#EAEDE9,Indo-European,Romance,Italy-Sardinia
Alor [aol],-8.245,124.412,#DECFAF,Malayo-Polynesian,Bima-Lembata,Indonesia-NTT
Alsea [aes],44.67,-123.93,#BE9F60,Alsean,,USA
Alune [alp],-3.167,128.333,#AF893D,Malayo-Polynesian,Central Maluku,Indonesia-Maluku-north
Alyawarr [aly],-24.6,134.5,#5D9CBB,Pama-Nyungan,Arandic,Australia
Alyutor [alr],61,165,#EDE7DA,Chukotko-Kamchatkan,Main Chukotko-Kamchatkan,Russia
Ama [amm],-4.168,141.671,#8EBAD0,Left May,,Papua New Guinea
Amahuaca [amc],-10.8,-73.5,#458BB0,Panoan,Southern Panoan,Peru
Amam [wer],-7.85,146.95,#5D9CBB,Trans New Guinea,Oro-Wharton,Papua New Guinea
Amanab [amn],-3.5,141.167,#4C90B3,Trans New Guinea,Border,Papua New Guinea
Amanuban [aoz-2],-9.82,124.47,#AC8536,Malayo-Polynesian,Southeast Maluku,Indonesia-NTT
Amara [aie],-5.533,148.667,#C7AC75,Oceanic,Western Oceanic,Papua New Guinea-Bismarcks
Amarasi [aaz],-10.08,124.33,#B5924B,Malayo-Polynesian,Southeast Maluku,Indonesia-NTT
Ambae_West [omb],-15.5,167.75,#B89652,Oceanic,Southern Oceanic,Vanuatu
Ambai [amk],-1.917,136.533,#AF893D,Malayo-Polynesian,Eastern Malayo-Polynesian,Indonesia-Papua
Ambel [xmt-2],-0.05,130.7,#B89652,Malayo-Polynesian,Eastern Malayo-Polynesian,Indonesia-Papua
Ambonese Malay [abs],-3.7,128.2,#C9B07D,Malayo-Polynesian,Malayo-Sumbawan,Indonesia-Maluku-north
Ambulas [abt],-3.75,143.083,#1A6D9C,Ndu,Nuclear Ndu,Papua New Guinea
Amdo [adx],36,94,#1A6D9C,Tibeto-Burman,Bodic,China
Amele_Haija [aey],-5.25,145.75,#DCE8ED,Trans New Guinea,Madang,Papua New Guinea
Amharic [amh],10,38,#E2EBEC,Afro-Asiatic,Semitic,Ethiopia
Amis [ami],23.333,121.333,#BE9F60,Austronesian,East Formosan,Taiwan
Amo [amo],10.33,8.67,#B89652,Niger-Kongo,Atlantic-Congo,Nigeria
Amoy [nan],24.5,118,#EDE7DA,Tibeto-Burman,Sinitic,China
Ampale [apz],-6.753,146.107,#5D9CBB,Trans New Guinea,Morobe-Eastern Highlands,Papua New Guinea
Amuesha [ame],-10,-73,#C7AC75,Arawak,Western Maipuran,Peru
Amuzgo [amu],16.83,-98,#AC8536,Otomanguean,Eastern Otomanguean,Mexico
Anal [anm],24.33,93.99,#5496B7,Tibeto-Burman,Kuki-Chin-Naga,India
Anamuxra [imi],-4.667,145,#7DB0C9,Trans New Guinea,Madang,Papua New Guinea
Andalusian [spa-4],37.5,-3.6,#EDE7DA,Indo-European,Romance,Spain
Andoké [ano],0,-72,#8EBAD0,Andoké,,Colombia
Anejom [aty],-20.25,169.833,#A27622,Oceanic,Southern Oceanic,Vanuatu
Anem [anz],-5.667,149,#B89652,Anem,,Papua New Guinea-Bismarcks
Angaatiha [agm],-7.22,146.25,#5D9CBB,Trans New Guinea,Morobe-Eastern Highlands,Papua New Guinea
Angali [pes-2],29.75,50.96,#C6DCE7,Indo-European,Indo-Iranian,Iran
Angami [njm],25.667,94.5,#6DA6C2,Tibeto-Burman,Kuki-Chin-Naga,India
Angas [anc],9.75,8.75,#C7AC75,Afro-Asiatic,Chadic,Nigeria
Anggor [agg],-3.667,141.167,#9EC3D6,Trans New Guinea,Border,Papua New Guinea
Anguthimri [awg],-12.333,141.833,#075A8F,Pama-Nyungan,Paman,Australia
Anindilyagwa [aoi],-14,136.5,#B89652,Macro-Gunwinygu,East Arnhem,Australia
Anji [wuu-6],30.65,119.69,#C6DCE7,Tibeto-Burman,Sinitic,China
Anong [nun],27.2,98.8,#9EC3D6,Tibeto-Burman,Nungish,China
Ansus [and],-1.73,135.806,#AF893D,Malayo-Polynesian,Eastern Malayo-Polynesian,Indonesia-Papua
Antakarinya [ant],-27.11,134.85,#458BB0,Pama-Nyungan,Wati,Australia
Antwerps [nld-2],51.22,4.4,#EDE7DA,Indo-European,Germanic,Belgium
Añú [pbg],11,-71.62,#AF893D,Arawak,Northern Maipuran,Venezuela
Anuta [aud],-11.611,169.85,#D2BD92,Oceanic,Central Pacific,Solomons_East
Anyin [any],5.9,-2.9,#C7AC75,Niger-Kongo,Atlantic-Congo,Côte d'Ivoire
Apache_Western [apw],33.9,-109.55,#E9E0CD,Dene-Yeniseic,Na-Dene,USA
Apalai [apy],0,-54,#E6ECEC,Cariban,Apalai,Brazil
Apatani [apt],27.4,93.8,#106496,Tibeto-Burman,Macro-Tani,India
Apinaye [apn],-6.25,-48,#E9E0CD,Macro-Je,Je,Brazil
Apma [app],-15.775,168.158,#C4A86E,Oceanic,Southern Oceanic,Vanuatu
Apurinã [apu],-7.26,-64.8,#C9B07D,Arawak,Southern Maipuran,Brazil
Arabana [ard],-28,137,#20729F,Pama-Nyungan,Karnic,Australia
Arabela [arl],-2,-75.17,#64A1BE,Zaparoan,Iquito-Arabela,Peru
Arabic [arb],29.5,42.5,#A57B29,Afro-Asiatic,Semitic,Saudi Arabia
Arabic_Abha [acw-2],18.22,42.51,#9F711B,Afro-Asiatic,Semitic,Saudi Arabia
Arabic_Afghanistan [acm-3],36.7,67.12,#BDD7E3,Afro-Asiatic,Semitic,Afghanistan
Arabic_Attuwair [acw-3],29.9,40.1,#8D5704,Afro-Asiatic,Semitic,Saudi Arabia
Arabic_Baghdad [acm-4],33.33,44.38,#E2D4B7,Afro-Asiatic,Semitic,Iran
Arabic_Basra [acm],30.5,47.825,#E4D8BE,Afro-Asiatic,Semitic,Iraq
Arabic_Bedouin_Sinai_Mzēnah [avl],28.135,34.1,#A88030,Afro-Asiatic,Semitic,Egypt
Arabic_Bukhara [abh],39.76,64.42,#C6DCE7,Afro-Asiatic,Semitic,Uzbekistan
Arabic_Coastal-Dhofari [acx],20.7,58.2,#A88030,Afro-Asiatic,Semitic,Oman
Arabic_Cypriot [acy],34.343,33.011,#CFB98B,Afro-Asiatic,Semitic,Cyprus
Arabic_Egyptian [arz],30,30,#97660F,Afro-Asiatic,Semitic,Egypt
Arabic_Faifa [jye-3],17.25,43.1,#905C06,Afro-Asiatic,Semitic,Yemen
Arabic_Fezzan [ayl-2],26.33,13.43,#C1A467,Afro-Asiatic,Semitic,Libya
Arabic_Gulf [afb],24,54,#B89652,Afro-Asiatic,Semitic,United Arab Emirates
Arabic_Harb [acw],25.81,42.87,#AF893D,Afro-Asiatic,Semitic,Saudi Arabia
Arabic_Hejazi [acw-5],21.543,41.173,#B28E44,Afro-Asiatic,Semitic,Saudi Arabia
Arabic_Khawetna [arb-3],36.42,41.225,#CFB98B,Afro-Asiatic,Semitic,Turkey
Arabic_Khuzestan [acm-2],31.33,48.69,#B5924B,Afro-Asiatic,Semitic,Iran
Arabic_Libyan [ayl],32,20.25,#9A6B16,Afro-Asiatic,Semitic,Libya
Arabic_Mauritanian [ary-2],20.92,-11.62,#905C06,Afro-Asiatic,Semitic,Mauritania
Arabic_Moroccan [ary],34,-7,#94610A,Afro-Asiatic,Semitic,Morocco
Arabic_Muscat [acx-2],23.63,58.55,#B5924B,Afro-Asiatic,Semitic,Oman
Arabic_Najdi [acw-4],23,45.5,#AF893D,Afro-Asiatic,Semitic,Saudi Arabia
Arabic_Qatari [afb-3],25.3,51.52,#A57B29,Afro-Asiatic,Semitic,Qatar
Arabic_Sa'idi [aec],25,32.75,#9F711B,Afro-Asiatic,Semitic,Egypt
Arabic_Sason [arb-2],38.333,41.42,#DCCBA7,Afro-Asiatic,Semitic,Turkey
Arabic_Sudanese [apd-2],15.5,32.56,#B28E44,Afro-Asiatic,Semitic,Sudan
Arabic_Syrian [apc],33,37,#97660F,Afro-Asiatic,Semitic,Syria
Arabic_Tillo [arb-4],37.95,42.013,#DECFAF,Afro-Asiatic,Semitic,Turkey
Arabic_Tunisian [aeb],36,10,#A88030,Afro-Asiatic,Semitic,Tunisia
Arabic_Wadi Mousa [ajp-2],30.32,35.48,#874E01,Afro-Asiatic,Semitic,Jordan
Arabic_Yemeni [jye-2],14,47,#A27622,Afro-Asiatic,Semitic,Yemen
Arakmbut [hug],-13.27,-71.21,#BDD7E3,Harakmbet,Harakmbut,Peru
Arammba [stk],-8.25,141.5,#8EBAD0,South New Guinea,East Morehead,Papua New Guinea
Arandai [jbj],-2.17,133,#7DB0C9,Trans New Guinea,South Birds Head,Indonesia-Papua
Araona [aro],-12.333,-67.75,#8EBAD0,Tacanan,Takanik-Chamik,Bolivia
Arapaho [arp],39.565,-105.345,#D2BD92,Algic,Algonquian,USA
Arára_Pará [aap],-4.2422,-53.3745,#D8C6A0,Cariban,Pekodian,Brazil
Arawak [arw],5.64,-56.92,#ECE4D3,Arawak,Northern Maipuran,Guyana
Arbëresh [als-2],37.995,13.283,#EDECE5,Indo-European,Albanian,Italy
Archi [aqc],42.07,46.86,#2777A2,Nakh-Daghestanian,Lezgic,Russia
Arctic Bay_Inuit [ikt],73.036,-85.15,#4C90B3,Eskimo-Aleut,Eskimo,Canada
Are'are [alu],-9.342,161.203,#9A6B16,Oceanic,Southeast Solomonic,Solomons
Argobba [agj],10.66,39.76,#E6ECEC,Afro-Asiatic,Semitic,Ethiopia
Arguni [agf],-2.667,132.5,#D5C199,Malayo-Polynesian,Eastern Malayo-Polynesian,Indonesia-Papua
Aribwatsa [laz],-6.667,146.917,#BE9F60,Oceanic,Western Oceanic,Papua New Guinea
Arifama-Miniafia [aai],-9.142,149.279,#EDECE5,Oceanic,Western Oceanic,Papua New Guinea
Arikara [ari],40,-97,#EDEAE0,Caddoan,Northern Caddoan,USA
Arizona Tewa [tew],35.8,-110.4,#E2EBEC,Kiowa-Tanoan,Tewa,USA
Armenian [hye],40,45,#4C90B3,Indo-European,Armenian,Armenia
Armenian_Western [hyw],40,40,#458BB0,Indo-European,Armenian,Turkey
Arop-Lokep [apr],-5.333,147.083,#C4A86E,Oceanic,Western Oceanic,Papua New Guinea
Arosi [aia],-10.333,161.5,#A57B29,Oceanic,Southeast Solomonic,Solomons
Arrernte_Central [are],-22.85,133.7,#2E7CA5,Pama-Nyungan,Arandic,Australia
Arrernte_Mparntwe [aer],-24,136,#5496B7,Pama-Nyungan,Arandic,Australia
Arta [atz],16.42,121.66,#BE9F60,Malayo-Polynesian,Philippines,Philippines
Asaro_Upper [aso],-5.967,145.292,#4C90B3,Trans New Guinea,Morobe-Eastern Highlands,Papua New Guinea
Asheninka_Apurucayali [cpc],-10.018,-74.793,#E2D4B7,Arawak,Southern Maipuran,Peru
Ashéninka_Perené [prq],-10.8734,-75.245,#E7DCC5,Arawak,Southern Maipuran,Peru
Asmat [asc],-5.3,138.3,#AECEDD,Trans New Guinea,Asmat-Kamoro,Indonesia-Papua
Assamese [asm],26.5,93,#20729F,Indo-European,Indo-Iranian,India
Assiniboine [asb],49,-100,#E9E0CD,Siouan,Western Siouan,Canada
Asumboa [aua],-11.296,166.496,#A88030,Oceanic,Te Motu,Solomons_East
Ata [ata],-5.667,151,#9F711B,Ata,,Papua New Guinea-Bismarcks
Atacameño [kuz],-23,-69,#8EBAD0,Atacameño,,Chile
Atadei [slp-3],-8.46,123.555,#BA9A59,Malayo-Polynesian,Bima-Lembata,Indonesia-NTT
Atakapa [aqp],30,-93,#B6D3E1,Atakapa,,USA
Atayal [tay],24.5,121,#A27622,Austronesian,Atayalic,Taiwan
Atchin [upv],-16,167.333,#B89652,Oceanic,Southern Oceanic,Vanuatu
Athpare [aph],26.75,87.33,#5496B7,Tibeto-Burman,Kiranti,Nepal
Atikamekw [atj],48,-74,#D8C6A0,Algic,Algonquian,Canada
Atong [aot],25.5,90.5,#1A6D9C,Tibeto-Burman,Brahmaputran,India
Atsugewi [atw],40.75,-121,#E2EBEC,Palaihnihan,,USA
Au [avt],-3.5,142.083,#B5924B,Torricelli,Central Torricelli,Papua New Guinea
Aujila [auj],29.23,21.18,#9A6B16,Afro-Asiatic,Berber,Libya
Aulua [aul],-16.33,167.694,#9F711B,Oceanic,Southern Oceanic,Vanuatu
Ausaimia [css-3],36.37,-121.15,#E4D8BE,Yok-Utian,Utian,USA
Avar [ava],42.54,46.7,#20729F,Nakh-Daghestanian,Avar-Andi,Russia
Awa [awb],-6.75,145.667,#2E7CA5,Trans New Guinea,Morobe-Eastern Highlands,Papua New Guinea
Awa Pit [kwi],0.75,-78.5,#106496,Barbacoan,Northern Barbacoan,Ecuador
Awabakal [awk],-33.05,151.55,#5D9CBB,Pama-Nyungan,Yuin-Kuri,Australia
Awad Bing [bcu],-5.584,146.349,#ECE4D3,Oceanic,Western Oceanic,Papua New Guinea
Awadhi [awa],27.5,81.5,#1A6D9C,Indo-European,Indo-Iranian,India
Awak [awo],9.86,11.33,#EDECE5,Niger-Kongo,Atlantic-Congo,Nigeria
Awar [aya],-4,144.625,#2777A2,Lower Sepik-Ramu,Ramu,Papua New Guinea
Awetí [awe],-12.926,-54.277,#E9E0CD,Tupian,Aweti,Brazil
Awiakay [afp],-4.672,143.712,#64A1BE,Arafundi,,Papua New Guinea
Awin [awi],-5.833,142.5,#156898,Trans New Guinea,Awin-Pa,Papua New Guinea
Awngi [awn],10.83,36.67,#20729F,Afro-Asiatic,Cushitic,Ethiopia
Awtuw [kmn],-3.5,141.917,#6DA6C2,Sepik,Ram,Papua New Guinea
Awyi [auw],-3,140.75,#3C86AC,Trans New Guinea,Border,Papua New Guinea
Ayautla Mazatec [vmy],18.1,-96.6,#814500,Otomanguean,Eastern Otomanguean,Mexico
Aymara [ayr],-16,-69.5,#458BB0,Aymaran,Aymara,Peru
Äynu [aib],38.069,76.227,#05568C,Turkic,Common Turkic,China
Ayoré [ayo],-20.5,-59.25,#CFB98B,Zamucoan,,Paraguay
Azerbaijani [azj],40.5,48.5,#05568C,Turkic,Common Turkic,Azerbaijan
Azeri [azb],40.67,47.75,#05568C,Turkic,Common Turkic,Azerbaijan
Baagandji [drl],-32,142.533,#7DB0C9,Pama-Nyungan,Yarli-Baagandji,Australia
Baarin [mon-2],43.53,118.67,#05568C,Mongolic,Core Mongolic,China
Babanki [bbk],6.104,10.311,#C9B07D,Niger-Kongo,Atlantic-Congo,Cameroon
Babungo [bav],6.12,10.42,#BA9A59,Niger-Kongo,Atlantic-Congo,Cameroon
Bachamal [wdj-2],-13.17,130.17,#EDECE5,Wagaydyic,Wadjiginy,Australia
Badimaya [bia],-27.667,119,#106496,Pama-Nyungan,Kardu,Australia
Badjala [xby],-25.084,152.529,#106496,Pama-Nyungan,Waka-Kabic,Australia
Bafia [ksf-2],4.73,11.1,#C4A86E,Niger-Kongo,Atlantic-Congo,Cameroon
Bafut [bfd],6.083,10.0999,#CFB98B,Niger-Kongo,Atlantic-Congo,Cameroon
Bagheli [bfy],24.35,81.43,#156898,Indo-European,Indo-Iranian,India
Bagirmi [bmi],10.202,17,#C9B07D,Nilo-Saharan,Central Sudanic,Chad
Bagri [bgq],29.6,74.3,#2E7CA5,Indo-European,Indo-Iranian,India
Bagulal [kva],42.56,46.17,#3581A9,Nakh-Daghestanian,Avar-Andi,Russia
Bahing [bhj],27.27,86.56,#4C90B3,Tibeto-Burman,Kiranti,Nepal
Bahnar [bdq],14,108.5,#C9B07D,Austroasiatic,Bahnaric,Vietnam
Bai [bca],26,100,#EAEDE9,Tibeto-Burman,Macro-Bai,China
Baima [bqh],30.32,107.34,#3C86AC,Tibeto-Burman,Bodic,China
Bajau_Semporna [ssb],4.5,118.5,#8A5201,Malayo-Polynesian,Barito,Indonesia-Kalimantan
Bajau_Sulawesi [bdl-2],-3.75,122.5,#874E01,Malayo-Polynesian,Barito,Indonesia-Sulawesi
Bajo_Kangean [bdl],-7.17,115.82,#874E01,Malayo-Polynesian,Barito,Indonesia-Kalimantan
Bajuni [swh-2],-1,42.04,#AC8536,Niger-Kongo,Atlantic-Congo,Somalia
Bakairí [bkq],-14,-55,#CEE0E9,Cariban,Pekodian,Brazil
Bakhtiari [ldd],31.92,50.86,#CEE0E9,Indo-European,Indo-Iranian,Iran
Balangao [blw],17.167,120.333,#A57B29,Malayo-Polynesian,Philippines,Philippines
Balanta [ble],12,-15,#A88030,Niger-Kongo,Atlantic-Congo,Guinea Bissau
Balantak [blz],-0.82,123.431,#B89652,Malayo-Polynesian,Celebic,Indonesia-Sulawesi
Balante_Sofa [bjt],12.54,-15.67,#A88030,Niger-Kongo,Atlantic-Congo,Guinea Bissau
Balawaia [snc-2],-9.98,147.865,#EDEAE0,Oceanic,Western Oceanic,Papua New Guinea
Balearic [cat-2],39.5,3,#EDEAE0,Indo-European,Romance,Spain
Bali-Vitu [wiv],-4.733,149.283,#905C06,Oceanic,Western Oceanic,Papua New Guinea-Bismarcks
Balinese [ban],-8.583,115.25,#AC8536,Malayo-Polynesian,Malayo-Sumbawan,Indonesia-NTB
Balochi [bgp-2],27,63.5,#2777A2,Indo-European,Indo-Iranian,Pakistan
Balochi_Turkmenistan [bgp-3],37.3,62.4,#5D9CBB,Indo-European,Indo-Iranian,Turkmenistan
Balti [bft],35.2,76,#024E87,Tibeto-Burman,Bodic,Pakistan
Baluchi [bgp],27.2,60.68,#3581A9,Indo-European,Indo-Iranian,Iran
Bambara [bam],12.5,-7.5,#9EC3D6,Mande,Western Mande,Mali
Banda [bnd],-5.25,133.17,#CDB583,Malayo-Polynesian,Central Maluku,Indonesia-Maluku-north
Bandjalang [bdy],-28.74,153.01,#1A6D9C,Pama-Nyungan,Yugambeh-Bundjalung,Australia
Bandjalang-Gidabal [bdy-2],-28.25,152,#2E7CA5,Pama-Nyungan,Yugambeh-Bundjalung,Australia
Banggai [bgz],-1.42,123.17,#905C06,Malayo-Polynesian,Celebic,Indonesia-Sulawesi
Banggime [dbb],14.78,-3.76,#CEE0E9,Banggime,,Mali
Baniwa_Central [bwi],1.4091,-68.1358,#DECFAF,Arawak,Northern Maipuran,Brazil
Baniwa_do_Içana [bwi-2],2.18,-67.77,#E7DCC5,Arawak,Northern Maipuran,Brazil
Banjar [bjn],0.75,115.79,#B28E44,Malayo-Polynesian,Malayo-Sumbawan,Indonesia-Kalimantan
Bankariya [cdm-2],27.5,85,#156898,Tibeto-Burman,Chepang,Nepal
Banoni [bcm],-6.417,155.25,#B5924B,Oceanic,Western Oceanic,Papua New Guinea-Bougainville
Bantawa [bap],27.2,87.1,#3581A9,Tibeto-Burman,Kiranti,Nepal
Bantik [bnq],1.564,124.859,#CFB98B,Malayo-Polynesian,Philippines,Indonesia-Sulawesi
Baoan [peh],35.05,102.1,#075A8F,Mongolic,Core Mongolic,China
Barai [bbb],-9.417,148,#85B5CC,Southeast Papuan,Owen Stanley Ranges,Papua New Guinea
Barain_Jalkiya [bva],12.18,18.68,#E9E0CD,Afro-Asiatic,Chadic,Chad
Baram [brd],27.95,85,#0B5F92,Tibeto-Burman,Western Himalayan,Nepal
Barang-barang [lji],-6.4,120.5,#8A5201,Malayo-Polynesian,Celebic,Indonesia-Sulawesi
Barasano [bsn],-0.25,-70.75,#5D9CBB,Tucanoan,East Tucanoan,Colombia
Bardi [bcj],-16.58,122.92,#EDEAE0,Nyulnyul,West Nyulnyul,Australia
Baré [bae],1.6,-66.8,#DECFAF,Arawak,Northern Maipuran,Venezuela
Bargam [mlp],-4.87,145.76,#CEE0E9,Trans New Guinea,Madang,Papua New Guinea
Bari [bfa],3.8,31,#CFB98B,Nilo-Saharan,Eastern Sudanic,South Sudan
Barí [mot],9,-73.5,#CEE0E9,Chibchan,Core Chibchan,Venezuela
Bariai [bch],-5.497,148.63,#B5924B,Oceanic,Western Oceanic,Papua New Guinea
Barok [bjk],-3.48,152.19,#A88030,Oceanic,Western Oceanic,Papua New Guinea-Bismarcks
Baruga [bjz],-9.328,148.734,#458BB0,Trans New Guinea,Oro-Wharton,Papua New Guinea
Barupu [wra],-3.083,142.083,#B28E44,Skou,Eastern Skou,Papua New Guinea
Baruya [byr],-6.917,145.833,#458BB0,Trans New Guinea,Morobe-Eastern Highlands,Papua New Guinea
Basà [bzw],8.03,7.06,#BA9A59,Niger-Kongo,Atlantic-Congo,Nigeria
Basaa [bas],5,10.15,#A57B29,Niger-Kongo,Atlantic-Congo,Cameroon
Basari [bsc],12.25,-13,#A27622,Niger-Kongo,Atlantic-Congo,Senegal
Bashkir [bak],53,58,#1A6D9C,Turkic,Common Turkic,Russia
Basketo [bst],6.384,36.651,#A5C9D9,Afro-Asiatic,Omotic,Ethiopia
Basque [eus],42.82,-1.95,#6DA6C2,Basque,,Spain
Basque_Lekeitio [eus-2],43.365,-2.51,#458BB0,Basque,,Spain
Basque_Navarro [bqe],43.17,-1.24,#64A1BE,Basque,,France
Batak_Karo [btx],3,98.167,#A57B29,Malayo-Polynesian,Batak-Barrier Islands,Indonesia-Sumatra
Bati [btc],4.26,11.06,#AC8536,Niger-Kongo,Atlantic-Congo,Cameroon
Batuley [bay],-5.8,134.75,#A88030,Malayo-Polynesian,Southeast Maluku,Indonesia-Maluku-south
Baule [bci],7.5,-5,#E7DCC5,Niger-Kongo,Atlantic-Congo,Côte d'Ivoire
Baure [brg],-15,-64,#AC8536,Arawak,Southern Maipuran,Bolivia
Bauzi [bvz],-2.5,137.667,#2E7CA5,Geelvink Bay,,Indonesia-Papua
Bawm [bgr],22.5,92.25,#9EC3D6,Tibeto-Burman,Kuki-Chin-Naga,India
Bayso [bsw],6.28,37.76,#6DA6C2,Afro-Asiatic,Cushitic,Somalia
Begak [dbj],5.25,118.833,#BE9F60,Malayo-Polynesian,North Borneo,Malaysia-Borneo
Beihai [yue-6],21.47,109.1,#E7DCC5,Tibeto-Burman,Sinitic,China
Beja [bej],18,36,#7DB0C9,Afro-Asiatic,Cushitic,Sudan
Belarussian [bel],54,27,#AECEDD,Indo-European,Balto-Slavic,Belarus
Belep [yly],-19.75,163.67,#94610A,Oceanic,Southern Oceanic,New Caledonia
Belhare [byw],27,87.25,#458BB0,Tibeto-Burman,Kiranti,Nepal
Bella Coola [blc],52.5,-126.67,#9F711B,Salish,Bella Coola,Canada
Bemba [bem],-11,31,#B28E44,Niger-Kongo,Atlantic-Congo,Zambia
Bembe [bmb],-4,14,#A88030,Niger-Kongo,Atlantic-Congo,Democratic Republic of the Congo
Bena [bez],-9.27,35.04,#9A6B16,Niger-Kongo,Atlantic-Congo,Tanzania
Bena-Bena [bef],-6.114,145.567,#3581A9,Trans New Guinea,Morobe-Eastern Highlands,Papua New Guinea
Bende [bdp],-6,30.5,#A27622,Niger-Kongo,Atlantic-Congo,Tanzania
Beng [nhb],7.83,-4.25,#EDEAE0,Mande,Eastern Mande,Côte d'Ivoire
Bengali [ben],22.5,90,#20729F,Indo-European,Indo-Iranian,Bangladesh
Beothuk [bue],48,-55,#A5C9D9,Beothuk,,Canada
Bergensk [nno],60.39,5.33,#DCE8ED,Indo-European,Germanic,Norway
Berik [bkl],-2.25,138.92,#6DA6C2,Tor-Kwerba,Orya-Tor,Indonesia-Papua
Berom [bom-2],9.67,8.81,#C1A467,Niger-Kongo,Atlantic-Congo,Nigeria
Berta [wti],10.67,34.5,#E2D4B7,Nilo-Saharan,Berta,Ethiopia
Besemah [pse],-4.2,103,#AF893D,Malayo-Polynesian,Malayo-Sumbawan,Indonesia-Sumatra
Betawi [bew],-6.21,107.02,#C7AC75,Malayo-Polynesian,Malayo-Sumbawan,Indonesia-Java
Betta Kurumba [xub],11.58,76.55,#0B5F92,Dravidian,South Dravidian,India
Bezhta [kap],42.133,46.128,#20729F,Nakh-Daghestanian,Tsezic,Russia
Bhili [bhb],22,73,#2E7CA5,Indo-European,Indo-Iranian,India
Bhojpuri [bho],26.8,85.3,#2777A2,Indo-European,Indo-Iranian,India
Bhumij [muw],21.333,86.5,#5496B7,Austroasiatic,Munda,India
Biafada [bif],11.47,-15.13,#BA9A59,Niger-Kongo,Atlantic-Congo,Guinea Bissau
Biak [bhw],-1.14,136,#BA9A59,Malayo-Polynesian,Eastern Malayo-Polynesian,Indonesia-Papua
Biaka [axk-2],3.65,17.27,#B5924B,Niger-Kongo,Atlantic-Congo,Congo
Biaomin Yao [bmt],23.6,111.75,#E2D4B7,Hmong-Mien,Mienic,China
Bidjara [bym],-24.5,146.592,#20729F,Pama-Nyungan,Greater Maric,Australia
Bih [rad],12.48,108.025,#C1A467,Malayo-Polynesian,Malayo-Sumbawan,Vietnam
Bijago [bjg],11.28,-15.83,#A57B29,Niger-Kongo,Atlantic-Congo,Guinea Bissau
Bikol [bcl],13.333,123.5,#AF893D,Malayo-Polynesian,Philippines,Philippines
Biksi [yet],-4.013,140.494,#75ABC5,Yetfa-Biksi,,Papua New Guinea
Bilin [byn],15.9,38.3,#95BED3,Afro-Asiatic,Cushitic,Eritrea
Bilinara [nbj],-16,131.667,#7DB0C9,Pama-Nyungan,Ngumbin-Yapa,Australia
Biloxi [bll],32.25,-90,#AECEDD,Siouan,Western Siouan,USA
Bilua [blb],-7.75,156.667,#C9B07D,Solomons East Papuan,,Solomons
Bima [bhp],-8.545,118.677,#BA9A59,Malayo-Polynesian,Bima-Lembata,Indonesia-NTB
Bimin [bhl],-5.43,141.942,#CEE0E9,Trans New Guinea,Ok-Oksapmin,Papua New Guinea
Bina [bmn],-10.249,149.683,#EDEAE0,Oceanic,Western Oceanic,Papua New Guinea
Binandere [bhg],-8.167,147.917,#2E7CA5,Trans New Guinea,Oro-Wharton,Papua New Guinea
Bini_Edo [bin],6.42,5.83,#BE9F60,Niger-Kongo,Atlantic-Congo,Nigeria
Binigura [pnv],-22.488,116.506,#20729F,Pama-Nyungan,Kanyara-Mantharta,Australia
Bininj Gun-Wok [gup],-12.5,133.75,#AF893D,Macro-Gunwinygu,Gunwingyuan proper,Australia
Biri [bzr],-20.5,146.5,#3C86AC,Pama-Nyungan,Greater Maric,Australia
Birom [bom],9.67,8.83,#BA9A59,Niger-Kongo,Atlantic-Congo,Nigeria
Bisu [bii],19.75,100,#A5C9D9,Tibeto-Burman,Lolo-Burmese,Thailand
Bjokapakha [tsj-3],26.965,91.05,#035289,Tibeto-Burman,Bodic,Bhutan
Blackfoot [bla],50,-112.67,#C7AC75,Algic,Algonquian,Canada
Blang [blr],23.3,100,#C7AC75,Austroasiatic,Khasi-Palaung,China
Boazi [kvg],-7,141.25,#D5E4EB,Anim,Boazi,Papua New Guinea
Bobangi [bni],0,17.8,#97660F,Niger-Kongo,Atlantic-Congo,Democratic Republic of the Congo
Bobongko [bgb],-0.5,121.75,#BE9F60,Malayo-Polynesian,Celebic,Indonesia-Sulawesi
Bohutu [bxh],-10.5,150.33,#D5C199,Oceanic,Western Oceanic,Papua New Guinea
Bokala [lin-2],4.57,19.02,#AF893D,Niger-Kongo,Atlantic-Congo,Democratic Republic of the Congo
Bokar [adi-2],29,94.35,#20729F,Tibeto-Burman,Macro-Tani,India
Bokyi [bky],6.1,9.06,#C9B07D,Niger-Kongo,Atlantic-Congo,Nigeria
Bola [bnp],-5.5,150,#A88030,Oceanic,Western Oceanic,Papua New Guinea-Bismarcks
Bolgo_Dugag [bvo],10.79,18.61,#EDEAE0,Niger-Kongo,Atlantic-Congo,Chad
Bongo [bot],7.5,28,#BA9A59,Nilo-Saharan,Central Sudanic,South Sudan
Bonifacino [lij-3],41.39,9.16,#E4D8BE,Indo-European,Romance,France
Bontok [bnc],17.083,120.917,#AF893D,Malayo-Polynesian,Philippines,Philippines
Bora [boa],-2.25,-71.75,#AECEDD,Boran,Bora,Peru
Bori [adi-5],28.2,94.6,#156898,Tibeto-Burman,Macro-Tani,India
Bornholmsk [scy],55,15,#EDECE5,Indo-European,Germanic,Denmark
Boro [brx],26.75,92,#0B5F92,Tibeto-Burman,Brahmaputran,India
Boro-Shinasha [bwo],10.66,35.34,#3C86AC,Afro-Asiatic,Omotic,Ethiopia
Borong Kosorong [ksr],-6.534,147.502,#7DB0C9,Trans New Guinea,Morobe-Eastern Highlands,Papua New Guinea
Boróro [bor],-15,-52,#EDECE5,Macro-Je,Bororo,Brazil
Boruca [brn],9.001,-83.325,#75ABC5,Chibchan,Core Chibchan,Costa Rica
Bosnian [bos],44,18,#BDD7E3,Indo-European,Balto-Slavic,Bosnia
Bouyei [pcc-5],25.817,107.55,#C4A86E,Tai-Kadai,Kam-Tai,China
Bouyei_west [pcc-2],25.75,107.333,#C4A86E,Tai-Kadai,Kam-Tai,China
Brag-g.yab [khg-2],30.65,97.55,#024E87,Tibeto-Burman,Bodic,China
Brahui [brh],29,67,#3581A9,Dravidian,North Dravidian,Pakistan
Brajbhasha [bra],27.49,77.67,#1A6D9C,Indo-European,Indo-Iranian,India
Brao [brb],14,107.001,#BA9A59,Austroasiatic,Bahnaric,Cambodia
Breton [bre],47.65,-2.75,#BE9F60,Indo-European,Celtic,France
Bribri [bzd],9.5,-83,#64A1BE,Chibchan,Core Chibchan,Costa Rica
Brokpa [sgt],27.33,92,#05568C,Tibeto-Burman,Bodic,Bhutan
Bruu [bru],17.167,104.333,#B89652,Austroasiatic,Katuic,Thailand
Buduma [bdm],13.6,14,#AF893D,Afro-Asiatic,Chadic,Chad
Bugan [bbh],23.75,105,#C7AC75,Austroasiatic,Mangic,China
Bugan_Nala [bbh-2],23.487,105.15,#C9B07D,Austroasiatic,Mangic,China
Bugis [bug],-4,120,#8D5704,Malayo-Polynesian,Greater South Sulawesi,Indonesia-Sulawesi
Bugun [bgn],27.3,92.35,#106496,Tibeto-Burman,Kho-Bwa,India
Buin [buo],-6.75,155.833,#8EBAD0,South Bougainville,Buin,Papua New Guinea-Bougainville
Bukit [bvu],-2.75,115.64,#A88030,Malayo-Polynesian,Malayo-Sumbawan,Indonesia-Kalimantan
Bukiyip_Arapesh [ape],-3.667,142.5,#B5924B,Torricelli,Kombio-Arapesh,Papua New Guinea
Bularnu [yil],-21.5,137.5,#4C90B3,Pama-Nyungan,Warluwaric,Australia
Bulgarian [bul],43,25,#DCE8ED,Indo-European,Balto-Slavic,Bulgaria
Buli [bzq],0.833,128.5,#B5924B,Malayo-Polynesian,Eastern Malayo-Polynesian,Indonesia-Maluku-north
Buma [tkw-2],-11.615,166.966,#E7DCC5,Oceanic,Te Motu,Solomons_East
Buma [yns-2],-3.33,17.5,#A88030,Niger-Kongo,Atlantic-Congo,Democratic Republic of the Congo
Bumang [bvp],22.5,96.5,#D5C199,Austroasiatic,Khasi-Palaung,Laos
Bumbita_Arapesh [aon],-3.667,142.833,#A88030,Torricelli,Kombio-Arapesh,Papua New Guinea
Bumthang [kjz],27.802,90.8,#0B5F92,Tibeto-Burman,Bodic,Bhutan
Bumthang_Ura [kjz-2],27.48,90.905,#0B5F92,Tibeto-Burman,Bodic,Bhutan
Bunan [bfu],32.61,76.91,#1A6D9C,Tibeto-Burman,Western Himalayan,India
Bunaq [bfn],-9.1,125.15,#E9E0CD,Timor-Alor-Pantar,Mainland Timor-Alor-Pantar,Indonesia-NTT
Bundeli [bns],23.18,79.95,#106496,Indo-European,Indo-Iranian,India
Bungku [bkz],-3,122.33,#9A6B16,Malayo-Polynesian,Celebic,Indonesia-Sulawesi
Bungu [wun],-8.33,32.88,#B28E44,Niger-Kongo,Atlantic-Congo,Tanzania
Bunong [cmo],12.63,107.3,#BE9F60,Austroasiatic,Bahnaric,Cambodia
Bunuba [bck],-17.75,125.75,#DCE8ED,Bunuban,,Australia
Bunun [bnn],23.5,121,#9A6B16,Austronesian,Bunun,Taiwan
Burarra [bvr],-12.25,134.667,#EDEAE0,Macro-Gunwinygu,Maningrida,Australia
Burmese [mya],20,96,#3C86AC,Tibeto-Burman,Lolo-Burmese,Myanmar
Burmese_Myeik [tvn],12.43,98.6,#3581A9,Tibeto-Burman,Lolo-Burmese,Myanmar
Burmeso [bzu],-2.447,138.209,#D5E4EB,Burmeso,,Indonesia-Papua
Buru [mhs],-3.7,126.4,#DCCBA7,Malayo-Polynesian,Central Maluku,Indonesia-Maluku-north
Burushaski [bsk],36.5,74.5,#5D9CBB,Burushaski,,Pakistan
Buryat [bxm],52,108,#035289,Mongolic,Core Mongolic,Russia
Busa [bqp],9.67,4,#AECEDD,Mande,Eastern Mande,Nigeria
Bushong [buf],-4.67,21.3,#97660F,Niger-Kongo,Atlantic-Congo,Democratic Republic of the Congo
Busoa [bup],-5.62,122.616,#A27622,Malayo-Polynesian,Celebic,Indonesia-Sulawesi
Buwal [bhs],10.5,13.86,#C9B07D,Afro-Asiatic,Chadic,Cameroon
Buyang [yha],24,104.8,#CFB98B,Tai-Kadai,Kadaic,China
Buyi_Hezhang [pcc-3],27.12,104.73,#DCCBA7,Tai-Kadai,Kam-Tai,China
Buyuan_Jino [jiy],22.05,101,#5496B7,Tibeto-Burman,Lolo-Burmese,China
Byansi [bee],30.17,80.5,#2777A2,Tibeto-Burman,Western Himalayan,India
C'lela [dri],11.47,5.27,#C7AC75,Niger-Kongo,Atlantic-Congo,Nigeria
Cabecar [cjp],9.91,-83.68,#7DB0C9,Chibchan,Core Chibchan,Costa Rica
Cabiyarí [cbb],-0.1302,-70.6927,#D5C199,Arawak,Northern Maipuran,Colombia
Caddo [cad],33.33,-93.5,#EDE7DA,Caddoan,Caddo,USA
Cahuilla [chl],33.75,-117.75,#A5C9D9,Uto-Aztecan,North Uto-Aztecan,USA
Cak [ckh],21.41,92.6,#5496B7,Tibeto-Burman,Brahmaputran,Bangladesh
Cakchiquel [ckf],14.5,-91,#AC8536,Mayan,Core Mayan,Guatemala
Camling [rab],27.3,86.8,#5496B7,Tibeto-Burman,Kiranti,Nepal
Campa [cni],-12,-74,#DECFAF,Arawak,Southern Maipuran,Peru
Camsá [kbh],1,-77,#EDE7DA,Camsá,,Colombia
Candoshi [cbu],-4.17,-77,#458BB0,Candoshi,,Peru
Canela-Krahô [ram],-6.5,-45,#E2EBEC,Macro-Je,Je,Brazil
Canichana [caz],-14.31,-64.94,#CDB583,Canichana-Tequiraca,,Bolivia
Cantonese [yue],22.333,114,#EDECE5,Tibeto-Burman,Sinitic,Hong Kong
Capanahua [kaq],-7,-74,#3581A9,Panoan,Southern Panoan,Peru
Cappadocian [cpg],38.66,34.85,#75ABC5,Indo-European,Graeco-Phrygian,Turkey
Car [caq],9.167,92.75,#C1A467,Austroasiatic,Nicobar,India_Andaman-Nicobars
Carapana [cbc],0.45,-71,#3581A9,Tucanoan,East Tucanoan,Colombia
Carib [car],7.85,-59,#D5E4EB,Cariban,Guianan Carib,Guyana
Carijona [cbd],0.148,-70.708,#E6ECEC,Cariban,Guianan Carib,Colombia
Carolinian [cal],15,146,#B28E44,Oceanic,Micronesian,USA Northern Mariana Islands
Cashibo-Cacataibo [cbr],-9.1,-75.5,#458BB0,Panoan,Southern Panoan,Peru
Cashinahua [cbs],-10.5,-71.75,#3C86AC,Panoan,Southern Panoan,Peru
Catalan [cat],41.4,2.02,#EDEAE0,Indo-European,Romance,Spain
Catawba [chc],34,-81,#DCCBA7,Siouan,Eastern Siouan,USA
Cavineña [cav],-12.25,-67.5,#5D9CBB,Tacanan,Cavineña,Bolivia
Cayapa [cbi],1.2,-78.75,#106496,Barbacoan,Southern Barbacoan,Ecuador
Cayuga [cay],42.75,-76.75,#C9B07D,Iroquoian,Northern Iroquoian,USA
Cayuvava [cyb],-12.5,-67,#A57B29,Cayuvava,,Bolivia
Cebuano [ceb],10,124,#AC8536,Malayo-Polynesian,Philippines,Philippines
Cemuhi [cam],-20.833,165,#8D5704,Oceanic,Southern Oceanic,New Caledonia
Central Banda [tor],6.64,22.76,#E2D4B7,Ubangian,Bandaic,Central African Republic
Ch'ol [cti],17.49,-92.47,#94610A,Mayan,Core Mayan,Mexico
Chacobo [cao],-12.25,-65,#75ABC5,Panoan,Southern Panoan,Bolivia
Chadong [cdy],25.2,110.2,#E2D4B7,Tai-Kadai,Kam-Tai,China
Chaga-Vunjo [wun-2],-3.43,37.58,#AF893D,Niger-Kongo,Atlantic-Congo,Kenya
Chaha [sgw],8.2,38,#EAEDE9,Afro-Asiatic,Semitic,Ethiopia
Chakali [cli],9.83,-1.9,#E7DCC5,Niger-Kongo,Atlantic-Congo,Ghana
Chakma [ccp],22.9,92.23,#3581A9,Indo-European,Indo-Iranian,Bangladesh
Cham_Eastern [cjm],10.93,108.1,#D2BD92,Malayo-Polynesian,Malayo-Sumbawan,Vietnam
Cham_Western [cja],12,105.5,#C7AC75,Malayo-Polynesian,Malayo-Sumbawan,Cambodia
Chambri [can],-4.167,143.083,#EDE7DA,Lower Sepik-Ramu,Lower Sepik,Papua New Guinea
Chamicuro [ccc],-5.114,-75.736,#C9B07D,Arawak,Western Maipuran,Peru
Chamorro [cha],13.583,145,#94610A,Malayo-Polynesian,Chamorro,USA Federated States of Micronesia Guam
Changpaoyao [bmt-2],25.417,107.88,#C9B07D,Hmong-Mien,Mienic,China
Changsha [hsn],28,113,#9EC3D6,Tibeto-Burman,Sinitic,China
Chantyal [chx],28.75,83.5,#013E7D,Tibeto-Burman,Bodic,Nepal
Chara [cra],6.64,36.42,#156898,Afro-Asiatic,Omotic,Ethiopia
Chatino [ctp],16.5,-97.25,#9F711B,Otomanguean,Eastern Otomanguean,Mexico
Chatino_Tataltepec [cta],16.3,-97.55,#A88030,Otomanguean,Eastern Otomanguean,Mexico
Chattisgarhi [hne],21.25,81.25,#5496B7,Indo-European,Indo-Iranian,India
Chaudangsi [cdn],29.7,80.48,#106496,Tibeto-Burman,Western Himalayan,India
Chechen [che],43.13,45.54,#1A6D9C,Nakh-Daghestanian,Nakh,Russia
Cheke_Holo_Maringe [mrn],-8.5,159.67,#A57B29,Oceanic,Western Oceanic,Solomons
Chemehuevi [ute],34.33,-115.17,#7DB0C9,Uto-Aztecan,Numic,USA
Chen [nbe-2],26.58,95.1,#106496,Tibeto-Burman,Brahmaputran,India
Chenchu [cde],15.88,79.25,#2E7CA5,Dravidian,South-Central Dravidian,India
Chengdu [cmn-14],30.6,104.1,#E6ECEC,Tibeto-Burman,Sinitic,China
Chepang [cdm],28.05,83.92,#2E7CA5,Tibeto-Burman,Chepang,Nepal
Cherokee [chr],35.5,-83.5,#EDEAE0,Iroquoian,Southern Iroquoian,USA
Cheyenne [chy],43.5,-104,#E9E0CD,Algic,Algonquian,USA
Chichewa [nya-2],-14.8,32.81,#A27622,Niger-Kongo,Atlantic-Congo,Malawi
Chichimec [pei],24.87,-103.7,#E2D4B7,Otomanguean,Western Otomanguean,Mexico
Chickasaw [cic],34,-88,#CEE0E9,Muskogean,Western Muskogean,USA
ChiKunda [kdn],-15.73,30.28,#B28E44,Niger-Kongo,Atlantic-Congo,Mozambique
Chimariko [cid],41,-123,#EDECE5,Chimariko,,USA
Chimila [cbg],10.75,-73,#D5E4EB,Chibchan,Core Chibchan,Colombia
Chimwiini [swh-4],1.1,43,#AC8536,Niger-Kongo,Atlantic-Congo,Somalia
Chin_Daai [dao],21.1,93.65,#AECEDD,Tibeto-Burman,Kuki-Chin-Naga,Myanmar
Chin_Falam [cfm],22.9,93.67,#6DA6C2,Tibeto-Burman,Kuki-Chin-Naga,Myanmar
Chin_Tiddim [ctd],23.333,93.667,#BDD7E3,Tibeto-Burman,Kuki-Chin-Naga,Myanmar
Chinantec_Comaltepec [cco],17.57,-96.55,#753200,Otomanguean,Western Otomanguean,Mexico
Chinantec_Lealao [cle],17.32,-95.93,#783700,Otomanguean,Western Otomanguean,Mexico
Chinantec_Palantla [cpa],17.83,-96.39,#8A5201,Otomanguean,Western Otomanguean,Mexico
Chinantec_Sochiapam [cso],17.825,-96.67,#A27622,Otomanguean,Western Otomanguean,Mexico
Chindamba [ndj],-8.4,36.03,#AF893D,Niger-Kongo,Atlantic-Congo,Tanzania
Chinook [chh],46,-124,#97660F,Chinook,Lower Chinook,USA
Chinsenga [nse],-15.39,31.35,#A88030,Niger-Kongo,Atlantic-Congo,Mozambique
Chintang [ctn],26.96,87.19,#4C90B3,Tibeto-Burman,Kiranti,Nepal
ChiNyanja [nya],-15,35,#AC8536,Niger-Kongo,Atlantic-Congo,Malawi
Chipaya [cap],-19,-68,#6DA6C2,Uru-Chipaya,,Bolivia
Chiquimulilla [xin-2],14.08,-90.38,#9F711B,Xinca,,Guatemala
Chiquitano [cax],-17.5,-62,#D8C6A0,Chiquitano,,Bolivia
Chiricahua [apm],33.5,-108,#EDE7DA,Dene-Yeniseic,Na-Dene,USA
Chitimacha [ctm],29.67,-91,#5D9CBB,Totozoquean-Chitimacha,Chitimacha,USA
Chitoniya_Tharu [the],27.58,84.41,#3C86AC,Indo-European,Indo-Iranian,Nepal
Chittagong [ben-2],22.37,91.8,#156898,Indo-European,Indo-Iranian,Bangladesh
Chöcangacakha [cgk],27.53,91.14,#0B5F92,Tibeto-Burman,Bodic,Bhutan
Chocho [coz],17.67,-97.33,#874E01,Otomanguean,Eastern Otomanguean,Mexico
Choctaw [cho],32.25,-88.5,#AECEDD,Muskogean,Western Muskogean,USA
Chokwe [cjk],-9.702,22.876,#9A6B16,Niger-Kongo,Atlantic-Congo,Democratic Republic of the Congo
Cholon [cht],-8,-77.5,#C6DCE7,Cholon,,Peru
Chongyang [gan-3],29.55,114.17,#EAEDE9,Tibeto-Burman,Sinitic,China
Chontal [chd],18.17,-92.58,#B5924B,Mayan,Core Mayan,Mexico
Chontal [clo],16.3,-95.5,#8A5201,Tequistlatecan,,Mexico
Chrau [crw],10.667,107.5,#CFB98B,Austroasiatic,Bahnaric,Vietnam
Chuave [cjv],-6.168,145.119,#85B5CC,Trans New Guinea,Chimbu-Wahgi,Papua New Guinea
Chuj [cac],16,-91.5,#94610A,Mayan,Core Mayan,Mexico
Chukchi [ckt],67,-173,#9EC3D6,Chukotko-Kamchatkan,Main Chukotko-Kamchatkan,Russia
Chumash [boi],34.5,-120.25,#AC8536,Chumashan,South Chumashan,USA
Chumash_Ineseño [inz],34.61,-120.09,#9F711B,Chumashan,South Chumashan,USA
Chumburung [ncu],8.15,-0.28,#DECFAF,Niger-Kongo,Atlantic-Congo,Ghana
Chuukese [chk],7.333,151.75,#C1A467,Oceanic,Micronesian,USA Federated States of Micronesia
Chuvash [chv],55.5,47.5,#075A8F,Turkic,Oghur,Russia
Chuwabu [chw],-17.36,37.1,#A88030,Niger-Kongo,Atlantic-Congo,Mozambique
Cicipu [awc],10.911,5.703,#94610A,Niger-Kongo,Atlantic-Congo,Nigeria
CiLuba [lua],-6,22,#8A5201,Niger-Kongo,Atlantic-Congo,Democratic Republic of the Congo
Cimbrian [cim],45.62,11.13,#EAEDE9,Indo-European,Germanic,Italy
Cisuundi [sdj],-5.56,12.19,#AC8536,Niger-Kongo,Atlantic-Congo,Angola
Coahuilteco [xcw],28,-100,#AECEDD,Pakawan,,USA
Coast Yuki [yuk-3],39.53,-123.76,#7DB0C9,Wappo-Yukian,North Wappo-Yukian,USA
Cocama-Cocamilla [cod],-5,-74.3,#D5E4EB,Tupian,Tupi-Guarani,Peru
Cocopa [coc],32.5,-115,#AECEDD,Yuman-Cochimi,Yuman,USA
Coeur d'Alene [crd],47.33,-117,#AC8536,Salish,Interior Salish,USA
Cofan [con],0.25,-77,#5496B7,Kofan,,Ecuador
Cogtse Gyarong [jya],32.1,100.6,#8EBAD0,Tibeto-Burman,Na-Qiangic,China
Col [liw],-3.3,102.86,#BA9A59,Malayo-Polynesian,Malayo-Sumbawan,Indonesia-Sumatra
Colac [xxx-41],-38.33,143.5,#DCE8ED,Pama-Nyungan,Kulinic,Australia
Comanche [com],33.5,-101.5,#5496B7,Uto-Aztecan,Numic,USA
Comox [coo],49.75,-125,#B28E44,Salish,Coastal Salish,Canada
Coos [csz],43.5,-124.17,#CDB583,Coos,,USA
Cora [crn],23.333,-99,#C9B07D,Uto-Aztecan,Corachol,Mexico
Cornish [cor],50.5,-4.5,#DCCBA7,Indo-European,Celtic,Britain
Corsican [cos],42.1,9.5,#E9E0CD,Indo-European,Romance,France
Cosao [xxx-24],21.62,101.567,#6DA6C2,Tibeto-Burman,Lolo-Burmese,China
Cree_Plains [crk],54,-116,#C7AC75,Algic,Algonquian,Canada
Cree_Woods [cwd],57.5,-100.5,#C9B07D,Algic,Algonquian,Canada
Creek [mus],30.41,-85.2,#D5E4EB,Muskogean,Creek,USA
Crimean Tatar [crh-2],45.58,34.1,#075A8F,Turkic,Common Turkic,Ukraine
Croatian [hrv],45.5,17.3,#B6D3E1,Indo-European,Balto-Slavic,Croatia
Cross_River_Mbembe [mfn],6.17,8.24,#D2BD92,Niger-Kongo,Atlantic-Congo,Nigeria
Crow [cro],45.5,-108,#EDE7DA,Siouan,Western Siouan,USA
Cua [cua],15.167,108.667,#CDB583,Austroasiatic,Bahnaric,Vietnam
Cubeo [cub],1.33,-70.5,#B6D3E1,Tucanoan,Central Tucanoan,Colombia
Cuiba [cui],6.5,-70.5,#C1A467,Guahiban,Central Guahiban,Colombia
Cupeño [cup],33.17,-116.5,#5496B7,Uto-Aztecan,North Uto-Aztecan,USA
Cuquila Mixtec [mie],17.2,-97.755,#94610A,Otomanguean,Eastern Otomanguean,Mexico
Cuvok [cuv],10.7,14,#B89652,Afro-Asiatic,Chadic,Cameroon
Cuwabo [chw-2],-17.32,37.14,#A27622,Niger-Kongo,Atlantic-Congo,Mozambique
Czech [ces],50,14.5,#AECEDD,Indo-European,Balto-Slavic,Czech Republic
Daakaka [bpa],-16.269,167.964,#B89652,Oceanic,Southern Oceanic,Vanuatu
Daakie [ptv],-16.32,168.04,#C4A86E,Oceanic,Southern Oceanic,Vanuatu
Daats'íin [dtn],12.6,35.8,#CDB583,Nilo-Saharan,Gumuz,Ethiopia
Dadibi [mps],-6.55,144.58,#106496,Papuan Gulf,Tua River,Papua New Guinea
Dadua [gal-2],-8.35,125.838,#BA9A59,Malayo-Polynesian,Southeast Maluku,Timor leste
Daga [dgz],-10,149.25,#B6D3E1,Southeast Papuan,Dagan,Papua New Guinea
Dagaare [dga],11.5,-2.5,#ECE4D3,Niger-Kongo,Atlantic-Congo,Burkina Faso
Dagbani [dag],9.58,-0.5,#E9E0CD,Niger-Kongo,Atlantic-Congo,Ghana
Dagur [dta],48,124,#1A6D9C,Mongolic,Core Mongolic,China
Dahalik [dlk],15.75,40.25,#E9E0CD,Afro-Asiatic,Semitic,Eritrea
Dahalo [dal],-2.217,40.483,#EDECE5,Afro-Asiatic,Cushitic,Kenya
Dai_Jinping [khb-2],22.78,103.225,#E7DCC5,Tai-Kadai,Kam-Tai,China
Dakpa [dka],27.38,91.5,#0B5F92,Tibeto-Burman,Bodic,Bhutan
Dalabon [ngk],-14.25,134,#E4D8BE,Macro-Gunwinygu,Gunwingyuan proper,Australia
Dalian [cmn-4],38.91,121.61,#EDE7DA,Tibeto-Burman,Sinitic,China
Dalmatian [dlm],43.51,16.44,#E4D8BE,Indo-European,Romance,Croatia
Damal [uhn],-4,137.5,#5496B7,Trans New Guinea,Western Trans New Guinea,Indonesia-Papua
Damana [mbp],10.9,-73.6,#95BED3,Chibchan,Core Chibchan,Colombia
Damar_West [drn],-7,128.5,#B89652,Malayo-Polynesian,Southeast Maluku,Indonesia-Maluku-south
Dameli [dml],35.375,71.693,#2E7CA5,Indo-European,Indo-Iranian,Pakistan
Dami [dad],-5.315,145.613,#CEE0E9,Oceanic,Western Oceanic,Papua New Guinea
Damin [xxx-7],-16.4,139.35,#75ABC5,Tangkic,Lardil,Australia
Dampelas [dms],0.2,120,#9A6B16,Malayo-Polynesian,Celebic,Indonesia-Sulawesi
Dan [dnj],7.5,-8,#BDD7E3,Mande,Eastern Mande,Côte d'Ivoire
Danau [dnu],22.333,99.333,#D2BD92,Austroasiatic,Khasi-Palaung,Myanmar
Danggaura_Tharu [thl],28.1,82.3,#3C86AC,Indo-European,Indo-Iranian,Nepal
Dani [dni],-4,138.917,#75ABC5,Trans New Guinea,Western Trans New Guinea,Indonesia-Papua
Danish [dan],56,10,#E2EBEC,Indo-European,Germanic,Denmark
Danzhou_Baima [vvv],19.71,109.275,#E7DCC5,Tibeto-Burman,Sinitic,China
Dapeng [hak-3],22.6,114.51,#EDECE5,Tibeto-Burman,Sinitic,China
Darai [dry],27.85,84.1,#458BB0,Indo-European,Indo-Iranian,Nepal
Darfur Arabic [apd-3],13,25,#AC8536,Afro-Asiatic,Semitic,Sudan
Dargwa [dar],42.15,47.4,#3581A9,Nakh-Daghestanian,Lak-Dargwa,Russia
Dargwa_Icari [dar-3],41.997,47.583,#2777A2,Nakh-Daghestanian,Lak-Dargwa,Russia
Dargwa_Sanzhi [dar-4],41.978,47.565,#458BB0,Nakh-Daghestanian,Lak-Dargwa,Russia
Dari [prs],31.04,67.36,#E2EBEC,Indo-European,Indo-Iranian,Afghanistan
Darkhat [drh],50.62,99.44,#075A8F,Mongolic,Core Mongolic,Russia
Darkinyung [xda],-33.57,151.31,#5496B7,Pama-Nyungan,Yuin-Kuri,Australia
Darlong [dln],24.15,92.05,#85B5CC,Tibeto-Burman,Kuki-Chin-Naga,Myanmar
Darma [drd],29.84,80.517,#20729F,Tibeto-Burman,Western Himalayan,India
Datooga_Asimjeeg [tcc],-3.52,35.34,#C9B07D,Nilo-Saharan,Eastern Sudanic,Tanzania
Dâw [kwa],-0.15,-67.05,#85B5CC,Nadahup,Vaupés,Brazil
Daxing_Miao [hea-2],27.88,109.29,#CFB98B,Hmong-Mien,Hmongic,China
Dazaga [dzg],15.74,15.85,#7DB0C9,Nilo-Saharan,Saharan,Chad
Defaka [afn],4.58,7.5,#7DB0C9,Ijoid,Defaka,Nigeria
Degema [deg],4.75,6.75,#C4A86E,Niger-Kongo,Atlantic-Congo,Nigeria
Dehong [tdd],24,98,#C7AC75,Tai-Kadai,Kam-Tai,China
Dekwana [mch],4.5,-63.5,#CEE0E9,Cariban,Guianan Carib,Venezuela
Dela-Oenale [row],-10.92,123,#A88030,Malayo-Polynesian,Southeast Maluku,Indonesia-NTT
Delaware [unm],41.5,-74.67,#C9B07D,Algic,Algonquian,USA
Dena'ina [tfn],62,-150,#D5C199,Dene-Yeniseic,Na-Dene,USA-Alaska
Dene Suline [chp],59,-106,#DCE8ED,Dene-Yeniseic,Na-Dene,Canada
Denjongkha [sip],27.5,88.5,#20729F,Tibeto-Burman,Bodic,India
Desano [des],0.579,-69.067,#3C86AC,Tucanoan,East Tucanoan,Colombia
Dhao [nfa],-10.83,122.75,#AC8536,Malayo-Polynesian,Bima-Lembata,Indonesia-NTT
Dharawal [tbh],-34.5,150.5,#20729F,Pama-Nyungan,Yuin-Kuri,Australia
Dharuk [xdk],-33.1,151.75,#2E7CA5,Pama-Nyungan,Yuin-Kuri,Australia
Dharumbal [bjy],-22.75,150,#106496,Pama-Nyungan,Rockhampton,Australia
Dhimal [dhi],26.6,86.75,#20729F,Tibeto-Burman,Dhimal-Lhokpu,Nepal
Dhimba [dhm],-17.3,13.44,#AC8536,Niger-Kongo,Atlantic-Congo,Namibia
Dhivehi [div],10.6,73,#20729F,Indo-European,Indo-Iranian,Maldives
Dhuwal [duj-2],-12.78,136.01,#A5C9D9,Pama-Nyungan,Yolngu,Australia
Didayi [gaq-2],18.295,82.156,#2E7CA5,Austroasiatic,Munda,India
Didinga [did],4.33,33.6,#B89652,Nilo-Saharan,Eastern Sudanic,South Sudan
Diegueño [dih],32.67,-116.17,#D5E4EB,Yuman-Cochimi,Yuman,USA
Digaru Mishmi [mhu],28.2,96.2,#0B5F92,Tibeto-Burman,Digarish,India
Digo [dig],-4.62,39.18,#B28E44,Niger-Kongo,Atlantic-Congo,Kenya
Dii [dur],8.07,13.882,#EDEAE0,Niger-Kongo,Atlantic-Congo,Cameroon
Dilaohua Yongan Bobai [yue-3],22.329,109.717,#EDECE5,Tibeto-Burman,Sinitic,China
Dimasa [dis],25.33,93,#106496,Tibeto-Burman,Brahmaputran,India
Dime [dim],6.25,36.33,#2E7CA5,Afro-Asiatic,Omotic,Ethiopia
Dimili [diq],38,40,#7DB0C9,Indo-European,Indo-Iranian,Turkey
Dingri [bod-4],28.567,86.633,#0B5F92,Tibeto-Burman,Bodic,China
Dinka [dip],8.5,28,#E2EBEC,Nilo-Saharan,Eastern Sudanic,South Sudan
Diola [dyo],13,-16,#A57B29,Niger-Kongo,Atlantic-Congo,Senegal
Diraytata [gdl],5.6,37.4,#AECEDD,Afro-Asiatic,Cushitic,Ethiopia
Diyari [dif],-28,139,#458BB0,Pama-Nyungan,Karnic,Australia
Dizi [mdx],6.17,36.5,#64A1BE,Afro-Asiatic,Omotic,Ethiopia
Djabugay [dyy],-16.65,145.5,#2E7CA5,Pama-Nyungan,Paman,Australia
Djambarrpuyngu [djr],-12,135.5,#5D9CBB,Pama-Nyungan,Yolngu,Australia
Djapu [duj],-12.667,136,#75ABC5,Pama-Nyungan,Yolngu,Australia
Djaru [ddj],-18.75,128,#AECEDD,Pama-Nyungan,Ngumbin-Yapa,Australia
Djinang [dji],-12.5,134.833,#2777A2,Pama-Nyungan,Yolngu,Australia
Djingili [jig],-17.25,133.833,#AECEDD,Mirndi,Jingulu,Australia
Dla [kbv],-3.7,141.05,#64A1BE,Trans New Guinea,Border,Papua New Guinea
Dobel [kvo],-6.083,134.5,#B89652,Malayo-Polynesian,Southeast Maluku,Indonesia-Maluku-south
Dogon [dbu],14.5,-2.5,#4C90B3,Niger-Kongo,Dogon,Mali
Dogri [dgo],32.03,75.4,#2777A2,Indo-European,Indo-Iranian,India
Dohoi [otd],-0.5,113,#AF893D,Malayo-Polynesian,Barito,Indonesia-Kalimantan
Dolgan [sah-2],70.11,94.29,#2777A2,Turkic,Common Turkic,Russia
Dolpo [dre],29,83,#075A8F,Tibeto-Burman,Bodic,Nepal
Dom [doa],-6,144.917,#85B5CC,Trans New Guinea,Chimbu-Wahgi,Papua New Guinea
Domari_Jerusalem [rmt],31.81,35.234,#9EC3D6,Indo-European,Indo-Iranian,Israel
Domung [dev],-5.82,146.68,#95BED3,Trans New Guinea,Morobe-Eastern Highlands,Papua New Guinea
Dong [doc],26,109,#CFB98B,Tai-Kadai,Kam-Tai,China
Dongolawi [doo],18,32,#75ABC5,Nilo-Saharan,Eastern Sudanic,Sudan
Dongwang [khg],28.25,99.55,#035289,Tibeto-Burman,Bodic,China
Doromu_Koki [kqc],-9.629,147.914,#6DA6C2,Southeast Papuan,Owen Stanley Ranges,Papua New Guinea
Doutai [tds],-3.25,138.25,#6DA6C2,Lakes Plains,Tariku,Indonesia-Papua
Doyayo [dow],8.67,13.08,#BE9F60,Niger-Kongo,Atlantic-Congo,Cameroon
Drehu [dhv],-21,167.083,#C9B07D,Oceanic,Southern Oceanic,New Caledonia
Drokpa [bod-5],29.05,84.5,#075A8F,Tibeto-Burman,Bodic,China
Duala [dua],4.3,9.8,#A57B29,Niger-Kongo,Atlantic-Congo,Cameroon
Duhumbi [cvg],27.42,92.23,#106496,Tibeto-Burman,Kho-Bwa,India
Duka [dud],11.17,5.08,#E7DCC5,Niger-Kongo,Atlantic-Congo,Nigeria
Dulong [duu],28,98.333,#458BB0,Tibeto-Burman,Nungish,China
Dumaki [dmk],36.167,74,#106496,Indo-European,Indo-Iranian,Pakistan
Dumi [dus],27.25,86.67,#75ABC5,Tibeto-Burman,Kiranti,Nepal
Dumo [vam],-2.667,141.25,#E7DCC5,Skou,West Skou,Papua New Guinea
Duna [duc],-5.417,142.5,#106496,Trans New Guinea,Duna-Bogaya,Papua New Guinea
Dungan [dng],42.73,76.84,#95BED3,Tibeto-Burman,Sinitic,Kyrgystan
Dura [drq],28.5,84.25,#156898,Tibeto-Burman,Dura,Nepal
Duri [mvp],-3.37,119.87,#844900,Malayo-Polynesian,Greater South Sulawesi,Indonesia-Sulawesi
Dutch [nld],52.01,4.9,#EAEDE9,Indo-European,Germanic,Netherlands
Duungidjawu [wkw],-26.222,152.081,#05568C,Pama-Nyungan,Central-East,Australia
Dũya [ldb-2],9.34,8.02,#B89652,Niger-Kongo,Atlantic-Congo,Nigeria
Dyirbal [dbl],-17.583,145.5,#4C90B3,Pama-Nyungan,Dyirbalic,Australia
Dyula [dyu],10.45,-4.72,#AECEDD,Mande,Western Mande,Burkina Faso
Dzala [dzl],27,91.5,#035289,Tibeto-Burman,Bodic,Bhutan
Dzongkha [dzo],27.5,89.5,#035289,Tibeto-Burman,Bodic,Bhutan
Dzuungoo [dnn],11.38,-4.92,#9EC3D6,Mande,Western Mande,Burkina Faso
E [eee],25.05,109.25,#E2D4B7,Tai-Kadai,Kam-Tai,China
Eastern Lawa [lwl],19.01,98.76,#B28E44,Austroasiatic,Khasi-Palaung,Thailand
Eastern Ojibwe [ojg-2],44.7,-79.3,#BE9F60,Algic,Algonquian,Canada
Ebira [igb-2],8.16,7.06,#C4A86E,Niger-Kongo,Atlantic-Congo,Nigeria
Ebrie [igb],5.3,-4,#D5C199,Niger-Kongo,Atlantic-Congo,Côte d'Ivoire
Edolo [etr],-6.083,142.667,#3C86AC,Trans New Guinea,Bosavi,Papua New Guinea
Efik [efi],4.92,8.5,#C4A86E,Niger-Kongo,Atlantic-Congo,Nigeria
Ega [ega],5.5,-5.5,#DECFAF,Niger-Kongo,Atlantic-Congo,Côte d'Ivoire
Ei [jpn-7],31.38,130.44,#075A8F,Japonic,Japanese,Japan
Ejagham [etu],5.6,9,#C1A467,Niger-Kongo,Atlantic-Congo,Cameroon
Ekagi [ekg],-3.917,136.25,#85B5CC,Trans New Guinea,Western Trans New Guinea,Indonesia-Papua
Ekoka !Kung [knw],-19.25,17.7,#D5C199,Kx'aa,Ju-Kung,Namibia
Eleme [elm],4.763,7.242,#B89652,Niger-Kongo,Atlantic-Congo,Nigeria
Elfdalian [swe-4],61.2,14.075,#CEE0E9,Indo-European,Germanic,Sweden
Elopi [dbf],-3.083,137.333,#B6D3E1,Lakes Plains,Tariku,Indonesia-Papua
Emae [mmw],-17.033,168.167,#C9B07D,Oceanic,Central Pacific,Vanuatu
Emai [ema],7,5.9,#C1A467,Niger-Kongo,Atlantic-Congo,Nigeria
Embaloh [emb],1.1628,112.37,#814500,Malayo-Polynesian,Greater South Sulawesi,Indonesia-Kalimantan
Embera_Baudo [bdc],5.2,-76.8,#75ABC5,Chocoan,Emberá,Colombia
Embera_Chamí [cmi],4.88,-76.07,#4C90B3,Chocoan,Emberá,Colombia
Embera_Northern [emp],7.13,-77.57,#3C86AC,Chocoan,Emberá,Colombia
Emerillon [eme],2.9266,-53.0419,#CDB583,Tupian,Tupi-Guarani,French Guiana
Endo [enb],1.225,35.65,#C1A467,Nilo-Saharan,Eastern Sudanic,Kenya
Eñepa [kre-2],6.95,-65.85,#A5C9D9,Cariban,Venezuelan,Venezuela
Engenni [enn],5.17,6.38,#C4A86E,Niger-Kongo,Atlantic-Congo,Nigeria
Enggano [eno],-5.333,102.25,#B5924B,Malayo-Polynesian,Batak-Barrier Islands,Indonesia-Sumatra
English [eng],52,0,#E2EBEC,Indo-European,Germanic,Britain
Enxet Sur [enx],-23.43,-57.95,#B5924B,Mascoian,Lengua,Paraguay
Epena [sja],3,-77,#75ABC5,Chocoan,Emberá,Colombia
Ersu [ers],28.64,102.508,#2E7CA5,Tibeto-Burman,Na-Qiangic,China
Erzgebirgisch [nds],50.58,13,#D5E4EB,Indo-European,Germanic,Germany
Erzya [myv-2],52,45.5,#2E7CA5,Uralic,Mordvin,Russia
Esan [ish],6.743,6.142,#CDB583,Niger-Kongo,Atlantic-Congo,Nigeria
Ese Ejja [ese],-11,-65.9,#95BED3,Tacanan,Takanik-Chamik,Bolivia
Esmeraldeño [xxx-2],1,-79.5,#C7AC75,Esmeraldeño,,Ecuador
Esselen [esq],36.25,-121.75,#64A1BE,Esselen,,USA
Estonian [est],59,25,#75ABC5,Uralic,Finnic,Estonia
Eton [eto],4,11.5,#A57B29,Niger-Kongo,Atlantic-Congo,Cameroon
Eudave [opt],28.5,-110,#458BB0,Uto-Aztecan,Opatan,Mexico
Even [eve],68,130,#20729F,Tungusic,North Tungusic,Russia
Evenki [evn],57,105,#106496,Tungusic,North Tungusic,Russia
Evenki_Eastern [evn-3],54,129,#156898,Tungusic,North Tungusic,Russia
Ewe [ewe],6.1,1.18,#D2BD92,Niger-Kongo,Atlantic-Congo,Ghana
Ewondo [ewo],4.5,12,#97660F,Niger-Kongo,Atlantic-Congo,Cameroon
Extremadura [ext],39,-6,#EDE7DA,Indo-European,Romance,Spain
Eyak [eya],60.5,-145,#CEE0E9,Dene-Yeniseic,Na-Dene,USA-Alaska
Faifi_Lower [fif],17.29,43.15,#8A5201,Afro-Asiatic,Semitic,Yemen
Fang [fan],0.5,11,#97660F,Niger-Kongo,Atlantic-Congo,Equatorial Guinea
Farasani [jye],16.8,41.9,#B5924B,Afro-Asiatic,Semitic,Saudi Arabia
Farnworth [eng-4],53.545,-2.405,#EDEAE0,Indo-European,Germanic,Britain
Faroese [fao],62,-6.75,#C6DCE7,Indo-European,Germanic,Denmark Faroe Islands
Farsi [pes],32.86,57,#DCE8ED,Indo-European,Indo-Iranian,Iran
Fasu [faa],-6.417,143.167,#1A6D9C,Papuan Gulf,Kikorian,Papua New Guinea
Fataluku [ddg],-8.5,127,#CEE0E9,Timor-Alor-Pantar,Mainland Timor-Alor-Pantar,Timor leste
Fayu [fau],-3.138,136.885,#3581A9,Lakes Plains,Tariku,Indonesia-Papua
Figuig [grr],29.11,0.02,#AC8536,Afro-Asiatic,Berber,Morocco
Fijian [fij],-17.8,178.525,#874E01,Oceanic,Central Pacific,Fiji
Fijian_Boumaa [fij-2],-16.822,-179.872,#8D5704,Oceanic,Central Pacific,Fiji
Fijian_Nadrau [wyy],-17.71,177.95,#844900,Oceanic,Central Pacific,Fiji
Finnish [fin],60.2,24.95,#7DB0C9,Uralic,Finnic,Finland
Finnish_Savonian [fin-2],63.58,27.82,#7DB0C9,Uralic,Finnic,Finland
Flinders Island [fln],-14.184,144.255,#64A1BE,Pama-Nyungan,Paman,Australia
Foe [foi],-6.333,143.5,#2E7CA5,Papuan Gulf,Kikorian,Papua New Guinea
Fon Gbe [fon],6.42,2.17,#E4D8BE,Niger-Kongo,Atlantic-Congo,Benin
Fordata [frd],-7.17,131.5,#B28E44,Malayo-Polynesian,Southeast Maluku,Indonesia-Maluku-south
Fore [for],-6.75,145.5,#458BB0,Trans New Guinea,Morobe-Eastern Highlands,Papua New Guinea
Forest Nenets [yrk-2],63.72,71.97,#20729F,Uralic,Samoyedic,Russia
French [fra],48.197,3.28,#ECE4D3,Indo-European,Romance,France
French_Lyonnais [fra-2],45.76,4.84,#ECE4D3,Indo-European,Romance,France
Frisian [frs],53.13,5.82,#E2EBEC,Indo-European,Germanic,Netherlands
Frisian_Söl'ring [frr],54.9,8.33,#EAEDE9,Indo-European,Germanic,Germany
Friulian [fur],46.2,13,#EDEAE0,Indo-European,Romance,Italy
Fula [fuh],11.498,-12.5,#C7AC75,Niger-Kongo,Atlantic-Congo,Guinea
Fulniô [fun],-8.2,-37.3,#85B5CC,Fulniô,Yate,Brazil
Fur [fvr],12.05,23.64,#7DB0C9,Nilo-Saharan,Fur,Sudan
Futuna_East [fud],-14.29,-178.16,#CFB98B,Oceanic,Central Pacific,Wallis and Futuna
Futuna_West [fut],-19.667,170.667,#ECE4D3,Oceanic,Central Pacific,Vanuatu
Fuyü Gïrgïs [fyk],47.8,124.66,#035289,Turkic,Common Turkic,China
Fuyuge [fuy],-8.667,147.333,#5D9CBB,Trans New Guinea,Oro-Wharton,Papua New Guinea
Fuzhou [cdo],26.5,119,#EDEAE0,Tibeto-Burman,Sinitic,China
Fwe [fwe ],-17.72,24.43,#B28E44,Niger-Kongo,Atlantic-Congo,Namibia
Fyam [pym],9.65,9.25,#C1A467,Niger-Kongo,Atlantic-Congo,Nigeria
Gã [gaa],5.67,-0.17,#DCCBA7,Niger-Kongo,Atlantic-Congo,Ghana
Ga'anda [gqa],10.33,12.58,#D2BD92,Afro-Asiatic,Chadic,Nigeria
Gaagudju [gbu],-12.583,132.833,#C9B07D,Macro-Gunwinygu,Gaagudju,Australia
Gaahmg [tbi],11.767,34.35,#BE9F60,Nilo-Saharan,Eastern Sudanic,Sudan
Gabadi [kbt],-9.006,146.932,#EDE7DA,Oceanic,Western Oceanic,Papua New Guinea
Gabigabi [gbw],-25.5,153,#106496,Pama-Nyungan,Waka-Kabic,Australia
Gabrielino [xgf],33.93,-118.4,#2E7CA5,Uto-Aztecan,Tongva,USA
Gadaba [gdb],19,83.667,#2E7CA5,Dravidian,Central Dravidian,India
Gaddi [gbk],32.44,76.54,#2E7CA5,Indo-European,Indo-Iranian,India
Gade_Lohar [gda],25.75,71.38,#20729F,Indo-European,Indo-Iranian,India
Gadsup [gaj],-6.333,146,#3581A9,Trans New Guinea,Morobe-Eastern Highlands,Papua New Guinea
Gahuku [gah],-6.083,145.4,#3581A9,Trans New Guinea,Morobe-Eastern Highlands,Papua New Guinea
Galela [gbi],2,128.417,#BA9A59,West Papuan,North Halmahera,Indonesia-Maluku-north
Galician [glg],43.02,-7.55,#EDE7DA,Indo-European,Romance,Spain
Gallo [fra-3],48.11,-1.68,#E4D8BE,Indo-European,Romance,France
Gallurese [sdn],41.18,9.38,#E9E0CD,Indo-European,Romance,Italy-Sardinia
Galo [adi],28,94.75,#458BB0,Tibeto-Burman,Macro-Tani,India
Galolen [gal],-8.58,126,#C7AC75,Malayo-Polynesian,Southeast Maluku,Timor leste
Gamilaraay [kld-2],-31,149.5,#6DA6C2,Pama-Nyungan,Wiradhuric,Australia
Gangou [cmn-8],36.34,102.86,#156898,Tibeto-Burman,Sinitic,China
Gangte [gnb],24.51,94.17,#85B5CC,Tibeto-Burman,Kuki-Chin-Naga,India
Ganta [kcx-2],6.04,37.57,#20729F,Afro-Asiatic,Omotic,Ethiopia
Gapapaiwa [pwg],-9.8,149.833,#E4D8BE,Oceanic,Western Oceanic,Papua New Guinea
Garawa [gbc],-17.25,137.667,#EAEDE9,Wanyi-Garrwa,Garawa,Australia
Garifuna [cab],15.85,-85,#A88030,Arawak,Northern Maipuran,Honduras
Garmsiri_Jirofti [bsg],28.68,57.75,#ECE4D3,Indo-European,Indo-Iranian,Iran
Garo [grt],26,90,#1A6D9C,Tibeto-Burman,Brahmaputran,India
Gathang [kda],-32,152.5,#156898,Pama-Nyungan,Yuin-Kuri,Australia
Gavar [gou],10.56,13.82,#B28E44,Afro-Asiatic,Chadic,Cameroon
Gavião [gvo],-11,-61,#E6ECEC,Tupian,Mondé,Brazil
Gawri [gwc-2],35.53,72.57,#106496,Indo-European,Indo-Iranian,Pakistan
Gayo [gay],4.55,96.95,#9F711B,Malayo-Polynesian,Batak-Barrier Islands,Indonesia-Sumatra
Gbaya-Kara [gya],6,15,#D8C6A0,Niger-Kongo,Atlantic-Congo,Central African Republic
Gbaya-Mbodomo [mdo],4.5,15,#DECFAF,Niger-Kongo,Atlantic-Congo,Central African Republic
Gbeya_Bossangoa [gbp],6.67,17.5,#C7AC75,Niger-Kongo,Atlantic-Congo,Central African Republic
Gebe [gei],0,129.5,#CFB98B,Malayo-Polynesian,Eastern Malayo-Polynesian,Indonesia-Maluku-north
Gedeo [drs],6.158,38.196,#0B5F92,Afro-Asiatic,Cushitic,Ethiopia
Gela [nlg],-9.167,160.333,#7E3F00,Oceanic,Southeast Solomonic,Solomons
Gelao [gio],22.92,105.5,#CDB583,Tai-Kadai,Kadaic,China
Gemzek [gnd],10.7,14.31,#D8C6A0,Afro-Asiatic,Chadic,Cameroon
Genoese [lij-2],44.4,8.9,#DCCBA7,Indo-European,Romance,Italy
Geordie [eng-2],54.99,-1.46,#E2D4B7,Indo-European,Germanic,Britain
Georgian [kat],41.72,44.78,#C6DCE7,Kartvelian,Georgian,Georgia
German [deu],50,10,#CEE0E9,Indo-European,Germanic,Germany
German_Swiss [gsw],46.975,8.405,#CEE0E9,Indo-European,Germanic,Switzerland
Geser [ges],-4,131,#AF893D,Malayo-Polynesian,Central Maluku,Indonesia-Maluku-south
Geshiza [jih-2],30.89,101.89,#75ABC5,Tibeto-Burman,Na-Qiangic,China
Ghadamese [gha],30.13,9.5,#905C06,Afro-Asiatic,Berber,Libya
Ghale [ghe],28.25,84.9,#01417F,Tibeto-Burman,Ghale,Nepal
Ghomara [gho],35.57,-5.37,#874E01,Afro-Asiatic,Berber,Morocco
Ghulfan [ghl],11.64,29.81,#7DB0C9,Nilo-Saharan,Eastern Sudanic,Sudan
Gidra [gdr],-8.817,143.034,#95BED3,Eastern Trans Fly,,Papua New Guinea
Gikuyu [kik],-0.75,36.75,#AC8536,Niger-Kongo,Atlantic-Congo,Kenya
Gikyode [acd],8.39,0.57,#D8C6A0,Niger-Kongo,Atlantic-Congo,Ghana
Gilaki [glk],37.75,49,#5496B7,Indo-European,Indo-Iranian,Iran
Gimi [gim],-6.639,145.377,#3581A9,Trans New Guinea,Morobe-Eastern Highlands,Papua New Guinea
Girirra [gex],5.84,42.11,#75ABC5,Afro-Asiatic,Cushitic,Somalia
Githabul [bdy-3],-29.05,152.02,#1A6D9C,Pama-Nyungan,Yugambeh-Bundjalung,Australia
Gitxsan [git],55.33,-127.75,#B89652,Tsimshian,Nass-Gitksan,Canada
Giziga [gis],10.68,14.22,#BA9A59,Afro-Asiatic,Chadic,Cameroon
Godoberi [gdo],42.63,46.11,#0B5F92,Nakh-Daghestanian,Avar-Andi,Russia
Goemai [ank],8.67,9.75,#BA9A59,Afro-Asiatic,Chadic,Nigeria
Gogo_central [gog],-5.91,35.11,#BE9F60,Niger-Kongo,Atlantic-Congo,Tanzania
Gogodala [ggw],-8.083,143,#3581A9,Papuan Gulf,Gogodala-Suki,Papua New Guinea
Gojri [gju],33,76,#3581A9,Indo-European,Indo-Iranian,India
Gokana [gkn],4.578,7.366,#D8C6A0,Niger-Kongo,Atlantic-Congo,Nigeria
Gola [gol],7.6,-10.81,#C9B07D,Niger-Kongo,Atlantic-Congo,Liberia
Golden Palaung [pll],22.97,97.17,#C4A86E,Austroasiatic,Khasi-Palaung,Myanmar
Golin [gvf],-6.25,144.833,#5496B7,Trans New Guinea,Chimbu-Wahgi,Papua New Guinea
Golpu [dhg],-11.23,136.63,#6DA6C2,Pama-Nyungan,Yolngu,Australia
Gondi [gno],19,84.6,#035289,Dravidian,South-Central Dravidian,India
Gongduk [goe],27.075,91.145,#1A6D9C,Tibeto-Burman,Gongduk,Bhutan
Gooniyandi [gni],-18.5,126.6,#D5E4EB,Bunuban,,Australia
Gorontalo [gor],0.5,122,#B89652,Malayo-Polynesian,Philippines,Indonesia-Sulawesi
Gorum [pcj],18.5,82.733,#6DA6C2,Austroasiatic,Munda,India
Gorwaa [gow],-4.24,35.8,#D2BD92,Afro-Asiatic,Cushitic,Tanzania
Great Andamanese [abj],12.5,92.83,#64A1BE,Andaman,,India_Andaman-Nicobars
Grebo [gry],5.3,-8,#E6ECEC,Niger-Kongo,Atlantic-Congo,Liberia
Greek [ell],38,23,#E9E0CD,Indo-European,Graeco-Phrygian,Greece
Greek_Cypriot [ell-4],35,32.7,#E2D4B7,Indo-European,Graeco-Phrygian,Cyprus
Greek_Istanbul [ell-3],41.04,28.95,#CEE0E9,Indo-European,Graeco-Phrygian,Turkey
Green Hmong [hnj],18.816,98.883,#D5C199,Hmong-Mien,Hmongic,Thailand
Gresi [grs],-2.72,140.28,#8EBAD0,Tor-Kwerba,Nimboran,Indonesia-Papua
Griko [ell-2],40.35,18.17,#EDE7DA,Indo-European,Graeco-Phrygian,Italy
Gtaq [gaq],18.633,83.5,#5D9CBB,Austroasiatic,Munda,India
Guajajara [gub],-5,-45,#BE9F60,Tupian,Tupi-Guarani,Brazil
Guajira [guc],12,-72,#AC8536,Arawak,Northern Maipuran,Colombia
Guambiano [gum],2.5,-76.67,#20729F,Barbacoan,Northern Barbacoan,Colombia
Guarani [gug],-23,-56,#DCCBA7,Tupian,Tupi-Guarani,Paraguay
Guarani_Bolivia [gui],-20.25,-63.5,#DECFAF,Tupian,Tupi-Guarani,Bolivia
Guarani_Paraguay [gug-2],-25.61,-57.09,#EDEAE0,Tupian,Tupi-Guarani,Paraguay
Guarijio [var],27.75,-108.67,#E6ECEC,Uto-Aztecan,Tarahumaran,Mexico
Guató [gta],-16,-66,#97660F,Macro-Je,Guato,Bolivia
Guatuso [gut],10.67,-84.82,#AECEDD,Chibchan,Core Chibchan,Costa Rica
Guayabero [guo],2.709,-71.98,#BDD7E3,Guahiban,Southwest Guahiban,Colombia
Guaymi [gym-2],8.77,-81.73,#4C90B3,Chibchan,Core Chibchan,Panama
Guazacapan [xin],14.07,-90.42,#A27622,Xinca,,Guatemala
Gubeeher [bcb],12.5,-16.5,#9F711B,Niger-Kongo,Atlantic-Congo,Senegal
Gudandji [nji-2],-16.33,136.6,#75ABC5,Mirndi,Ngurlun,Australia
Gude [gde],10.21,13.4,#B5924B,Afro-Asiatic,Chadic,Cameroon
Guernésiais [nrf-2],49.43,-2.67,#E2D4B7,Indo-European,Romance,Britain
Gugada [ktd],-30,134,#0B5F92,Pama-Nyungan,Wati,Australia
Gugu-Badhun [gdc],-18.549,144.484,#156898,Pama-Nyungan,Greater Maric,Australia
Guhu-Samane [ghs],-8,147.25,#1A6D9C,Trans New Guinea,Oro-Wharton,Papua New Guinea
Guiqiong [gqi],30.055,101.964,#034984,Tibeto-Burman,Na-Qiangic,China
Gujarati [guj],23.25,72.7,#20729F,Indo-European,Indo-Iranian,India
Gula-Iro [glj],10.251,19.421,#D8C6A0,Niger-Kongo,Atlantic-Congo,Chad
Gumawana [gvs],-9.25,150.833,#AF893D,Oceanic,Western Oceanic,Papua New Guinea
Gumbaynggir [kgs],-30.4,152.5,#5496B7,Pama-Nyungan,Gumbaynggiric,Australia
Gumer [sgw-2],8.02,38.12,#EAEDE9,Afro-Asiatic,Semitic,Ethiopia
Gumuz [guk],11.29,35.38,#B89652,Nilo-Saharan,Gumuz,Ethiopia
Gunbarlang [wlg],-11.8,133.7,#BE9F60,Macro-Gunwinygu,Gunwingyuan proper,Australia
Gundungurra [xrd],-34.33,150,#7DB0C9,Pama-Nyungan,Yuin-Kuri,Australia
Gününa_Yajich [xxx-18],-38,-62.5,#D2BD92,Chonan,Chonan Proper,Argentina
Gunya [gyy],-27.06,145.86,#2777A2,Pama-Nyungan,Greater Maric,Australia
Gupapuyngu [guf],-12.166,135.466,#7DB0C9,Pama-Nyungan,Yolngu,Australia
Gureng-Gureng [gnr],-25.25,151,#3C86AC,Pama-Nyungan,Waka-Kabic,Australia
Gurindji [gue],-17.401,130.805,#A5C9D9,Pama-Nyungan,Ngumbin-Yapa,Australia
Gurnu [drl-2],-30,145.2,#3C86AC,Pama-Nyungan,Yarli-Baagandji,Australia
Gurr-goni [gge],-12.25,134.417,#DCCBA7,Macro-Gunwinygu,Maningrida,Australia
Gurung [gvr],28.333,84.333,#1A6D9C,Tibeto-Burman,Bodic,Nepal
Gutnish [scy-2],57.5,18.5,#BDD7E3,Indo-European,Germanic,Sweden
Gutob [gbj],18.583,82.867,#64A1BE,Austroasiatic,Munda,India
Guugu Yimidhirr [kky],-15,144.833,#156898,Pama-Nyungan,Paman,Australia
Gwama [kmq],9.4,34.4,#EAEDE9,Nilo-Saharan,Koman,Ethiopia
Gwari [gby],9.5,7,#DCCBA7,Niger-Kongo,Atlantic-Congo,Nigeria
Gweno [gwe],-3.68,37.65,#AF893D,Niger-Kongo,Atlantic-Congo,Kenya
Gyalsumdo [bod-7],28.552,84.24,#05568C,Tibeto-Burman,Bodic,Nepal
Gyeli [nmg],2.35,9.98,#C1A467,Niger-Kongo,Atlantic-Congo,Cameroon
Haa_Zongkha [dzo-2],27.135,89.12,#075A8F,Tibeto-Burman,Bodic,Bhutan
Hadoti [hoj],25.1,76.52,#3C86AC,Indo-European,Indo-Iranian,India
Hadza [hts],-3.75,35.17,#C1A467,Hadza,,Tanzania
Haida [hdn],53,-132,#A5C9D9,Haida,,Canada
Hainan [nan-3],19.8,110.55,#E4D8BE,Tibeto-Burman,Sinitic,China
Hainan_Hakka [hak-2],19.52,109.65,#EDE7DA,Tibeto-Burman,Sinitic,China
Haisla [has],54,-128.75,#A57B29,Wakashan,North Wakashan,Canada
Hajong [haj],26.2,90.5,#05568C,Indo-European,Indo-Iranian,India
Hakha Lai [cnh],22.667,93.667,#9EC3D6,Tibeto-Burman,Kuki-Chin-Naga,Myanmar
Hakka [hak],24.25,116.5,#EDECE5,Tibeto-Burman,Sinitic,China
Halam_Bongcher [rnl],23.8,91.3,#3581A9,Tibeto-Burman,Kuki-Chin-Naga,Bangladesh
Halbi [hlb],20.31,81.37,#2777A2,Indo-European,Indo-Iranian,India
Halia [hla],-5.25,154.75,#C7AC75,Oceanic,Western Oceanic,Papua New Guinea-Bougainville
Halkomelem [hur],49.5,-121.85,#A88030,Salish,Coastal Salish,Canada
Halkomelem_Musqueam [hur-2],49.275,-123.2,#905C06,Salish,Coastal Salish,Canada
Hamba [hba],-2.49,24.23,#9F711B,Niger-Kongo,Atlantic-Congo,Democratic Republic of the Congo
Hamer [amf],5,36.5,#458BB0,Afro-Asiatic,Omotic,Ethiopia
Hanga Hundi [wos],-3.833,142.833,#20729F,Ndu,Nuclear Ndu,Papua New Guinea
Hangaza [han],-2.52,30.71,#A27622,Niger-Kongo,Atlantic-Congo,Tanzania
Hangzhou [wuu-2],30.25,120.167,#EDEAE0,Tibeto-Burman,Sinitic,China
Hani [hni],23.48,100.7,#20729F,Tibeto-Burman,Lolo-Burmese,China
Hanunoo [hnn],12.33,121.25,#C4A86E,Malayo-Polynesian,Philippines,Philippines
Haro [kcx],6.4,37.93,#2777A2,Afro-Asiatic,Omotic,Nigeria
Haroi [hro],13.335,108.907,#C1A467,Malayo-Polynesian,Malayo-Sumbawan,Vietnam
Harsusi [hss],19.7,55.85,#C4A86E,Afro-Asiatic,Semitic,Oman
Haruai [tmd],-5.1,144.34,#75ABC5,Piawi,,Papua New Guinea
Hasköy_Arabic [arb-5],36.685,41.7,#E4D8BE,Afro-Asiatic,Semitic,Turkey
Hatam [had],-1,134,#B5924B,Hatam,,Indonesia-Papua
Hateruma [rys],24.06,123.78,#3C86AC,Japonic,Ryukyuan,Japan-Ryukyu
Hausa [hau],12,7,#AF893D,Afro-Asiatic,Chadic,Nigeria
Hawaiian [haw],21.905,-160.2,#D8C6A0,Oceanic,Central Pacific,USA-Hawaii
Hayu [vay],27.25,86,#5496B7,Tibeto-Burman,Kiranti,Nepal
Hazaragi [haz],33.37,64.51,#7DB0C9,Indo-European,Indo-Iranian,Iran
Hdi [xed],11.87,13.72,#BE9F60,Afro-Asiatic,Chadic,Nigeria
Hebbar [tam-5],13,78.67,#075A8F,Dravidian,South Dravidian,India
Hebrew [heb],31.75,35.17,#CDB583,Afro-Asiatic,Semitic,Israel
Helong [heg],-10.2,123.42,#BE9F60,Malayo-Polynesian,Southeast Maluku,Indonesia-NTT
Herero [her],-21,20,#A88030,Niger-Kongo,Atlantic-Congo,Namibia
Hewa [ham],-5.066,142.489,#95BED3,Sepik,Sepik Hill,Papua New Guinea
Hezhou [cmn-2],35.6,103.24,#7DB0C9,Tibeto-Burman,Sinitic,China
Hiberno-English [eng-3],54,-6.5,#EDECE5,Indo-European,Germanic,Ireland
Hidatsa [hid],48,-110,#EDEAE0,Siouan,Western Siouan,USA
Hiligaynon [hil],10.254,123,#AC8536,Malayo-Polynesian,Philippines,Philippines
Hill_Madia [mrr],18.9,81.15,#075A8F,Dravidian,South-Central Dravidian,India
Hindi [hin],27.2,79.5,#458BB0,Indo-European,Indo-Iranian,India
Hinuq [gin],42.45,45.81,#075A8F,Nakh-Daghestanian,Tsezic,Russia
Hitnü [mbn],6.459,-71.286,#D5E4EB,Guahiban,Macaguane,Colombia
Hiw [hiw],-13.25,166.5,#D2BD92,Oceanic,Southern Oceanic,Vanuatu
Hixkaryana [hix],1.5,-60,#D8C6A0,Cariban,Parukotan,Brazil
Hkongso [mro],21.5,93,#C6DCE7,Tibeto-Burman,Mru,Myanmar
Hlai [lic],18.65,109.4,#C7AC75,Tai-Kadai,Hlaic,China
Hlai-Cun [lic-2],19.1,109.01,#D5C199,Tai-Kadai,Hlaic,China
Hlai-Nadou [lic-3],19.36,108.9,#D2BD92,Tai-Kadai,Hlaic,China
Hlai-Pochun [lic-4],19.27,109.62,#D2BD92,Tai-Kadai,Hlaic,China
Hlersu [hle],24.05,101.975,#3C86AC,Tibeto-Burman,Lolo-Burmese,China
Hmar [hmr],25,92.2,#5496B7,Tibeto-Burman,Kuki-Chin-Naga,India
Hmong Nzhuab_East [hnj-3],23.2,104.7,#CDB583,Hmong-Mien,Hmongic,China
Hmong Soud [sfm],24,104.2,#C9B07D,Hmong-Mien,Hmongic,China
Hmu_Northern [hea-3],26.81,108.23,#D5E4EB,Hmong-Mien,Hmongic,China
Ho [hoc],22,86,#9EC3D6,Austroasiatic,Munda,India
Hobyot [hoh],16.21,52.2,#C7AC75,Afro-Asiatic,Semitic,Oman
Hohhot [cjy],40.82,111.65,#EDEAE0,Tibeto-Burman,Sinitic,China
Holoholo [hoo],-5.5,28.25,#B28E44,Niger-Kongo,Atlantic-Congo,Democratic Republic of the Congo
Hoozo [hoz],9.39,34.6,#20729F,Afro-Asiatic,Omotic,Ethiopia
Hopi [hop],36,-110,#5D9CBB,Uto-Aztecan,Hopi,USA
Hote Misim [hot],-7.027,146.924,#BA9A59,Oceanic,Western Oceanic,Papua New Guinea
Hresuk [adb],-8.22,125.61,#BE9F60,Malayo-Polynesian,Southeast Maluku,Timor leste
Hua [ygr],-6.333,145.3,#2E7CA5,Trans New Guinea,Morobe-Eastern Highlands,Papua New Guinea
Huariapano [pno],-7.17,-75,#6DA6C2,Panoan,Southern Panoan,Peru
Huastec [hsf],22.08,-99.33,#AF893D,Mayan,Huastecan Mayan,Mexico
Huave [huv],16.2,-95,#9F711B,Huave,,Mexico
Huaylas_Conchucos_Quechua [qwh],-8.68,-77.88,#1A6D9C,Quechuan,Quechua I,Peru
Huchnom [yuk-2],39.97,-123.8,#4C90B3,Wappo-Yukian,North Wappo-Yukian,USA
Hui'an [nan-9],24.98,118.8,#EDE7DA,Tibeto-Burman,Sinitic,China
Huichol [hch],22,-104,#458BB0,Uto-Aztecan,Corachol,Mexico
Huitoto_Minica [huu],-2.4,-72.25,#64A1BE,Boran,Witoto,Colombia
Huitoto_Murui [hux],-1,-73.5,#458BB0,Boran,Witoto,Colombia
Hunan_Guanxia Pinghua [cmn-131],26.572,110.279,#E7DCC5,Hmong-Mien,Hmongic,China
Hunan_Matanghua [cmn-132],27.006,110.45,#EDE7DA,Hmong-Mien,Hmongic,China
Hungarian [hun],47,19,#9EC3D6,Uralic,Hungarian,Hungary
Hunter River [awk-2],-32.92,151.79,#64A1BE,Pama-Nyungan,Yuin-Kuri,Australia
Hunzib [huz],42.16,46.23,#20729F,Nakh-Daghestanian,Tsezic,Russia
Hup [jup],0.167,-69.25,#20729F,Nadahup,Vaupés,Brazil
Hupa [hup],41.08,-123.67,#CEE0E9,Dene-Yeniseic,Na-Dene,USA
I’saka [ksi],-2.9,141.4,#D8C6A0,Skou,South Skou,Papua New Guinea
Iaai [iai],-20.417,166.417,#8D5704,Oceanic,Southern Oceanic,New Caledonia
Iatmul [ian],-4.25,143.25,#0B5F92,Ndu,Nuclear Ndu,Papua New Guinea
Iau [tmu],-3.167,138,#9EC3D6,Lakes Plains,Tariku,Indonesia-Papua
Iban [iba],2,112,#BE9F60,Malayo-Polynesian,Malayo-Sumbawan,Malaysia-Borneo
Ibanag [ibg],17.411,121.875,#C4A86E,Malayo-Polynesian,Philippines,Philippines
Icelandic [isl],64.1,-21.9,#BDD7E3,Indo-European,Germanic,Iceland
Idaho Shoshone [shh-2],42.7,-114.4,#20729F,Uto-Aztecan,Numic,USA
Idaté [idt],-8.75,125.91,#C1A467,Malayo-Polynesian,Southeast Maluku,Timor leste
Idi [idi],-8.667,142.333,#64A1BE,South New Guinea,East Morehead,Papua New Guinea
Idũ [ldb],9.13,7.78,#BE9F60,Niger-Kongo,Atlantic-Congo,Nigeria
Idu Mishmi [clk],29,96,#3C86AC,Tibeto-Burman,Digarish,India
Iduna [viv],-9.417,150.25,#CDB583,Oceanic,Western Oceanic,Papua New Guinea
Ifugao_Batad [ifb],16.833,121.083,#B5924B,Malayo-Polynesian,Philippines,Philippines
Igbo [ibo],6,7.33,#DECFAF,Niger-Kongo,Atlantic-Congo,Nigeria
Igede [ige],7,8.17,#DCCBA7,Niger-Kongo,Atlantic-Congo,Nigeria
Ignaciano [ign],-12.5,-65.5,#905C06,Arawak,Southern Maipuran,Bolivia
Iha [ihp],-2.8,132.35,#CEE0E9,Trans New Guinea,Bomberai,Indonesia-Papua
Ik [ikx],3.75,34.17,#E7DCC5,Nilo-Saharan,Eastern Sudanic,Uganda
Ika [arh],10.75,-73.5,#7DB0C9,Chibchan,Core Chibchan,Colombia
Ikaan [kcf],7.6,6.04,#C7AC75,Niger-Kongo,Atlantic-Congo,Nigeria
Ikalanga [kck],-20.15,28.38,#A57B29,Niger-Kongo,Atlantic-Congo,Botswana
Ikoma [ntk],-1.95,34.54,#B28E44,Niger-Kongo,Atlantic-Congo,Tanzania
Ikpeng [txi],-12,-54,#E7DCC5,Cariban,Pekodian,Brazil
Ikposso [kpo],7.58,0.6,#DCCBA7,Niger-Kongo,Atlantic-Congo,Togo
Ikyaushi [auh-2],-11.63,29.02,#A57B29,Niger-Kongo,Atlantic-Congo,Zambia
Ilokano [ilo],18.17,120.45,#AF893D,Malayo-Polynesian,Philippines,Philippines
Imonda [imn],-3.25,141.167,#5D9CBB,Trans New Guinea,Border,Papua New Guinea
Inanwatan [szp],-2.17,132,#E2EBEC,Trans New Guinea,South Birds Head,Indonesia-Papua
Iñapari [inp],-12.0875,-69.5439,#E2D4B7,Arawak,Southern Maipuran,Peru
Inati [atk],11.289778,122.51,#BE9F60,Malayo-Polynesian,Philippines,Philippines
Indonesian [ind],-2.5,104.75,#B5924B,Malayo-Polynesian,Malayo-Sumbawan,Indonesia-Sumatra
Ingarikó [ake-2],5.85,-60.68,#8EBAD0,Cariban,Venezuelan,Guyana
Ingrian [izh],59.47,29.71,#64A1BE,Uralic,Finnic,Russia
Ingush [inh],42.97,44.77,#0B5F92,Nakh-Daghestanian,Nakh,Russia
Inpui [nkf],24.88,93.69,#20729F,Tibeto-Burman,Kuki-Chin-Naga,India
Inuktun [kal-3],77.47,-69.25,#5D9CBB,Eskimo-Aleut,Eskimo,Denmark Greenland
Iñupiaq [esi],68.13,-151.72,#3581A9,Eskimo-Aleut,Eskimo,USA-Alaska
Inutttitut_Labrador [ike-2],58.4855,-62.674,#3C86AC,Eskimo-Aleut,Eskimo,Canada
Iquito [iqu],-3,-74,#E2EBEC,Zaparoan,Iquito-Arabela,Peru
Irabu_Ryukyu [mvi-2],24.833,125.183,#014682,Japonic,Ryukyuan,Japan-Ryukyu
Iranxe [irn],-12.72,-57.98,#A5C9D9,Irantxe-Münkü,,Brazil
Iraqw [irk],-3.5,35,#E2EBEC,Afro-Asiatic,Cushitic,Tanzania
Irarutu [irh],-3,133.5,#B5924B,Malayo-Polynesian,Eastern Malayo-Polynesian,Indonesia-Papua
Iraya [iry],13.442,120.572,#ECE4D3,Malayo-Polynesian,Philippines,Philippines
Irigwe [iri],9.85,8.65,#DCCBA7,Niger-Kongo,Atlantic-Congo,Nigeria
Irish [gle],52.67,-8.6,#CDB583,Indo-European,Celtic,Ireland
Irula [iru],13,77,#075A8F,Dravidian,South Dravidian,India
Isinay Dupax [inn],16.28,121.1,#B89652,Malayo-Polynesian,Philippines,Philippines
Isirawa [srl],-1.92,138.5,#3C86AC,Tor-Kwerba,West Foya Range,Indonesia-Papua
Italian [ita],43,12.5,#E2D4B7,Indo-European,Romance,Italy
Itelmen [itl],57,157,#9EC3D6,Chukotko-Kamchatkan,Main Chukotko-Kamchatkan,Russia
Itonama [ito],-12,-65,#A27622,Itonama,,Bolivia
Itza' [itz],16.99,-89.85,#8D5704,Mayan,Core Mayan,Guatemala
Ivatan_Southern [ivv],20.33,121.83,#C1A467,Malayo-Polynesian,Bashiic,Philippines
Ivori [ago],-7.456,145.583,#6DA6C2,Trans New Guinea,Morobe-Eastern Highlands,Papua New Guinea
Iwaidja [ibd],-11.5,132.667,#C7AC75,Iwaidjan,Central Iwaidjic,Australia
Iwal [kbm],-7.226,146.991,#B5924B,Oceanic,Western Oceanic,Papua New Guinea
Iwam [iwm],-4.25,141.83,#64A1BE,Sepik,Iwam-Wogamus,Papua New Guinea
Ixil [ixl],15.5,-91.2,#A27622,Mayan,Core Mayan,Guatemala
Iyo [nca],-5.807,146.143,#8EBAD0,Trans New Guinea,Morobe-Eastern Highlands,Papua New Guinea
Izere [izr],9.93,9.1,#C4A86E,Niger-Kongo,Atlantic-Congo,Nigeria
Izi [izi],6.332,8.104,#DECFAF,Niger-Kongo,Atlantic-Congo,Nigeria
Jabutí [jbt],-12,-63,#E6ECEC,Macro-Je,Jabutí,Brazil
Jacaltec [jac],15.75,-91.75,#8A5201,Mayan,Core Mayan,Guatemala
Jad [jda],30.24,79.15,#05568C,Tibeto-Burman,Bodic,India
Jaffna Tamil [tam-6],9.66,80.02,#106496,Dravidian,South Dravidian,Sri Lanka
Jahai [jhi],5.9,101.5,#AC8536,Austroasiatic,Aslian,Malaysia
Jalkunan [bxl],10.54,-5.22,#AECEDD,Mande,Western Mande,Burkina Faso
Jambi Dusun Dalam [jax-2],-2.27,102.55,#BA9A59,Malayo-Polynesian,Malayo-Sumbawan,Indonesia-Sumatra
Jambi Malay [jax],-1.25,104.1,#A88030,Malayo-Polynesian,Malayo-Sumbawan,Indonesia-Sumatra
Jamee [min-2],3.13,97.45,#A57B29,Malayo-Polynesian,Malayo-Sumbawan,Indonesia-Sumatra
Jaminjung [djd],-15.083,130.5,#C6DCE7,Mirndi,Yirram,Australia
Jamsay Dogon [djm],14.18,-2.58,#9EC3D6,Niger-Kongo,Dogon,Mali
Jämtska [swe-2],63.5,13,#E6ECEC,Indo-European,Germanic,Sweden
Jamul Tiipay [dih-2],32.17,-116.5,#B6D3E1,Yuman-Cochimi,Yuman,USA
Japanese [jpn],35.16,138.68,#106496,Japonic,Japanese,Japan
Japanese_Iyo [jpn-5],33.75,132.7,#075A8F,Japonic,Japanese,Japan
Japanese_Kagoshima [jpn-2],31.6,130.55,#035289,Japonic,Japanese,Japan
Japanese_Kansai [jpn-4],34.69,135.2,#05568C,Japonic,Japanese,Japan
Japanese_Tohoku [jpn-3],40.82,140.75,#156898,Japonic,Japanese,Japan
Japhug [jya-2],32.1,103.36,#95BED3,Tibeto-Burman,Na-Qiangic,China
Jaqaru [jqr],-12.85,-76,#3C86AC,Aymaran,Jaqaru-Kawki,Peru
Jarai [jra],13.914,107.753,#BE9F60,Malayo-Polynesian,Malayo-Sumbawan,Vietnam
Jarawa [anq],11.55,92.7,#458BB0,Andaman,,India_Andaman-Nicobars
Jarawa [jar],9.9,9.8,#C7AC75,Niger-Kongo,Atlantic-Congo,Nigeria
Jarawara [jap],-8.1,-67,#9EC3D6,Arawá,Madi-Madiha,Brazil
Javanese [jav],-7.5,110.667,#AF893D,Malayo-Polynesian,Javanic,Indonesia-Java
Jebero [jeb],-5.2,-76.4,#DCE8ED,Cahuapanan,,Peru
Jedek [jhi-2],5.3,101.75,#A27622,Austroasiatic,Aslian,Malaysia
Jeh [jeh],15.17,107.83,#C7AC75,Austroasiatic,Bahnaric,Vietnam
Jejara [pzn],25.45,94.95,#DCE8ED,Tibeto-Burman,Kuki-Chin-Naga,Myanmar
Jeju_Korean [jjm],33.51,126.55,#106496,Korean,,Korea
Jero [jee],27.2,86.25,#2E7CA5,Tibeto-Burman,Kiranti,Nepal
Jèrriais [nrf],49.2,-2.15,#DECFAF,Indo-European,Romance,Britain
Jhangvi [skr-2],31,72,#1A6D9C,Indo-European,Indo-Iranian,Pakistan
Ji'an [gan-4],27.13,115,#EDECE5,Tibeto-Burman,Sinitic,China
Jiamao [jio],18.553,109.69,#E2D4B7,Jiamao,,China
Jiangyong Tuhua [xxx-43],25.27,111.34,#E2EBEC,Tibeto-Burman,Sinitic,China
Jiaomuzu [qxs-2],31.9,102.43,#A5C9D9,Tibeto-Burman,Na-Qiangic,China
Jibbali [shv],17.2,54.9,#BE9F60,Afro-Asiatic,Semitic,Oman
Jicarilla [apj],36,-104,#E7DCC5,Dene-Yeniseic,Na-Dene,USA
Jing [vie-3],21.548,107.972,#C4A86E,Austroasiatic,Vietic,China
Jingpho [kac],25.46,97.33,#9EC3D6,Tibeto-Burman,Brahmaputran,Myanmar
Jirel [jul],27.65,86.23,#024E87,Tibeto-Burman,Bodic,Nepal
Jivaro [jiv],-3,-78.25,#1A6D9C,Jivaroan,Shuaric,Ecuador
Jiwarli [djl],-24.11,116.99,#3C86AC,Pama-Nyungan,Kanyara-Mantharta,Australia
Jizhao [onb-2],21.39,110.87,#DCCBA7,Tai-Kadai,Kam-Tai,China
Jomang [tlo],10.58,30.5,#B28E44,Talodi-Heiban,Talodi,Sudan
Jowshaqani [soj-2],33.6,51.23,#BDD7E3,Indo-European,Indo-Iranian,Iran
Jru' [lbo],15.333,106.333,#C7AC75,Austroasiatic,Bahnaric,Laos
Ju|'hoan [ktz],-19,21,#C7AC75,Kx'aa,Ju-Kung,Namibia
Juang [jun],21.167,85.833,#64A1BE,Austroasiatic,Munda,India
Jukun [jbu],6.92,10.42,#DCCBA7,Niger-Kongo,Atlantic-Congo,Nigeria
Jukun_Akum [jbu-2],7.21,10.25,#CFB98B,Niger-Kongo,Atlantic-Congo,Nigeria
Jumaytepeque [xin-3],14.34,-90.26,#9F711B,Xinca,,Guatemala
Juray [juy],19.09,84.12,#75ABC5,Austroasiatic,Munda,India
Juruna [jur],-5.5,-53,#ECE4D3,Tupian,Juruna,Brazil
K'chò [mwq],20.29,94.39,#64A1BE,Tibeto-Burman,Kuki-Chin-Naga,Myanmar
Kabardian [kbd],43.52,43.63,#7DB0C9,Northwest Caucasus,Ubykh-Circassian,Russia
Kabiye [kbp],7,1.15,#C9B07D,Niger-Kongo,Atlantic-Congo,Togo
Kabui [nbu],24.76,93.92,#4C90B3,Tibeto-Burman,Kuki-Chin-Naga,India
Kabyle [kab],36.5,5,#A57B29,Afro-Asiatic,Berber,Algeria
Kachi [gjk],24.4,71.625,#2777A2,Indo-European,Indo-Iranian,India
Kachi_Gujerati [gjk-3],24.3,69.19,#4C90B3,Indo-European,Indo-Iranian,Pakistan
Kadazan [kzj],5.917,117.167,#B28E44,Malayo-Polynesian,North Borneo,Malaysia-Borneo
Kadiwéu [kbc],-20,-57,#A57B29,Guaicuruan,Northern Guaicuruan,Brazil
Kadu [kdv],24.156,94.939,#5496B7,Tibeto-Burman,Brahmaputran,Myanmar
Kadugli [xtc],11,29.67,#D2BD92,Kadugli-Krongo,Central-western Kadugli-Krongo,Sudan
Kaera [xxx-14],-8.38,124.21,#EAEDE9,Timor-Alor-Pantar,Alor-Pantar,Indonesia-NTT
Kagulu [kki],-6.38,37.05,#A57B29,Niger-Kongo,Atlantic-Congo,Tanzania
Kaikadi [kep],18.39,76,#0B5F92,Dravidian,South Dravidian,India
Kaike [kzq],28.9,83.17,#05568C,Tibeto-Burman,Bodic,Nepal
Kaili Ledo [lew],-0.974,119.998,#97660F,Malayo-Polynesian,Celebic,Indonesia-Sulawesi
Kaingang [kgp],-22,-48,#5D9CBB,Macro-Je,Je,Brazil
Kaiping [yue-5],22.38,112.7,#E6ECEC,Tibeto-Burman,Sinitic,China
Kairi [klq],-7.141,144.14,#75ABC5,Papuan Gulf,Kikorian,Papua New Guinea
Kairiru [kxa],-3.417,143.583,#D8C6A0,Oceanic,Western Oceanic,Papua New Guinea
Kakabe [kke],10.6,-11.44,#C6DCE7,Mande,Western Mande,Guinea
Kakchikel [cak],14.47,-90.99,#A27622,Mayan,Core Mayan,Guatemala
Kaki Ae [tbd],-8,145.833,#75ABC5,Trans New Guinea,Eleman,Papua New Guinea
Kakua [cbv],1.08,-70,#20729F,Kakua-Nukak,,Brazil
Kala Lagaw Ya [mwp],-10.12,142.12,#035289,Pama-Nyungan,Torres Strait,Australia
Kalaallisut [kal],64.18,-51.69,#4C90B3,Eskimo-Aleut,Eskimo,Denmark Greenland
Kalam [kmh],-5.25,144.583,#64A1BE,Trans New Guinea,Madang,Papua New Guinea
Kalamang [kgv],-3.6,132.667,#CEE0E9,Trans New Guinea,Bomberai,Indonesia-Papua
Kalami [gwc],35.48,72.59,#5496B7,Indo-European,Indo-Iranian,Pakistan
Kalapalo [kui-2],-12.3,-53.23,#B6D3E1,Cariban,Nahukwa,Brazil
Kalapuya [kyl],44.5,-123,#B5924B,Kalapuyan,,USA
Kalasha [kls],35.73,71.75,#3C86AC,Indo-European,Indo-Iranian,Pakistan
Kaliai-Kove [kvc],-5.667,149.75,#97660F,Oceanic,Western Oceanic,Papua New Guinea-Bismarcks
Kalkatungu [ktg],-21,139.5,#8EBAD0,Pama-Nyungan,Kalkatungic,Australia
Kalkoti [xka],35.37,72.05,#106496,Indo-European,Indo-Iranian,India
Kalmyk [xal],45,47,#0B5F92,Mongolic,Core Mongolic,Russia
Kalo [khz],-10.13,147.95,#E6ECEC,Oceanic,Western Oceanic,Papua New Guinea
Kaluli [bco],-6.417,142.833,#20729F,Trans New Guinea,Bosavi,Papua New Guinea
Kam [kmc],27,104,#CFB98B,Tai-Kadai,Kam-Tai,China
Kamaiurá [kay],-12,-52.67,#A5C9D9,Tupian,Tupi-Guarani,Brazil
Kamang [woi],-8.25,124.833,#EDE7DA,Timor-Alor-Pantar,Alor-Pantar,Indonesia-NTT
Kamas [xas],52,92,#1A6D9C,Uralic,Samoyedic,Russia
Kamasau [kms],-3.83,143.83,#E4D8BE,Torricelli,Marienberg,Papua New Guinea
Kamassian [xas-2],55.07,94.83,#1A6D9C,Uralic,Samoyedic,Russia
Kamba [kam],-2,38,#A57B29,Niger-Kongo,Atlantic-Congo,Kenya
Kambera [xbr],-9.833,120.5,#814500,Malayo-Polynesian,Bima-Lembata,Indonesia-NTT
Kambot [kbx],-4.333,144.133,#3581A9,ApMa,,Papua New Guinea
Kambran [bed],-2.78,132.7,#C9B07D,Malayo-Polynesian,Eastern Malayo-Polynesian,Indonesia-Papua
Kammu_Northern [kjg-2],21.01,101.33,#BE9F60,Austroasiatic,Khmuic,Laos
Kamoro [kgq],-4.333,136,#C6DCE7,Trans New Guinea,Asmat-Kamoro,Indonesia-Papua
Kamrup Barpetiya [asm-2],26.53,91,#20729F,Indo-European,Indo-Iranian,India
Kamu [xmu],-13.583,130.833,#EAEDE9,Eastern Daly,,Australia
Kamula [c],-7.3,142.5,#2E7CA5,Trans New Guinea,Awin-Pa,Papua New Guinea
Kana [ogo],4.75,6.5,#E4D8BE,Niger-Kongo,Atlantic-Congo,Nigeria
Kanakuru [kna],10,12,#C7AC75,Afro-Asiatic,Chadic,Nigeria
Kanamarí [knm],-6.45,-68.77,#EDE7DA,Harakmbet,Katukina,Brazil
Kanashi [xns],32,77.55,#20729F,Tibeto-Burman,Western Himalayan,India
Kanasi [soq],-10.119,149.706,#C6DCE7,Southeast Papuan,Dagan,Papua New Guinea
Kangri [xnr],31.5,77,#1A6D9C,Indo-European,Indo-Iranian,India
Kanikkara [kev],8.44,77.25,#05568C,Dravidian,South Dravidian,India
Kaninuwa [ddi],-9.2,150.21,#C9B07D,Oceanic,Western Oceanic,Papua New Guinea
Kannada [kan],15,76,#156898,Dravidian,South Dravidian,India
Kannada_Bidar [kan-2],17.8,77.15,#1A6D9C,Dravidian,South Dravidian,India
Kannada_Havyaka [kan-3],13.93,75.57,#075A8F,Dravidian,South Dravidian,India
Kanoê [kxo],-12.5,-62.25,#DCE8ED,Kanoê,,Brazil
Kanum [kcd],-8.583,140.75,#6DA6C2,South New Guinea,West Morehead,Indonesia-Papua
Kanuri [knc],11.25,14.25,#C6DCE7,Nilo-Saharan,Saharan,Cameroon
Kapampangan [pam],15.333,120.5,#97660F,Malayo-Polynesian,Philippines,Philippines
Kapau [hmt],-7.667,146.167,#85B5CC,Trans New Guinea,Morobe-Eastern Highlands,Papua New Guinea
Kapingamarangi [kpg],1,155,#D8C6A0,Oceanic,Central Pacific,USA Federated States of Micronesia
Kara [kah],9,24,#E4D8BE,Nilo-Saharan,Central Sudanic,Central African Republic
Kara [kxh],5.21,36.17,#1A6D9C,Afro-Asiatic,Omotic,Ethiopia
Karachay-Balkar [krc],44,42,#024E87,Turkic,Common Turkic,Russia
Karaim [kdr],54.63,24.93,#9EC3D6,Turkic,Common Turkic,Lithuania
Karajá [kpj],-10,-50.2,#CEE0E9,Macro-Je,Karaja,Brazil
Karajarri [gbd],-18.5,122.5,#3581A9,Pama-Nyungan,Marngu,Australia
Karakalpak [kaa],43,60,#075A8F,Turkic,Common Turkic,Uzbekistan
Karankawa [zkk],28.91,-96.49,#DCE8ED,Karankawa,,USA
Karbi [mjw],26.2,93.5,#3C86AC,Tibeto-Burman,Kuki-Chin-Naga,India
Karelian [krl],63,32,#85B5CC,Uralic,Finnic,Russia
Karen [bwe],17,98,#D2BD92,Tibeto-Burman,Karen,Myanmar
Karen_Geba [kvq],19.02,96.58,#D2BD92,Tibeto-Burman,Karen,Myanmar
Karen_Pho [pwo],14.333,98.3,#DCCBA7,Tibeto-Burman,Karen,Myanmar
Karen_Pho_Kyonbyaw [pwo-2],17.6,95.2,#B89652,Tibeto-Burman,Karen,Myanmar
Karen_Pwo_Omkoi [pwo-3],17.8,98.36,#CDB583,Tibeto-Burman,Karen,Thailand
Karen_Pwo_West-Central Thailand [pwo-4],14.72,99.07,#CDB583,Tibeto-Burman,Karen,Thailand
Karen_Sgaw [ksw],16.9,94.9,#D5C199,Tibeto-Burman,Karen,Myanmar
Karhadi [mal-3],12.5,75,#05568C,Dravidian,South Dravidian,India
Karii [xxx-21],17.917,105.5,#BE9F60,Austroasiatic,Vietic,Laos
Karimojong [kdj],3,34.17,#905C06,Nilo-Saharan,Eastern Sudanic,Uganda
Karirí_Dzubukua [kzw],-10,-37,#C9B07D,Karirí,,Brazil
Karitiána [ktn],-4,-64,#E9E0CD,Tupian,Arikem,Brazil
Karkar-Yuri [yuj],-3.75,141.083,#3581A9,Trans New Guinea,Karkar-Yuri,Papua New Guinea
Karko [adi-6],28,94.8,#1A6D9C,Tibeto-Burman,Macro-Tani,India
Káro [arr],-9,-62.25,#C6DCE7,Tupian,Ramarama,Brazil
Karok [kyh],41.67,-123,#E6ECEC,Karok,,USA
Kashmiri [kas],34,76,#6DA6C2,Indo-European,Indo-Iranian,India
Kaska [kkz],60.05,-128.7,#EDECE5,Dene-Yeniseic,Na-Dene,Canada
Kasong [cog],12.58,102.53,#BA9A59,Austroasiatic,Pearic,Thailand
Kasua [khs],-6.513,143.005,#2E7CA5,Trans New Guinea,Bosavi,Papua New Guinea
Katcha [xtc-2],10.83,29.67,#AC8536,Kadugli-Krongo,Central-western Kadugli-Krongo,Sudan
Kate [kmg],-6.5,147.833,#64A1BE,Trans New Guinea,Morobe-Eastern Highlands,Papua New Guinea
Kati_North [yon],-5.5,141,#75ABC5,Trans New Guinea,Ok-Oksapmin,Indonesia-Papua
Katla [kcr],11.9,29.2,#C1A467,Katla-Tima,Katla-Julud,Sudan
Kattunaicka [xuj],11.503,76.581,#05568C,Dravidian,South Dravidian,India
Katu [ktv],15.833,107.583,#C1A467,Austroasiatic,Katuic,Vietnam
Katukína [kav],-3.584978,-66.525275,#EAEDE9,Katukinan,,Brazil
Kaugel [ubu],-5.95,144.167,#3C86AC,Trans New Guinea,Chimbu-Wahgi,Papua New Guinea
Kaulong [pss],-6.25,150.5,#BE9F60,Oceanic,Western Oceanic,Papua New Guinea-Bismarcks
Kaure [bpp],-3.333,139.333,#5496B7,Nawa River,Kaure,Indonesia-Papua
Kaurna [zku],-33.5,138.75,#0B5F92,Pama-Nyungan,Thura-Yura,Australia
Kavaras [mal-2],10.8,76.65,#035289,Dravidian,South Dravidian,India
Kawaiisu [xaw],36,-117.5,#9EC3D6,Uto-Aztecan,Numic,USA
Kayah Lahta [eky-3],19.55,97.15,#DECFAF,Tibeto-Burman,Karen,Myanmar
Kayah Li [eky],19.89,98.34,#E2D4B7,Tibeto-Burman,Karen,Myanmar
Kayah Monu [eky-2],19.167,97.159,#CFB98B,Tibeto-Burman,Karen,Myanmar
Kayan Lahta [kvt],20.18,97.38,#D2BD92,Tibeto-Burman,Karen,Myanmar
Kayardild [gyd],-17.05,139.5,#3581A9,Tangkic,Southern Tangkic,Australia
Kaytetye [gbb],-22,135.5,#4C90B3,Pama-Nyungan,Arandic,Australia
Kazakh [kaz],50,70,#0B5F92,Turkic,Common Turkic,Kazakhstan
Kedang [ksx],-8.25,123.75,#AC8536,Malayo-Polynesian,Bima-Lembata,Indonesia-NTT
Kei [kei],-5.67,133.08,#BA9A59,Malayo-Polynesian,Kei,Indonesia-Maluku-south
Keiga [kec],11.23,29.68,#C9B07D,Kadugli-Krongo,Keiga,Sudan
Kelabit [kzi],3.736,115.468,#A27622,Malayo-Polynesian,North Borneo,Malaysia-Borneo
Kele [khy],0.37,24.31,#A88030,Niger-Kongo,Atlantic-Congo,Democratic Republic of the Congo
Kele [sbc],-2.083,147.333,#BA9A59,Oceanic,Admiralties,Papua New Guinea-Bismarcks
Kemak [kem],-8.92,125.2,#C7AC75,Malayo-Polynesian,Central Timor,Timor leste
Kenga [kyq],12,18,#E4D8BE,Nilo-Saharan,Central Sudanic,Chad
Kensiw [kns],6.034,100.998,#C7AC75,Austroasiatic,Aslian,Malaysia
Kenta' Bong [knq],6.235,100.84,#BA9A59,Austroasiatic,Aslian,Malaysia
Kéo [xxk],-8.83,121.25,#C7AC75,Malayo-Polynesian,Bima-Lembata,Indonesia-NTT
Kera [ker],9.83,15.08,#D8C6A0,Afro-Asiatic,Chadic,Chad
Keraq [unr-2],24,85.2,#5496B7,Austroasiatic,Munda,India
Kerek [krk],62.25,175,#6DA6C2,Chukotko-Kamchatkan,Main Chukotko-Kamchatkan,Russia
Kerinci [kvr],-2.15,101.5,#D5C199,Malayo-Polynesian,Malayo-Sumbawan,Indonesia-Sumatra
Kerinci_Pondok Tinggi [kvr-2],-2.066,101.394,#AC8536,Malayo-Polynesian,Malayo-Sumbawan,Indonesia-Sumatra
Kermani [pes-3],31.27,56.81,#DCE8ED,Indo-European,Indo-Iranian,Iran
Kesui [wah],-4.5,131.667,#BE9F60,Malayo-Polynesian,Central Maluku,Indonesia-Maluku-south
Ket [ket],64,87,#E9E0CD,Dene-Yeniseic,Yeniseic,Russia
Keuw [khh],-3.2,136.2,#9EC3D6,Keuw,,Indonesia-Papua
Kewa [kew],-6.333,143.75,#458BB0,Trans New Guinea,Engan,Papua New Guinea
Khakas [kjh],53,90,#075A8F,Turkic,Common Turkic,Russia
Khalaj [klj],35,50,#2777A2,Turkic,Common Turkic,Iran
Khaling [klr],27.6,86.7,#6DA6C2,Tibeto-Burman,Kiranti,Nepal
Khalkha [khk],47,108,#05568C,Mongolic,Core Mongolic,Mongolia
Kham [kgj],28.5,82.75,#3C86AC,Tibeto-Burman,Kham,Nepal
Khamti [kht],26.5,96.4,#BE9F60,Tai-Kadai,Kam-Tai,Myanmar
Khanty [kca],64,69,#75ABC5,Uralic,Khantyic,Russia
Khargi [luz],29.25,50.31,#E7DCC5,Indo-European,Indo-Iranian,Iran
Kharia [khr],22.5,83.5,#4C90B3,Austroasiatic,Munda,India
Khasi [kha],26,92,#DECFAF,Austroasiatic,Khasi-Palaung,India
Khatri [guj-2],15.36,75.09,#2777A2,Indo-European,Indo-Iranian,India
Khengkha [xkf],27.28,90.75,#05568C,Tibeto-Burman,Bodic,Bhutan
Khezha [nkh],25.7,94.46,#075A8F,Tibeto-Burman,Kuki-Chin-Naga,India
Khmer [khm],12.05,105.02,#C7AC75,Austroasiatic,Khmer,Cambodia
Khmer_Surin [kxm],15,103.75,#C9B07D,Austroasiatic,Khmer,Thailand
Khmu' [kjg],19,100.75,#BE9F60,Austroasiatic,Khmuic,Thailand
Khorasani_Arabic [abh-2],35.86,59.14,#ECE4D3,Afro-Asiatic,Semitic,Iran
Khowar [khw],36.5,72.5,#1A6D9C,Indo-European,Indo-Iranian,Pakistan
Khroskyabs_Siyuewu [jiq-2],31.754,101.42,#8EBAD0,Tibeto-Burman,Na-Qiangic,China
Khroskyabs_Wobzi [jiq],31.57,101.93,#3C86AC,Tibeto-Burman,Na-Qiangic,China
Khuri [xxx-40],33.775,55.085,#CEE0E9,Indo-European,Indo-Iranian,Iran
Khwarshi [khv],42.27,46,#106496,Nakh-Daghestanian,Tsezic,Russia
Kickapoo [kic],41.94,-83.734,#CDB583,Algic,Algonquian,USA
Kienyang [cdo-2],27.35,118.15,#EDE7DA,Tibeto-Burman,Sinitic,China
Kija [gia],-17.5,127.75,#D5E4EB,Jarrakan,,Australia
Kikaonde [kqn],-12.41,25.76,#B28E44,Niger-Kongo,Atlantic-Congo,Zambia
Kikongo [kng],-5,16.8,#9A6B16,Niger-Kongo,Atlantic-Congo,Democratic Republic of the Congo
Kildin_Sami [sjd],67.67,35.9,#5D9CBB,Uralic,Sami,Russia
Kilivila [kij],-8.5,151,#8A5201,Oceanic,Western Oceanic,Papua New Guinea
Kiliwa [klb],31.33,-115.67,#9EC3D6,Yuman-Cochimi,Yuman,USA
Kiluba [lub],-8.5,26,#A27622,Niger-Kongo,Atlantic-Congo,Democratic Republic of the Congo
Kim Mun [mji],18.685,109.575,#DCCBA7,Hmong-Mien,Mienic,China
Kim Mun_Funing [mji-2],23.63,105.63,#E9E0CD,Hmong-Mien,Mienic,China
Kimaama [kig],-8,138.883,#C6DCE7,Trans New Guinea,Kayagar-Kolopom,Indonesia-Papua
Kinga [zga],-9.36,34.23,#B28E44,Niger-Kongo,Atlantic-Congo,Kenya
Kinikinao [gqn],-19.9891,-57.028,#B89652,Arawak,Southern Maipuran,Brazil
Kinimayo [kyk],8.11,126.31,#AF893D,Malayo-Polynesian,Philippines,Philippines
Kinnauri [kfk],31.5,78.25,#3581A9,Tibeto-Burman,Western Himalayan,India
Kinnauri Pahari [kjo],31.78,77.06,#20729F,Indo-European,Indo-Iranian,India
KinyaRwanda [kin],-2,30,#94610A,Niger-Kongo,Atlantic-Congo,Rwanda
Kiowa [kio],37,-99,#D5E4EB,Kiowa-Tanoan,Kiowa,USA
Kiput [kyi],4.083,114.355,#AC8536,Malayo-Polynesian,North Borneo,Malaysia-Borneo
Kire [geb],-4.417,144.75,#5496B7,Lower Sepik-Ramu,Ramu,Papua New Guinea
Kiribati [gil],1.333,173,#814500,Oceanic,Micronesian,Kiribati
Kirya [fkk],10.48,13.36,#D8C6A0,Afro-Asiatic,Chadic,Cameroon
KiSamba [hum],-4.7,18.13,#A27622,Niger-Kongo,Atlantic-Congo,Democratic Republic of the Congo
Kisan [kxl-2],22.12,84.02,#458BB0,Dravidian,North Dravidian,India
Kĩsêdjê [suy-2],-11.52,-53.07,#75ABC5,Macro-Je,Je,Brazil
Kisi [kiz],-9.93,34.48,#AC8536,Niger-Kongo,Atlantic-Congo,Tanzania
Kisi [kss],8.57,-10.13,#CDB583,Niger-Kongo,Atlantic-Congo,Guinea
Kitaabwa [tap],-7.91,29.52,#AF893D,Niger-Kongo,Atlantic-Congo,Zambia
Kitanemuk [xxx-13],34.5,-117.5,#CEE0E9,Uto-Aztecan,Serran Uto-Aztecan,USA
Kituba [ktu],-5.047,18.812,#C9B07D,Niger-Kongo,Atlantic-Congo,Democratic Republic of the Congo
Kiwai [kjd],-8.583,143.25,#BDD7E3,Kiwaian,Southern Kiwai,Papua New Guinea
Kiwai-Urama [kiw],-7.6,144.62,#AECEDD,Kiwaian,Northeast Kiwai,Papua New Guinea
Klallam [clm],48.14,-123.57,#A57B29,Salish,Coastal Salish,USA
Klamath [kla],42.5,-121.5,#EDE7DA,Klamath-Modoc,,USA
Klao [klu],4.75,-8.75,#EDEAE0,Niger-Kongo,Atlantic-Congo,Liberia
Klon [kyo],-8.417,124.417,#D8C6A0,Timor-Alor-Pantar,Alor-Pantar,Indonesia-NTT
Kman [mxj-2],28.16,96.525,#6DA6C2,Tibeto-Burman,Keman-Meyor,India
Koasati [cku],34.83,-85.17,#A5C9D9,Muskogean,Alabama-Koasati,USA
Kobon [kpw],-5.167,144.417,#8EBAD0,Trans New Guinea,Madang,Papua New Guinea
Koch_Harigaya [kdq],25.45,89.93,#20729F,Tibeto-Burman,Brahmaputran,India
Kodagu [kfa],13.08,76.42,#035289,Dravidian,South Dravidian,India
Kogi [kog],11,-73.9,#6DA6C2,Chibchan,Core Chibchan,Colombia
Koho [kpm-2],11.667,108,#C1A467,Austroasiatic,Bahnaric,Vietnam
Koiali_Mountain [kpx],-9.083,147.5,#5496B7,Southeast Papuan,Owen Stanley Ranges,Papua New Guinea
Koiari [kbk],-9.5,147.333,#75ABC5,Southeast Papuan,Owen Stanley Ranges,Papua New Guinea
Koita [kqi],-9.333,147.083,#75ABC5,Southeast Papuan,Owen Stanley Ranges,Papua New Guinea
Koiwai [kwh],-4,134,#C1A467,Malayo-Polynesian,Southeast Maluku,Indonesia-Papua
Kokborok [trp],24.33,92.5,#0B5F92,Tibeto-Burman,Brahmaputran,India
Kokota [kkk],-8,159.25,#A57B29,Oceanic,Western Oceanic,Solomons
Kol [biw],3.66,12.86,#C4A86E,Niger-Kongo,Atlantic-Congo,Cameroon
Kola [kvv],-5.42,134.5,#AC8536,Malayo-Polynesian,Southeast Maluku,Indonesia-Maluku-south
Kolami [kfb],20,78.5,#0B5F92,Dravidian,Central Dravidian,India
Kolana [kvw],-8.3,125.133,#EAEDE9,Timor-Alor-Pantar,Alor-Pantar,Indonesia-NTT
Kolokuma [ijc],4.92,5.67,#64A1BE,Ijoid,Ijo,Nigeria
Koluwawa [klx],-9.418,150.437,#CFB98B,Oceanic,Western Oceanic,Papua New Guinea
Kom [kmm],24.87,94.53,#5D9CBB,Tibeto-Burman,Kuki-Chin-Naga,India
Komba [kpf],-6.137,147.281,#458BB0,Trans New Guinea,Morobe-Eastern Highlands,Papua New Guinea
Kombai [tyn],-5.75,140,#8EBAD0,Trans New Guinea,Awyu-Dumut,Indonesia-Papua
Kombio [xbi],-3.5,142.77,#C7AC75,Torricelli,Urim,Papua New Guinea
Komi [koi],59.5,54.5,#106496,Uralic,Permic,Russia
Komi-Zyrian [kpv],65,55,#4C90B3,Uralic,Permic,Russia
Komnzo [tci],-8.618,141.55,#75ABC5,South New Guinea,East Morehead,Papua New Guinea
Komo [bhy],-0.76,26.71,#A27622,Niger-Kongo,Atlantic-Congo,Democratic Republic of the Congo
Komo [xom],9,33.75,#BA9A59,Nilo-Saharan,Koman,South Sudan
Komodo [knh],-8.5,119.5,#97660F,Malayo-Polynesian,Bima-Lembata,Indonesia-NTT
Konai [kxw],-5.655,142.07,#7DB0C9,Papuan Gulf,Strickland,Papua New Guinea
Konda [kfc],19.5,83,#156898,Dravidian,South-Central Dravidian,India
Kongo-Matadi [kng-2],-5.82,13.48,#9F711B,Niger-Kongo,Atlantic-Congo,Democratic Republic of the Congo
Konjo [kjc],-5.333,119.833,#8D5704,Malayo-Polynesian,Greater South Sulawesi,Indonesia-Sulawesi
Konkani [knn],15.25,74.4,#2E7CA5,Indo-European,Indo-Iranian,India
Konkomba [xon],9.408,0.431,#D2BD92,Niger-Kongo,Atlantic-Congo,Ghana
Konkow [nmu-2],39.7,-121.52,#2E7CA5,Maiduan,Northwest Maidu,USA
Konni [kma],10.24,-1.54,#D2BD92,Niger-Kongo,Atlantic-Congo,Ghana
Kono [knu],7.85,-8.26,#E6ECEC,Mande,Western Mande,Liberia
Konso [kxc],5.4,37.5,#95BED3,Afro-Asiatic,Cushitic,Ethiopia
Konyak_Wakching [nbe],26.702,94.896,#3581A9,Tibeto-Burman,Brahmaputran,India
Koozime [ozm],2.617,14.017,#B5924B,Niger-Kongo,Atlantic-Congo,Cameroon
Korafe [kpr],-9.08,149.17,#5496B7,Trans New Guinea,Oro-Wharton,Papua New Guinea
Koraga [kfd],12.888,75.282,#106496,Dravidian,South Dravidian,India
Korana [kqz],-26,22,#DCE8ED,Khoe,Khoe,Botswana
Korean [kor],37,128,#20729F,Korean,,Korea
Koreguaje [coe],1,-75.5,#9EC3D6,Tucanoan,West Tucanoan,Colombia
Korku [kfq],25,78.5,#5496B7,Austroasiatic,Munda,India
Koro [hru],27.25,92.8,#035289,Tibeto-Burman,Macro-Tani,India
Koromfe [kfz],14.25,-0.92,#C9B07D,Niger-Kongo,Atlantic-Congo,Burkina Faso
Koroshi [ktl],28,58,#2777A2,Indo-European,Indo-Iranian,Iran
Korowai [khe],-5.417,140.45,#5496B7,Trans New Guinea,Awyu-Dumut,Indonesia-Papua
Koryak [kpy],63.9,166.8,#A5C9D9,Chukotko-Kamchatkan,Main Chukotko-Kamchatkan,Russia
Kosraean [kos],5.3,163,#AC8536,Oceanic,Micronesian,USA Federated States of Micronesia
Kotiria [gvc-2],0.5,-69.3,#2777A2,Tucanoan,East Tucanoan,Brazil
Kouya [kyf],7.27,-6.57,#EDEAE0,Niger-Kongo,Atlantic-Congo,Côte d'Ivoire
Kouzie [nwb],7.01,-6.51,#E9E0CD,Niger-Kongo,Atlantic-Congo,Côte d'Ivoire
Koya [kff],17.5,81.333,#075A8F,Dravidian,South-Central Dravidian,India
Koyi [kkt],27.4,86.9,#6DA6C2,Tibeto-Burman,Kiranti,Nepal
Koyra Chiini [khq],16.75,3.5,#E4D8BE,Nilo-Saharan,Songhai,Mali
Koyukon [koy],65,-155,#DCE8ED,Dene-Yeniseic,Na-Dene,USA-Alaska
Kpa' [ksf],4.751,11.231,#B89652,Niger-Kongo,Atlantic-Congo,Cameroon
Kpelle [xpe],7,-10,#D8C6A0,Mande,Western Mande,Liberia
Krahô [xra],-8,-48,#BDD7E3,Macro-Je,Je,Brazil
Krongo [kgo],10.5,30,#C9B07D,Kadugli-Krongo,Central-western Kadugli-Krongo,Sudan
Kryts_Alik [kry],41.22,48.25,#2777A2,Nakh-Daghestanian,Lezgic,Russia
Ku Waru [mux],-6,144.15,#3581A9,Trans New Guinea,Chimbu-Wahgi,Papua New Guinea
Kube [kgf],-6.444,147.515,#A5C9D9,Trans New Guinea,Morobe-Eastern Highlands,Papua New Guinea
Kuhpayi [mzn],32.715,52.44,#E2EBEC,Indo-European,Indo-Iranian,Iran
Kui [kvd],-8.39,124.67,#EDE7DA,Timor-Alor-Pantar,Alor-Pantar,Indonesia-NTT
Kui [kxu],20,83.5,#106496,Dravidian,South-Central Dravidian,India
Kui Ntua [kdt-2],13.85,105.04,#B28E44,Austroasiatic,Katuic,Cambodia
Kuikuro [kui],-13,-54.2,#D2BD92,Cariban,Nahukwa,Brazil
Kujireray [bqj],12.53,-16.42,#A57B29,Niger-Kongo,Atlantic-Congo,Senegal
Kukatj [ggd],-17.95,140.8,#458BB0,Pama-Nyungan,Paman,Australia
Kuke [ght],28.508,84.863,#4C90B3,Tibeto-Burman,Kuke,Nepal
Kuku Nganhcara [wua],-14.8,141.9,#5D9CBB,Pama-Nyungan,Paman,Australia
Kuku Yalanji [gvn],-16,145,#2E7CA5,Pama-Nyungan,Paman,Australia
Kula [tpg-2],-8.24,125,#EDECE5,Timor-Alor-Pantar,Alor-Pantar,Indonesia-NTT
Kulisusu [vkl],-4.67,123.08,#94610A,Malayo-Polynesian,Celebic,Indonesia-Sulawesi
Kullu [kfx],31.96,77.11,#0B5F92,Indo-European,Indo-Iranian,India
Kumam [laj-2],1.75,33.21,#8A5201,Nilo-Saharan,Eastern Sudanic,Uganda
Kuman [kue],-5.917,144.917,#3C86AC,Trans New Guinea,Chimbu-Wahgi,Papua New Guinea
Kumauni [kfy],30,80,#106496,Indo-European,Indo-Iranian,India
Kumyk [kum],42.6,47.8,#05568C,Turkic,Common Turkic,Russia
Kumzari [zum],26,56.3,#D5C199,Indo-European,Indo-Iranian,Oman
Kuna [kvn],8,-77.33,#64A1BE,Chibchan,Core Chibchan,Panama
Kunama [kun],14.5,37,#95BED3,Nilo-Saharan,Kunama,Eritrea
Kundal Shahi [shd],34.55,73.84,#20729F,Indo-European,Indo-Iranian,Pakistan
Kungkari [kgl],-22.8,144,#75ABC5,Pama-Nyungan,Pirriya-Kungkari,Australia
Kunimaipa [kup],-8.083,146.917,#458BB0,Trans New Guinea,Oro-Wharton,Papua New Guinea
Kunjen [kjn],-16.5,142,#1A6D9C,Pama-Nyungan,Paman,Australia
Kuot [kto],-3.083,151.5,#8A5201,Kuot,,Papua New Guinea-Bismarcks
Kupang Malay [mkn],-10.18,123.58,#C9B07D,Malayo-Polynesian,Malayo-Sumbawan,Indonesia-NTT
Kupia [ori-2],16.47,79.52,#106496,Indo-European,Indo-Iranian,India
Kurbet [rmt-2],35.125,33.942,#1A6D9C,Indo-European,Indo-Iranian,Cyprus
Kurdish [kur],36,44,#B6D3E1,Indo-European,Indo-Iranian,Iraq
Kuria [kuj],-1.345,34.383,#9A6B16,Niger-Kongo,Atlantic-Congo,Tanzania
Kurmanji [kmr],38,42,#9EC3D6,Indo-European,Indo-Iranian,Turkey
Kurmuk [bdi],10.55,34.28,#CFB98B,Nilo-Saharan,Eastern Sudanic,Uganda
Kurrama [vku],-22.21,117.51,#458BB0,Pama-Nyungan,Ngayarda,Australia
Kurtöp [xkz],27.83,91,#014682,Tibeto-Burman,Bodic,Bhutan
Kurudu [kjr],-1.83,137,#C1A467,Malayo-Polynesian,Eastern Malayo-Polynesian,Indonesia-Papua
Kurumba [kfi],11.784,76.2,#106496,Dravidian,South Dravidian,India
Kurux [kxl],26.5,87.35,#3C86AC,Dravidian,North Dravidian,Nepal
Kusaal [kus],10.891,-0.363,#C1A467,Niger-Kongo,Atlantic-Congo,Ghana
Kusunda [kgg],28.33,83.1,#85B5CC,Kusunda,,Nepal
Kutai Malay [vkt],-0.3,116.53,#A88030,Malayo-Polynesian,Malayo-Sumbawan,Malaysia-Borneo
Kutenai [kut],49.5,-116,#AC8536,Kutenai,,Canada
Kuuk Thaayorre [thd],-14,142.25,#64A1BE,Pama-Nyungan,Paman,Australia
Kuuku Ya'u [kuy],-12.583,143.083,#20729F,Pama-Nyungan,Paman,Australia
Kuvi [kxv],18.75,82.667,#106496,Dravidian,South-Central Dravidian,India
Kuy [kdt],14.833,103.917,#C9B07D,Austroasiatic,Katuic,Thailand
Kven [fkv],69.27,19.96,#9EC3D6,Uralic,Finnic,Norway
Kwadi [kwz],-15,14.5,#3C86AC,Khoe,Kwadi,Angola
Kwaio [kwd],-8.917,161.083,#A27622,Oceanic,Southeast Solomonic,Solomons
Kwakum [kwu],4.24,13.45,#C9B07D,Niger-Kongo,Atlantic-Congo,Cameroon
Kwakw'ala [kwk],51,-127,#CDB583,Wakashan,North Wakashan,Canada
Kwamera [tnk],-19.649,169.445,#C4A86E,Oceanic,Southern Oceanic,Vanuatu
Kwangari [kwn],-18.5,20,#AF893D,Niger-Kongo,Atlantic-Congo,Namibia
Kwanyama [kua],-17.72,16.58,#A57B29,Niger-Kongo,Atlantic-Congo,Namibia
Kwara'ae [kwf],-8.65,160.744,#9F711B,Oceanic,Southeast Solomonic,Solomons
Kwarandzyey [kcy],29.405,-3.255,#AF893D,Nilo-Saharan,Songhai,Algeria
Kwaza [xwa],-12,-60.5,#BDD7E3,Kwaza,,Brazil
Kwerba [kwe],-2.167,138.5,#5D9CBB,Tor-Kwerba,West Foya Range,Indonesia-Papua
Kwere [cwe],-6.51,38.44,#A57B29,Niger-Kongo,Atlantic-Congo,Tanzania
Kwini [gww],-14.333,126.75,#ECE4D3,Worrorran,Northern Worrorran,Australia
Kwomtari [kwo],-3.635,141.398,#6DA6C2,Kwomtari,,Papua New Guinea
Kyaka_Enga [kyc],-5.5,144.083,#3581A9,Trans New Guinea,Engan,Papua New Guinea
Kyirong_Tibetan [bod-3],28.4,85.2,#024E87,Tibeto-Burman,Bodic,China
Kyrgyz [kir],42,75,#075A8F,Turkic,Common Turkic,Kyrgystan
Laal [gdm],10,17.67,#C9B07D,Laal,,Chad
Laboya [lmy],-9.747,119.365,#9A6B16,Malayo-Polynesian,Bima-Lembata,Indonesia-NTT
Labu [lbu],-6.772,146.955,#CDB583,Oceanic,Western Oceanic,Papua New Guinea
Lachi [lbt],23.123,104.703,#CFB98B,Tai-Kadai,Kadaic,China
Ladakhi [lbj],34,78,#034984,Tibeto-Burman,Bodic,India
Ladin [lld],46.68,11.9,#EDE7DA,Indo-European,Romance,Italy
Laguna [kjq],35.25,-107.33,#E7DCC5,Keresan,Western Keresan,USA
Lahu [lhu],20.75,100.75,#B6D3E1,Tibeto-Burman,Lolo-Burmese,Myanmar
Laiwu [cmn-15],36.21,117.68,#E6ECEC,Tibeto-Burman,Sinitic,China
Lak [lbe],42.17,47.11,#3C86AC,Nakh-Daghestanian,Lak-Dargwa,Russia
Lakhota [lkt],45,-102,#D5C199,Siouan,Western Siouan,USA
Lakkia [lbc],24.08,110.17,#CFB98B,Tai-Kadai,Kam-Tai,China
Lala-Bisa [leb],-12.95,30.23,#AC8536,Niger-Kongo,Atlantic-Congo,Zambia
Lalo [yik],25.335,99.78,#9EC3D6,Tibeto-Burman,Lolo-Burmese,China
Lamaholot [slp],-8.25,123,#D2BD92,Malayo-Polynesian,Bima-Lembata,Indonesia-NTT
Lamani [lmn],19,76.5,#3581A9,Indo-European,Indo-Iranian,India
Lamba [lam],-13,28,#A88030,Niger-Kongo,Atlantic-Congo,Zambia
Lamjung_Yohlmo [scp-2],28.33,84.42,#075A8F,Tibeto-Burman,Bodic,Nepal
Lamkang [lmk],24.15,94.27,#64A1BE,Tibeto-Burman,Kuki-Chin-Naga,India
Lamma [lev],-8.409,124.007,#E7DCC5,Timor-Alor-Pantar,Alor-Pantar,Indonesia-NTT
Lamnso [lns],6.159,10.769,#EAEDE9,Niger-Kongo,Atlantic-Congo,Cameroon
Lampung [ljp],-5,105,#B28E44,Malayo-Polynesian,Lampungic,Indonesia-Sumatra
Lango [laj],2,33,#9F711B,Nilo-Saharan,Eastern Sudanic,Uganda
Lani [dnw],-3.75,138.2,#7DB0C9,Trans New Guinea,Western Trans New Guinea,Indonesia-Papua
Lao [lao],19,103,#DCCBA7,Tai-Kadai,Kam-Tai,Laos
Laomian [lwm],21.95,100.1,#8EBAD0,Tibeto-Burman,Lolo-Burmese,China
Laragia [lrg],-12.667,130.833,#D5C199,Darwin,,Australia
Larantuka Malay [lrt],-8.33,123,#DECFAF,Malayo-Polynesian,Malayo-Sumbawan,Indonesia-NTT
Lardil [lbz],-16.5,139.5,#6DA6C2,Tangkic,Lardil,Australia
Larëvat [lrv],-16.152,167.361,#AC8536,Oceanic,Southern Oceanic,Vanuatu
Larike [alo],-3.783,127.917,#AF893D,Malayo-Polynesian,Central Maluku,Indonesia-Maluku-north
Lashi [lsi],26.05,98.5,#6DA6C2,Tibeto-Burman,Lolo-Burmese,Myanmar
Latege [teg],-1.62,14.87,#C9B07D,Niger-Kongo,Atlantic-Congo,Congo
Latgalian [ltg],56.5,27.5,#64A1BE,Indo-European,Balto-Slavic,Latvia
Latvian [lav],56.8,24.1,#BDD7E3,Indo-European,Balto-Slavic,Latvia
Lau [llu],-8.5,160.92,#844900,Oceanic,Southeast Solomonic,Solomons
Lavonggai [lcm-2],-2.58,150.33,#A88030,Oceanic,Western Oceanic,Papua New Guinea-Bismarcks
Lavukaleve [lvk],-9,159,#BDD7E3,Solomons East Papuan,,Solomons
Laz [lzz],41.274,41.151,#4C90B3,Kartvelian,Zan,Turkey
