name,latitude,longitude,color,family,subgroup,country
!Xoon [nmn],-24,21.5,#EAEDE9,Tuu ,Hua,Botswana
||Ana [gnk-2],-22.2,22.4,#EAEDE9,Khoe ,Khoe,Botswana
||Ani [hnh],-19.3,22.5,#E4D8BE,Khoe ,Khoe,Botswana
||Gana [gnk],-19,22.5,#E4D8BE,Khoe ,Khoe,Botswana
||Xekwi [xeg],-23,22,#EAEDE9,Tuu ,!Kwi,Botswana
|Gwi [gwj],-22.435,21.654,#E4D8BE,Khoe ,Khoe,Botswana
|Xam [xam],-30.34,21.82,#EAEDE9,Tuu ,/Xam,South Africa
A'iwa [ash],-2,-74.5,#E4D8BE,A'iwa ,,Peru
A'jië [aji],-21.342,165.459,#A77D2B,Oceanic,Southern Oceanic,New Caledonia
Aari [aiw],6,36.6,#EAEDE9,Afro-Asiatic ,Omotic,Ethiopia
Abanyom [abm],6.499,8.647,#D2BD91,Niger-Kongo ,Atlantic-Congo,Nigeria
Abar [mij-3],6.59,10.26,#C2A56B,Niger-Kongo ,Atlantic-Congo,Cameroon
Abau [aau],-4,141.167,#C2A56B,Sepik ,Abau,Papua New Guinea
Abawiri [flh],-3.05,139.21,#E4D8BE,Lakes Plains ,Eastern Lakes Plains,Indonesia-Papua
Abaza [abq],44.34,41.67,#095D91,Northwest Caucasus ,Abaza-Abkhaz,Russia
Abduyi [pes-4],29.7,52.07,#E4D8BE,Indo-European ,Indo-Iranian,Iran
Abelam [abt-2],-3.83,143.17,#619EBD,Ndu ,Nuclear Ndu,Papua New Guinea
Abellen [abp],15.41,120.2,#EAEDE9,Malayo-Polynesian,Philippines,Philippines
Abenaki_Western [abe],44,-72.25,#EAEDE9,Algic ,Algonquian,USA
Aberdeenshire_English [sco-3],57.3,-2,#B49149,Indo-European ,Germanic,Britain-Scotland
Abidji [abi],5.66,-4.58,#C2A56B,Niger-Kongo ,Atlantic-Congo,Côte d'Ivoire
Abinomn [bsa],-3,138.8,#EAEDE9,Abinomn ,,Indonesia-Papua
Abipon [axb],-26,-61,#EAEDE9,Guaicuruan ,Southern Guaicuruan,Argentina
Abkhaz [abk],43,41.03,#095D91,Northwest Caucasus ,Abaza-Abkhaz,Abkhazia
Abkhaz_Bzyp [ady-13],43.32,40.41,#095D91,Northwest Caucasus ,Abaza-Abkhaz,Abkhazia
Abkhaz_Sadz [ady-12],43.33,40.22,#095D91,Northwest Caucasus ,Abaza-Abkhaz,Abkhazia
Abron [abr],8.03,-2.8,#A77D2B,Niger-Kongo ,Atlantic-Congo,Ghana
Abruzzo [nap],42.66,13.7,#B49149,Indo-European ,Romance,Italy
Abua [abn],4.8,6.654167,#A77D2B,Niger-Kongo ,Atlantic-Congo,Nigeria
Abui [abz],-8.417,124.6,#EAEDE9,Timor-Alor-Pantar ,Alor-Pantar,Indonesia-NTT
Abujh_Maria [mrr-2],18.75,80.68,#EAEDE9,Dravidian ,South-Central Dravidian ,India
Abun [kgr],-0.833,132,#EAEDE9,West Papuan ,Birds Head,Indonesia-Papua
Abure [abu],5.22,-3.64,#B49149,Niger-Kongo ,Atlantic-Congo,Côte d'Ivoire
Acatec [agu-2],15.7,-91.617,#EAEDE9,Mayan ,Core Mayan,Guatemala
Aceh_Lhokseumawe [ace-6],5.19,97.14,#A77D2B,Malayo-Polynesian,Malayo-Sumbawan,Indonesia-Sumatra
Aceh_Pidie [ace-7],5.38,95.96,#996912,Malayo-Polynesian,Malayo-Sumbawan,Indonesia-Sumatra
Acehnese [ace],5.333,96.167,#A77D2B,Malayo-Polynesian,Malayo-Sumbawan,Indonesia-Sumatra
Acehnese_Northeast [ace-5],4.62,97.62,#996912,Malayo-Polynesian,Malayo-Sumbawan,Indonesia-Sumatra
Acehnese_South [ace-3],4.1,96.23,#996912,Malayo-Polynesian,Malayo-Sumbawan,Indonesia-Sumatra
Acehnese_Southwest [ace-2],5.05,95.34,#A77D2B,Malayo-Polynesian,Malayo-Sumbawan,Indonesia-Sumatra
Acehnese_West [ace-4],5.47,95.26,#996912,Malayo-Polynesian,Malayo-Sumbawan,Indonesia-Sumatra
Achagua [aca],4.002,-72.814,#EAEDE9,Arawak ,Northern Maipuran,Colombia
Achang_Lianghe [acn-2],24.8,98.3,#D2BD91,Tibeto-Burman ,Lolo-Burmese,China
Achang_Longchuan [can-2],24.25,97.833,#D2BD91,Tibeto-Burman ,Lolo-Burmese,China
Achang_Luxi [can-3],24.527,103.764,#D2BD91,Tibeto-Burman ,Lolo-Burmese,China
Aćharêtâʹ [phl-2],35.4,71.75,#EAEDE9,Indo-European ,Indo-Iranian,Afghanistan
Aché [guq],-25.25,-55.17,#E4D8BE,Tupian ,Tupi-Guarani,Paraguay
Achi [acr],15.25,-90.5,#EAEDE9,Mayan ,Core Mayan,Guatemala
Achuar [acu],-3,-76,#B3D1DF,Jivaroan ,Shuaric,Peru
Achumawi [acv],41.5,-121,#619EBD,Palaihnihan ,,USA
Acipa [acp],10.71,6.01,#EAEDE9,Niger-Kongo ,Atlantic-Congo,Nigeria
Acoma [kjq-2],34.92,-107.58,#EAEDE9,Keresan ,Western Keresan,USA
Acooli [ach],3.293,32.871,#EAEDE9,Nilo-Saharan ,Nilotic,Uganda
Adamawa Fulfulde [fub],8.9,15.84,#EAEDE9,Niger-Kongo ,Atlantic-Congo,Cameroon
Adang [adn],-8.163,124.456,#D2BD91,Timor-Alor-Pantar ,Alor-Pantar,Indonesia-NTT
Adangme [ada],5.8,0.33,#D2BD91,Niger-Kongo ,Atlantic-Congo,Ghana
Adim [yay],5.81,8.03,#D2BD91,Niger-Kongo ,Atlantic-Congo,Nigeria
Adyghe [ady],44.1,39.08,#619EBD,Northwest Caucasus ,Ubykh-Circassian,Russia
Adyghe_Abzakh [ady-11],44.7,38.9,#619EBD,Northwest Caucasus ,Ubykh-Circassian,Russia
Adyghe_Besleney [ady-5],44.7,40.75,#619EBD,Northwest Caucasus ,Ubykh-Circassian,Russia
Adyghe_Black Sea Shapsugh [ady-14],44.375,38.4,#619EBD,Northwest Caucasus ,Ubykh-Circassian,Russia
Adyghe_Bzhedug [ady-6],45,39.3,#619EBD,Northwest Caucasus ,Ubykh-Circassian,Russia
Adyghe_Cherkess [ady-9],44.25,42.05,#619EBD,Northwest Caucasus ,Ubykh-Circassian,Russia
Adyghe_Hakuchi [ady-8],44.88,38,#619EBD,Northwest Caucasus ,Ubykh-Circassian,Russia
Adyghe_Kfar Kama [ady-7],32.72,35.44,#619EBD,Northwest Caucasus ,Ubykh-Circassian,Israel
Adyghe_Natukai [ady-3],44.4,38.35,#619EBD,Northwest Caucasus ,Ubykh-Circassian,Russia
Adyghe_Shapsugh [ady-2],44.3,39,#619EBD,Northwest Caucasus ,Ubykh-Circassian,Russia
Adyghe_Temirgoy [ady-10],45.125,39.83,#619EBD,Northwest Caucasus ,Ubykh-Circassian,Russia
Adyghe_Uzunyayla [ady-4],44.25,38.77,#619EBD,Northwest Caucasus ,Ubykh-Circassian,Russia
Adynyamathanha [adt],-31,139.5,#619EBD,Pama-Nyungan ,Thura-Yura,Australia
Adyukru [adj],5.38,-4.53,#D2BD91,Niger-Kongo ,Atlantic-Congo,Ghana
Adzera [azr],-6.417,146.25,#B3D1DF,Oceanic,Western Oceanic,Papua New Guinea
Aeka [aez],-8.601,147.994,#EAEDE9,Trans New Guinea ,Oro-Wharton,Papua New Guinea
Afar [aar],11.85,42,#EAEDE9,Afro-Asiatic ,Cushitic,Djibouti
Afitti [aft-2],12.44,31,#E4D8BE,Nilo-Saharan ,Nyimang,Sudan
Afrikaans [afr],-33.9,18.5,#D2BD91,Indo-European ,Germanic,South Africa
Afshar [azj-2],37.475,57.33,#D2BD91,Turkic ,South-west Turkic,Iran
Agabag [mvv-2],3.965,117.095,#EAEDE9,Malayo-Polynesian,North Borneo,Indonesia-Kalimantan
Agarabi [agd],-6.25,145.917,#EAEDE9,Trans New Guinea ,Morobe-Eastern Highlands,Papua New Guinea
Agatu [agc],7.98,7.72,#D2BD91,Niger-Kongo ,Atlantic-Congo,Nigeria
Aghem [agq],6.39,10.12,#A77D2B,Niger-Kongo ,Atlantic-Congo,Cameroon
Aghu [ahh],-6.333,140,#E4D8BE,Trans New Guinea ,Awyu-Dumut,Indonesia-Papua
Aghu-Tharrnggala [gtu],-13.73,142.43,#E4D8BE,Pama-Nyungan ,Paman,Australia
Aghul_Huppuq’ [agx],41.836,47.6602,#D2BD91,Nakh-Daghestanian ,Lezgic,Russia
Aglla [idu-3],6.8,7.95,#D2BD91,Niger-Kongo ,Atlantic-Congo,Nigeria
Agöb [kit],-9.09,142.53,#D2BD91,South New Guinea ,East Morehead,Papua New Guinea
Agta [agt],17.967,121.833,#E4D8BE,Malayo-Polynesian,Philippines,Philippines
Aguaruna [agr],-5.25,-78,#B3D1DF,Jivaroan ,Aguaruna,Peru
Aguatec [agu],15.4,-91.4,#EAEDE9,Mayan ,Core Mayan,Guatemala
Agul [agx],41.78,47.59,#E4D8BE,Nakh-Daghestanian ,Lezgic,Russia
Agul_Burkixan [agx-2],41.78,47.6,#E4D8BE,Nakh-Daghestanian ,Lezgic,Russia
Agul_Burshag [agx-3],41.86,47.62,#EAEDE9,Nakh-Daghestanian ,Lezgic,Russia
Agul_Fite [agx-4],41.79,47.59,#E4D8BE,Nakh-Daghestanian ,Lezgic,Russia
Agul_Richa [agx-5],41.78,47.61,#EAEDE9,Nakh-Daghestanian ,Lezgic,Russia
Agusan [mbb-2],8.68,125.79,#EAEDE9,Malayo-Polynesian,Philippines,Philippines
Agusan_Manobo [msm],8.63,125.74,#EAEDE9,Malayo-Polynesian,Philippines,Philippines
Agutaynen [agn],11.15,120.95,#B3D1DF,Malayo-Polynesian,Philippines,Philippines
Agwamin [wmi],-16.986,143.001,#E4D8BE,Pama-Nyungan ,Paman,Australia
Ahamb [ahb],-16.507,167.703,#B49149,Oceanic,Southern Oceanic,Vanuatu
Ahan [ahn],7.44,6.01,#D2BD91,Niger-Kongo ,Atlantic-Congo,Nigeria
Ahanta [aha],4.85,-1.95,#B49149,Niger-Kongo ,Atlantic-Congo,Ghana
Ahi [yix],24.4,103.4,#E4D8BE,Tibeto-Burman ,Lolo-Burmese,China
Ahom [aho],25,95,#E4D8BE,Tai-Kadai ,Kam-Tai,India
Ahtna [aht],62,-145,#EAEDE9,Dene-Yeniseic ,Na-Dene,USA-Alaska
Ai-cham_Diwo [aih],25.8,107,#D2BD91,Tai-Kadai ,Kam-Tai,China
Aikaná [tba],-12.1,-60.6,#E4D8BE,Aikaná ,,Brazil
Aimaq [aiq],35.28,59.18,#E4D8BE,Indo-European ,Indo-Iranian,Iran
Ainu [ain],43.5,142,#EAEDE9,Ainu ,,Japan
Ainu_Kuril [ain],46.5,151.5,#EAEDE9,Ainu ,,Japan
Ainu_Sakhalin [ain-2],49.07,142.03,#EAEDE9,Ainu ,,Japan
Airoran [air],-1.7,138.15,#D2BD91,Kwerba ,Nuclear Kwerba,Indonesia-Papua
Aisi [mmq],-5.35,145.15,#E4D8BE,Trans New Guinea ,Madang,Papua New Guinea
Ait_Seghrouchen [tzm-2],33,-5,#619EBD,Afro-Asiatic ,Berber,Morocco
Aita_Rotokas [roo-2],-6,155.08,#EAEDE9,North Bougainville ,Rotokas,Papua New Guinea-Bougainville
Aiton [aio-2],24,94,#B49149,Tai-Kadai ,Kam-Tai,India
Aitutaki [rar-2],-18.872,-159.782,#EAEDE9,Oceanic,Central Pacific,Cook Islands
Aiwoo [nfl],-10.5,166.5,#D2BD91,Oceanic,Te Motu,Solomons_East
Aizi [ahp],5.25,-4.5,#B49149,Niger-Kongo ,Atlantic-Congo,Côte d'Ivoire
Aja [ajg],7.07,1.65,#B49149,Niger-Kongo ,Atlantic-Congo,Benin
Ajumbu [muc-2],6.55,10.27,#A77D2B,Niger-Kongo ,Atlantic-Congo,Cameroon
Aka [axk],3.46,15.73,#D2BD91,Ubangian ,,Central African Republic
Aka [hru],27.2,92.9,#D2BD91,Tibeto-Burman ,Hrusish,India
Akabea [abj],12.38,92.78,#D2BD91,Andaman ,,India_Andaman-Nicobars
Akan [aka],6.5,-1.25,#C2A56B,Niger-Kongo ,Atlantic-Congo,Ghana
Akaselem [aks],8.89,1.37,#A77D2B,Niger-Kongo ,Atlantic-Congo,Togo
Akawaio [ake],6,-59.5,#D2BD91,Cariban ,Venezuelan,Guyana
Ake [aik],8.6,8.76,#D2BD91,Niger-Kongo ,Atlantic-Congo,Nigeria
Akei [tsr],-15.49,166.75,#EAEDE9,Oceanic,Southern Oceanic,Vanuatu
Akha [ahk],20.3,99.6,#D2BD91,Tibeto-Burman ,Lolo-Burmese,Thailand
Akha_Akhe [ahk-8],21.916,100.465,#996912,Tibeto-Burman ,Lolo-Burmese,Thailand
Akha_Buli [ahk-6],21.2,101.15,#996912,Tibeto-Burman ,Lolo-Burmese,Laos
Akha_Chicho [ahk-7],20.92,101.4,#996912,Tibeto-Burman ,Lolo-Burmese,Laos
Akha_Senchai [ahk-2],26.9,99,#A77D2B,Tibeto-Burman ,Lolo-Burmese,Myanmar
Akie [oki],-5.43,37.19,#B49149,Nilo-Saharan ,Nilotic,Kenya
Aklanon [akl],11.58,122.33,#EAEDE9,Malayo-Polynesian,Philippines,Philippines
Akosse [bss],5,9.7,#C2A56B,Niger-Kongo ,Atlantic-Congo,Cameroon
Akoye [miw-2],-7.645,145.65,#E4D8BE,Trans New Guinea ,Morobe-Eastern Highlands,Papua New Guinea
Akpes [ibe],7.5,5.96,#D2BD91,Niger-Kongo ,Atlantic-Congo,Nigeria
Akuntsu [aqz],-12.74,-60.8,#E4D8BE,Tupian ,Tupari,Brazil
Akurio [ako],3.0132,-55.6434,#D2BD91,Cariban ,Guianan Carib,Suriname
Akwa [akw],-0.005,15.612,#D2BD91,Niger-Kongo ,Atlantic-Congo,Congo
Akweya [akf],7.33,8.02,#D2BD91,Niger-Kongo ,Atlantic-Congo,Nigeria
Akye-Gnan [ati-2],5.48,-4.09,#B49149,Niger-Kongo ,Atlantic-Congo,Côte d'Ivoire
Alaala [nrz],-9,146.667,#EAEDE9,Oceanic,Western Oceanic,Papua New Guinea
Alaba-K'abeena [alw],7.39,38.17,#D2BD91,Afro-Asiatic ,Cushitic,Ethiopia
Alabama [akz],32.7,-86.1,#619EBD,Muskogean ,Alabama-Koasati,USA
Alacalufe_Central [alc-2],-53.528,-70.9573,#E4D8BE,Alaculufan ,,Chile
Alacalufe_Southern [alc-3],-55.2,-69.4,#E4D8BE,Alaculufan ,,Chile
Alagwa [wbj],-4.64,35.72,#EAEDE9,Afro-Asiatic ,Cushitic,Tanzania
Alamblak [amp],-4.667,143.25,#D2BD91,Sepik ,Sepik Hill,Papua New Guinea
Alangan-Mangyan [alj],13.1,121.02,#EAEDE9,Malayo-Polynesian,Philippines,Philippines
Alas_Batak [btz],2.64,98,#D2BD91,Malayo-Polynesian,Batak-Barrier Islands,Indonesia-Sumatra
Alawa [alh],-15.75,134.333,#B3D1DF,Macro-Gunwinygu ,Marran,Australia
Albanian_Cham [als-4],39.6,20.8,#EAEDE9,Indo-European ,Albanian,Greece
Albanian_Gheg [aln],42.43,20.73,#A77D2B,Indo-European ,Albanian,Albania
Albanian_Lab [als-5],40.17,19.83,#E4D8BE,Indo-European ,Albanian,Albania
Albanian_Mandritsa [aln-4],41.38,26.13,#D2BD91,Indo-European ,Albanian,Bulgaria
Albanian_Tosk [als],40.5,20,#D2BD91,Indo-European ,Albanian,Albania
Albanian_Upper_Reka [aln-2],41.72,20.57,#E4D8BE,Indo-European ,Albanian,Montenegro
Albanian_Vaccarizzo [als-6],39.58,16.43,#D2BD91,Indo-European ,Albanian,Italy
Albese [ita-13],44.7,8.04,#A77D2B,Indo-European ,Romance,Italy
Alekano [gah-2],-6,145.4,#EAEDE9,Trans New Guinea ,Morobe-Eastern Highlands,Papua New Guinea
Aleut [ale],54,-166,#619EBD,Eskimo-Aleut ,Aleut,USA-Alaska
Aleut_Atkan [ale-4],52,-174,#619EBD,Eskimo-Aleut ,Aleut,USA-Alaska
Aleut_Attuan [ale-2],52.85,172.9,#619EBD,Eskimo-Aleut ,Aleut,USA-Alaska
Aleut_Eastern [ale-3],54.75,-164,#619EBD,Eskimo-Aleut ,Aleut,USA-Alaska
Aleut_Unangas [ale-5],55.3,166,#619EBD,Eskimo-Aleut ,Aleut,USA-Alaska
Algherese [cat-4],40.55,8.32,#D2BD91,Indo-European ,Romance,Italy-Sardinia
Algonquin [alq],46,-82,#EAEDE9,Algic ,Algonquian,Canada
Ali [ykm],-3.17,142.25,#E4D8BE,Oceanic,Western Oceanic,Papua New Guinea
Alladian [ald],5.17,-4.33,#B49149,Niger-Kongo ,Atlantic-Congo,Côte d'Ivoire
Allentiac [qbt],-32,-66,#EAEDE9,Huarpe ,,Argentina
Alngith [aid],-12.5,142.17,#EAEDE9,Pama-Nyungan ,Paman,Australia
Alo-Teqel [tql-2],-13.8,167.47,#E4D8BE,Oceanic,Southern Oceanic,Vanuatu
Alor [aol],-8.245,124.412,#EAEDE9,Malayo-Polynesian,Timoric,Indonesia-NTT
Alsatian [gsw-2],48.32,7.44,#C2A56B,Indo-European ,Germanic,France
Alsea [aes],44.67,-123.93,#B3D1DF,Alsean ,,USA
Altai [alt],51,87,#C2A56B,Turkic ,North-east Turkic,Russia
Altai_Kumandy [atv],51.3,87.7,#C2A56B,Turkic ,North-east Turkic,Russia
Alumbis_Murut [mvv],4.799,115.496,#B3D1DF,Malayo-Polynesian,North Borneo,Malaysia-Borneo
Alune [alp],-3.167,128.333,#EAEDE9,Malayo-Polynesian,Central Maluku,Indonesia-Maluku-north
Alur [alz],2.5,31.25,#B49149,Nilo-Saharan ,Nilotic,Uganda
Alutiiq [ems],58.015,-152.765,#B3D1DF,Eskimo-Aleut ,Eskimo,USA-Alaska
Alyawarr [aly],-24.6,134.5,#619EBD,Pama-Nyungan ,Arandic,Australia
Alyutor [alr],61,165,#B3D1DF,Chukotko-Kamchatkan ,Main Chukotko-Kamchatkan,Russia
Ama [amm],-4.168,141.671,#D2BD91,Left May ,,Papua New Guinea
Amahai_Soahuku [amq],-3.332,128.949,#EAEDE9,Malayo-Polynesian,Central Maluku,Indonesia-Maluku-north
Amahuaca [amc],-10.8,-73.5,#B3D1DF,Panoan ,Main Panoan,Peru
Amaimon [ali],-5.193,145.325,#EAEDE9,Trans New Guinea ,Madang,Papua New Guinea
Amam [wer-2],-7.85,146.95,#EAEDE9,Trans New Guinea ,Oro-Wharton,Papua New Guinea
Amami_Ryukyu [ams],28,129,#D2BD91,Japonic ,Ryukyuan,Japan-Ryukyu
Amanab [amn],-3.5,141.167,#EAEDE9,Trans New Guinea ,Border,Papua New Guinea
Amanuban [aoz-2],-9.82,124.47,#EAEDE9,Malayo-Polynesian,Timoric,Indonesia-NTT
Amanutun [aoz-3],-9.69,124.83,#EAEDE9,Malayo-Polynesian,Timoric,Indonesia-NTT
Amara [aie],-5.533,148.667,#EAEDE9,Oceanic,Western Oceanic,Papua New Guinea-Bismarcks
Amarakaeri [amr],-12.6938,-70.3235,#EAEDE9,Harakmbet ,Harakmbut,Peru
Amarasi [aaz],-10.08,124.33,#EAEDE9,Malayo-Polynesian,Timoric,Indonesia-NTT
Amba_Nembao [utp],-11.27,166.48,#D2BD91,Oceanic,Te Motu,Solomons_East
Ambae_West [omb],-15.5,167.75,#EAEDE9,Oceanic,Southern Oceanic,Vanuatu
Ambai [amk],-1.917,136.533,#EAEDE9,Malayo-Polynesian,Eastern Malayo-Polynesian,Indonesia-Papua
Ambel [xmt-2],-0.05,130.7,#EAEDE9,Malayo-Polynesian,Eastern Malayo-Polynesian,Indonesia-Papua
Ambelau [mhs-4],-3.89,127.205,#EAEDE9,Malayo-Polynesian,Central Maluku,Indonesia-Maluku-north
Ambele [ael],5.94,9.62,#A77D2B,Niger-Kongo ,Atlantic-Congo,Cameroon
Amblong [alm],-15.497,166.926,#EAEDE9,Oceanic,Southern Oceanic,Vanuatu
Ambonese Malay [abs],-3.7,128.2,#EAEDE9,Malayo-Polynesian,Malayo-Sumbawan,Indonesia-Maluku-north
Ambrym_Southeast [tvk-2],-16.33,168.08,#E4D8BE,Oceanic,Southern Oceanic,Vanuatu
Ambulas [abt],-3.75,143.083,#D2BD91,Ndu ,Nuclear Ndu,Papua New Guinea
Amdo [adx],36,94,#E4D8BE,Tibeto-Burman ,Bodic,China
Ameland [frs-2],53.45,5.77,#8C5603,Indo-European ,Germanic,Netherlands
Amele_Haija [aey],-5.25,145.75,#EAEDE9,Trans New Guinea ,Madang,Papua New Guinea
Amele_Huar [aey-3],-5.287,145.718,#EAEDE9,Trans New Guinea ,Madang,Papua New Guinea
Amele_Jagahala [aey-2],-5.264,145.642,#EAEDE9,Trans New Guinea ,Madang,Papua New Guinea
Amfo'an [aoz-4],-9.45,123.9,#EAEDE9,Malayo-Polynesian,Timoric,Indonesia-NTT
Amharic [amh],10,38,#D2BD91,Afro-Asiatic ,Semitic,Ethiopia
Ami [amy],-14,130,#EAEDE9,Western Daly ,Maranunggu-Ame-Manda,Australia
Amis [ami],23.333,121.333,#B3D1DF,Austronesian ,East Formosan,Taiwan
Amo [amo],10.33,8.67,#A77D2B,Niger-Kongo ,Atlantic-Congo,Nigeria
Amoy [nan],24.5,118,#E4D8BE,Tibeto-Burman ,Sinitic,China
Ampale [apz],-6.753,146.107,#D2BD91,Trans New Guinea ,Morobe-Eastern Highlands,Papua New Guinea
Ampibabo [law-2],-0.46,120.06,#EAEDE9,Malayo-Polynesian,Celebic,Indonesia-Sulawesi
Amuesha [ame],-10,-73,#619EBD,Arawak ,Western Maipuan,Peru
Amundava [adw],-10.9942,-63.0642,#E4D8BE,Tupian ,Tupi-Guarani,Brazil
Amurdak [amg],-12.022,132.892,#619EBD,Iwaidjan ,Amurdak,Australia
Amuzgo [amu],16.83,-98,#D2BD91,Otomanguean ,Eastern Otomanguean,Mexico
Amuzgo_Huixtepec [amu-3],16.5,-98.1,#D2BD91,Otomanguean ,Eastern Otomanguean,Mexico
Amuzgo_San_Pedro [azg],16.85,-98,#D2BD91,Otomanguean ,Eastern Otomanguean,Mexico
Amuzgo_Xochistlahuaca [amu-2],16.79,-98.24,#D2BD91,Otomanguean ,Eastern Otomanguean,Mexico
Amwi [aml],25.209,92.068,#C2A56B,Austroasiatic ,Khasi-Palaung,India
Anaguta [nar],9.964,8.731,#E4D8BE,Niger-Kongo ,Atlantic-Congo,Nigeria
Anakalang [akg],-9.67,119.67,#E4D8BE,Malayo-Polynesian,Flores-Sawu-Sumba,Indonesia-NTT
Anal [anm],24.33,93.99,#EAEDE9,Tibeto-Burman ,Kuki-Chin-Naga,India
Anamuxra [imi],-4.667,145,#619EBD,Trans New Guinea ,Madang,Papua New Guinea
Andalusian [spa-4],37.5,-3.6,#EAEDE9,Indo-European ,Romance,Spain
Andi [ani],42.79,46.27,#EAEDE9,Nakh-Daghestanian ,Avar-Andi,Russia
Andi_Tad-Magitil [ani-2],42.75,46.25,#EAEDE9,Nakh-Daghestanian ,Avar-Andi,Russia
Andoa [anb],-2.9,-76.4051,#EAEDE9,Zaparoan ,Iquito-Arabela,Peru
Andoké [ano],0,-72,#B49149,Andoké ,,Colombia
Anejom [aty],-20.25,169.833,#EAEDE9,Oceanic,Southern Oceanic,Vanuatu
Anem [anz],-5.667,149,#D2BD91,Anem ,,Papua New Guinea-Bismarcks
Aneme_Wake [aby],-9.733,148.52,#EAEDE9,Southeast Papuan ,Owen Stanley Ranges,Papua New Guinea
Anfillo [myo],8.57,34.65,#EAEDE9,Afro-Asiatic ,Omotic,Ethiopia
Anfu [gan-21],27.38,114.62,#B49149,Tibeto-Burman ,Sinitic,China
Angaatiha [agm],-7.22,146.25,#E4D8BE,Trans New Guinea ,Morobe-Eastern Highlands,Papua New Guinea
Angal [age],-6,143.6,#D2BD91,Trans New Guinea ,Engan,Papua New Guinea
Angal_Heneng [akh],-6.13,143.42,#D2BD91,Trans New Guinea ,Engan,Papua New Guinea
Angali [pes-],29.75,50.96,#E4D8BE,Indo-European ,Indo-Iranian,Iran
Angami [njm],25.667,94.5,#E4D8BE,Tibeto-Burman ,Kuki-Chin-Naga,India
Angas [anc],9.75,8.75,#E4D8BE,Afro-Asiatic ,Chadic,Nigeria
Anggor [agg],-3.667,141.167,#E4D8BE,Trans New Guinea ,Border,Papua New Guinea
Anggreso [kwe-2],-2.17,138.25,#D2BD91,Kwerba ,Nuclear Kwerba,Indonesia-Papua
Angkamuthi [avm],-11.5,142.25,#B3D1DF,Pama-Nyungan ,Paman,Australia
Angkola_Batak [akb],1.518,99.531,#EAEDE9,Malayo-Polynesian,Batak-Barrier Islands,Indonesia-Sumatra
Anguthimri [xxx-3],-12.333,141.833,#C2A56B,Pama-Nyungan ,Paman,Australia
Ani_Phowa [ypn],23.6,103.3,#996912,Tibeto-Burman ,Lolo-Burmese,China
Anib [kni],9.55,8.6,#C2A56B,Niger-Kongo ,Atlantic-Congo,Nigeria
Anii [blo],9.003,1.669,#A77D2B,Niger-Kongo ,Atlantic-Congo,Benin
Anindilyagwa [aoi],-14,136.5,#095D91,Macro-Gunwinygu ,East Arnhem,Australia
Anindilyagwa_East [aoi-2],-13.86,136.81,#B3D1DF,Macro-Gunwinygu ,East Arnhem,Australia
Aniwa [fut-2],-19.256,169.6,#EAEDE9,Oceanic,Central Pacific,Vanuatu
Anjam [boj],-5.441,145.737,#EAEDE9,Trans New Guinea ,Madang,Papua New Guinea
Ankave [aak],-7.137,145.744,#E4D8BE,Trans New Guinea ,Morobe-Eastern Highlands,Papua New Guinea
Anlong [pcc-15],25.1,105.44,#E4D8BE,Tai-Kadai ,Kam-Tai,China
Anmatyerr_East [amx],-22.256,131.5,#619EBD,Pama-Nyungan ,Arandic,Australia
Anmatyerr_West [amx-2],-21,135,#095D91,Pama-Nyungan ,Arandic,Australia
Anong [nun],27.2,98.8,#A77D2B,Tibeto-Burman ,Nungish,China
Ansus [and],-1.73,135.806,#EAEDE9,Malayo-Polynesian,Eastern Malayo-Polynesian,Indonesia-Papua
Anta [tci-3],-8.65,141.52,#B49149,South New Guinea ,East Morehead,Indonesia-Papua
Antakarinya [ant],-27.12,134.84,#619EBD,Pama-Nyungan ,Wati,Australia
Antekerrepinhe [adg],-22.51,137.35,#619EBD,Pama-Nyungan ,Arandic,Australia
Antioquian [xxx-164],7,-73,#EAEDE9,Chibchan ,Core Chibchan,Colombia
Anuak [anu],7.18,34.097,#E4D8BE,Nilo-Saharan ,Nilotic,South Sudan
Anufo [cko],10.218,0.33,#D2BD91,Niger-Kongo ,Atlantic-Congo,Ghana
Añun [pbg],11,-71.62,#E4D8BE,Arawak ,Northern Maipuran,Venezuela
Anus [auq],-2.13,139.51,#D2BD91,Oceanic,Western Oceanic,Indonesia-Papua
Anuta [aud],-11.611,169.85,#EAEDE9,Oceanic,Central Pacific,Solomons_East
Anyi [gan-18],28.84,115.6,#E4D8BE,Tibeto-Burman ,Sinitic,China
Anyin [any],5.9,-2.9,#C2A56B,Niger-Kongo ,Atlantic-Congo,Côte d'Ivoire
Anywa [anu-2],7.3,33,#A77D2B,Nilo-Saharan ,Nilotic,South Sudan
Aoheng [pni],1.025,114.175,#C2A56B,Malayo-Polynesian,North Borneo,Indonesia-Kalimantan
Aore [aor],-15.577,167.181,#EAEDE9,Oceanic,Southern Oceanic,Vanuatu
Apache_Western [apw],33.9,-109.55,#EAEDE9,Dene-Yeniseic ,Na-Dene,USA
Apalachee [xap],30.04,-84.17,#619EBD,Muskogean ,Alabama-Koasati,USA
Apalai [apy],0,-54,#E4D8BE,Cariban ,Apalai,Brazil
Apali [ena],-5.088,145.017,#EAEDE9,Trans New Guinea ,Madang,Papua New Guinea
Apatani [apt],27.4,93.8,#D2BD91,Tibeto-Burman ,Macro-Tani,India
Apiaká [api],-7.9484,-57.7365,#E4D8BE,Tupian ,Tupi-Guarani,Brazil
Apinaye [apn],-6.25,-48,#A77D2B,Macro-Je ,Je,Brazil
Apma [app],-15.775,168.158,#E4D8BE,Oceanic,Southern Oceanic,Vanuatu
Apma_Suru Kavian [app-2],-15.61,168.14,#E4D8BE,Oceanic,Southern Oceanic,Vanuatu
Apurinã [apu],-9,-67,#EAEDE9,Arawak ,Southern Maipuran,Brazil
Aputai [apx],-7.888,126.505,#EAEDE9,Malayo-Polynesian,Timoric,Indonesia-NTT
Arabana [ard],-28,137,#619EBD,Pama-Nyungan ,Karnic,Australia
Arabela [arl],-2,-75.17,#EAEDE9,Zaparoan ,Iquito-Arabela,Peru
Arabic [arb],30,42,#619EBD,Afro-Asiatic ,Semitic,Saudi Arabia
Arabic_Abéché [ayl-4],13.83,20.83,#E4D8BE,Afro-Asiatic ,Semitic,Chad
Arabic_Abha [acw-2],18.22,42.51,#EAEDE9,Afro-Asiatic ,Semitic,Saudi Arabia
Arabic_Afghanistan [acm-3],36.7,67.12,#EAEDE9,Afro-Asiatic ,Semitic,Afghanistan
Arabic_Algerian [arq],36.7,3.1,#619EBD,Afro-Asiatic ,Semitic,Algeria
Arabic_Andalusian [xaa],35.767,-5.8,#B3D1DF,Afro-Asiatic ,Semitic,Spain
Arabic_Attuwair [acw-3],29.9,40.1,#619EBD,Afro-Asiatic ,Semitic,Saudi Arabia
Arabic_Baghdad [acm-4],33.33,44.38,#619EBD,Afro-Asiatic ,Semitic,Iran
Arabic_Bareqi [acw-7],18.93,41.94,#619EBD,Afro-Asiatic ,Semitic,Saudi Arabia
Arabic_Basra [acm],30.5,47.825,#B3D1DF,Afro-Asiatic ,Semitic,Iraq
Arabic_Bukhara [abh],39.77,64.43,#619EBD,Afro-Asiatic ,Semitic,Uzbekistan
Arabic_Chad [shu-4],14,19,#E4D8BE,Afro-Asiatic ,Semitic,Chad
Arabic_Chowa [shu-3],12.5,14.5,#EAEDE9,Afro-Asiatic ,Semitic,Nigeria
Arabic_Coastal-Dhofari [acx],20.7,58.2,#EAEDE9,Afro-Asiatic ,Semitic,Oman
Arabic_Cypriot [acy],34.343,33.011,#EAEDE9,Afro-Asiatic ,Semitic,Cyprus
Arabic_Egyptian [arz],30,30,#E4D8BE,Afro-Asiatic ,Semitic,Egypt
Arabic_Faifa [jye-3],17.25,43.1,#EAEDE9,Afro-Asiatic ,Semitic,Yemen
Arabic_Fezzan [ayl-3],26.33,13.43,#619EBD,Afro-Asiatic ,Semitic,Libya
Arabic_Gulf [afb],24,54,#EAEDE9,Afro-Asiatic ,Semitic,United Arab Emirates
Arabic_Hadhrami_coast [jye-5],14.95,50.34,#619EBD,Afro-Asiatic ,Semitic,Yemen
Arabic_Hadhrami_wadi [jye-6],16.05,49,#619EBD,Afro-Asiatic ,Semitic,Yemen
Arabic_Harb [acw],25.81,42.87,#E4D8BE,Afro-Asiatic ,Semitic,Saudi Arabia
Arabic_Hassaniya [mey],16.6,-7.25,#B3D1DF,Afro-Asiatic ,Semitic,Mauritania
Arabic_Hejazi [acw-4],21.543,41.173,#EAEDE9,Afro-Asiatic ,Semitic,Saudi Arabia
Arabic_Hejazi_Al'Ula [acw-8],26.627,37.917,#EAEDE9,Afro-Asiatic ,Semitic,Saudi Arabia
Arabic_Hejazi_Badr [acw-6],23.78,38.79,#EAEDE9,Afro-Asiatic ,Semitic,Saudi Arabia
Arabic_Ilbahariyya [arz],28.35,28.93,#EAEDE9,Afro-Asiatic ,Semitic,Egypt
Arabic_Jijel [ary-2],36.821,5.75,#619EBD,Afro-Asiatic ,Semitic,Algeria
Arabic_Jordanian [ajp-2],32,36,#EAEDE9,Afro-Asiatic ,Semitic,Jordan
Arabic_Judeo-Tunisian [ajt],33.87,10.85,#619EBD,Afro-Asiatic ,Semitic,Tunisia
Arabic_Khawetna [arb-3],36.42,41.225,#EAEDE9,Afro-Asiatic ,Semitic,Turkey
Arabic_Khuzestan [acm-2],31.33,48.69,#EAEDE9,Afro-Asiatic ,Semitic,Iran
Arabic_Lebanese [apc-2],33.883,35.502,#E4D8BE,Afro-Asiatic ,Semitic,Lebanon
Arabic_Levantine_al-Karak [ajp-7],31.2,35.7,#EAEDE9,Afro-Asiatic ,Semitic,Jordan
Arabic_Levantine_Amman [ajp-6],31.9,35.9,#EAEDE9,Afro-Asiatic ,Semitic,Jordan
Arabic_Levantine_Homs [ajp-4],34.7,36.7,#EAEDE9,Afro-Asiatic ,Semitic,Syria
Arabic_Levantine_Jerusalem [ajp-5],31.8,35.2,#EAEDE9,Afro-Asiatic ,Semitic,Israel
Arabic_Levantine_Northern_coast [ajp-8],34.9,35.9,#EAEDE9,Afro-Asiatic ,Semitic,Syria
Arabic_Levantine_Northern_inland [ajp-9],33.1,35.7,#EAEDE9,Afro-Asiatic ,Semitic,Syria
Arabic_Levantine_Outer-south [ajp-11],31.3,34.6,#B3D1DF,Afro-Asiatic ,Semitic,Israel
Arabic_Levantine_Southern [ajp-10],31.7,34.9,#B3D1DF,Afro-Asiatic ,Semitic,Israel
Arabic_Libyan [ayl],32,20.25,#D2BD91,Afro-Asiatic ,Semitic,Libya
Arabic_Libyan_Western [ayl-2],32.5,13,#EAEDE9,Afro-Asiatic ,Semitic,Libya
Arabic_Mardin [apc-3],37.363,40.91,#EAEDE9,Afro-Asiatic ,Semitic,Turkey
Arabic_Mauritanian [ary-4],18.083,-15.986,#B3D1DF,Afro-Asiatic ,Semitic,Mauritania
Arabic_Mesopotamian [acm-5],33,44,#619EBD,Afro-Asiatic ,Semitic,Israel
Arabic_Moroccan [ary],34,-7,#619EBD,Afro-Asiatic ,Semitic,Morocco
Arabic_Muscat [acx-2],23.63,58.55,#EAEDE9,Afro-Asiatic ,Semitic,Oman
Arabic_Najdi [acw-5],23,45.5,#619EBD,Afro-Asiatic ,Semitic,Saudi Arabia
Arabic_Omani [acx-3],23.589,58.556,#C2A56B,Afro-Asiatic ,Semitic,Oman
Arabic_Oran [arq-2],35.7,-0.63,#EAEDE9,Afro-Asiatic ,Semitic,Algeria
Arabic_Palestinian_Urban [ajp],31.52,34.45,#EAEDE9,Afro-Asiatic ,Semitic,Palestine
Arabic_Qatari [afb-3],25.3,51.52,#EAEDE9,Afro-Asiatic ,Semitic,Qatar
Arabic_Sa'idi [aec],25,32.75,#619EBD,Afro-Asiatic ,Semitic,Egypt
Arabic_Sason [arb-2],38.333,41.42,#E4D8BE,Afro-Asiatic ,Semitic,Turkey
Arabic_Saudi [ars],24.48,40,#EAEDE9,Afro-Asiatic ,Semitic,Saudi Arabia
Arabic_Sudanese [apd],15.5,32.56,#EAEDE9,Afro-Asiatic ,Semitic,Sudan
Arabic_Syrian [apc],33,37,#EAEDE9,Afro-Asiatic ,Semitic,Syria
Arabic_Ta'izzi_Adeni [acq],11.502,43,#095D91,Afro-Asiatic ,Semitic,Djibouti
Arabic_Tillo [arb-4],37.95,42.013,#E4D8BE,Afro-Asiatic ,Semitic,Turkey
Arabic_Traras-Msirda [ary-3],35.18,-1.65,#619EBD,Afro-Asiatic ,Semitic,Algeria
Arabic_Tunisian [aeb],36,10,#619EBD,Afro-Asiatic ,Semitic,Tunisia
Arabic_Wadi Mousa [ajp],30.32,35.48,#EAEDE9,Afro-Asiatic ,Semitic,Jordan
Arabic_Yemeni [jye],14,47,#095D91,Afro-Asiatic ,Semitic,Yemen
Arabic_Yemeni_Hadhrami [ayh],16.67,49.5,#619EBD,Afro-Asiatic ,Semitic,Yemen
Arabic_Yemeni_Tihamiyya [arb-6],13.083,43.833,#095D91,Afro-Asiatic ,Semitic,Yemen
Arabic_Yemeni_Zabidi [acq-2],14.2,43.317,#619EBD,Afro-Asiatic ,Semitic,Yemen
Arabic; North Israel Bedouin [ajp-12],32.83,35.33,#E4D8BE,Afro-Asiatic ,Semitic,Israel
Aragonese [arg],41,-1,#EAEDE9,Indo-European ,Romance,Spain
Araki [akr],-15.629,166.957,#EAEDE9,Oceanic,Southern Oceanic,Vanuatu
Arakmbut [hug],-13.27,-71.21,#EAEDE9,Harakmbet ,Harakmbut,Peru
Aralle-Tabulahan [atq],-2.756,119.203,#E4D8BE,Malayo-Polynesian,Greater South Sulawesi,Indonesia-Sulawesi
Arammba [stk],-8.25,141.5,#A77D2B,South New Guinea ,East Morehead,Papua New Guinea
Arandai [jbj],-2.17,133,#E4D8BE,Trans New Guinea ,South Birds Head,Indonesia-Papua
Aranese [oci-4],42.7,0.795,#C2A56B,Indo-European ,Romance,Spain
Araona [aro],-12.333,-67.75,#B3D1DF,Tacanan ,Araona-Tacana,Bolivia
Arapaho [arp],39.565,-105.345,#B3D1DF,Algic ,Algonquian,USA
Arapesh_Muhiang [aoj],-3.564,142.9,#EAEDE9,Torricelli ,Kombio-Arapesh,Papua New Guinea
Arara_do_Acra [mcd-2],-8.841,-72.315,#B3D1DF,Panoan ,Main Panoan,Brazil
Arara_do_Mato_Grosso [mcd-3],-9.5,-60,#C2A56B,Arara_do_Mato_Grosso ,,Brazil
Arara_do_Para [aap-2],-4.24,-53.34,#E4D8BE,Cariban ,Pekodian,Brazil
Arára_Pará [aap],-4.2422,-53.3745,#E4D8BE,Cariban ,Pekodian,Brazil
Araucanian lg [arn-2],-43,-73.5,#E4D8BE,Araucanian ,,Chile
Arawak [arw],5.64,-56.92,#EAEDE9,Arawak  ,Northern Maipuran,Guyana
Araweté [awt],-4.142017,-52.416914,#EAEDE9,Tupian ,Tupi-Guarani,Brazil
Arbanasi [aln-3],44.11,15.23,#A77D2B,Indo-European ,Albanian,Croatia
Arbëresh [als-2],37.995,13.283,#E4D8BE,Indo-European ,Albanian,Italy
Arbëresh Kundisa [als-10],37.73,13.18,#E4D8BE,Indo-European ,Albanian,Italy
Arbëresh_Pianese [als-8],37.8,12.8,#E4D8BE,Indo-European ,Albanian,Italy
Arbore [arv],4.92,36.8,#EAEDE9,Afro-Asiatic ,Cushitic,Ethiopia
Archi [aqc],42.07,46.86,#E4D8BE,Nakh-Daghestanian ,Lezgic,Russia
Arctic Bay_Inuit [ikt],73.036,-85.15,#619EBD,Eskimo-Aleut ,Eskimo,Canada
Are [mwc],-9.67,150,#EAEDE9,Oceanic,Western Oceanic,Papua New Guinea
Are'are [alu],-9.342,161.203,#EAEDE9,Oceanic,Southeast Solomonic,Solomons
Arem [aem],18.15,105.5,#681F00,Austroasiatic ,Vietic,Laos
Argobba [agj],10.66,39.76,#D2BD91,Afro-Asiatic ,Semitic,Ethiopia
Arguni [agf],-2.667,132.5,#EAEDE9,Malayo-Polynesian,Eastern Malayo-Polynesian,Indonesia-Papua
Ari [aac],-7.916,142.34,#EAEDE9,Papuan Gulf ,Gogodala-Suki,Papua New Guinea
Aribwatsa [laz],-6.667,146.917,#EAEDE9,Oceanic,Western Oceanic,Papua New Guinea
Aribwaungg [ylu],-6.592,146.874,#EAEDE9,Oceanic,Western Oceanic,Papua New Guinea
Arifama-Miniafia [aai],-9.142,149.279,#EAEDE9,Oceanic,Western Oceanic,Papua New Guinea
Arikapu [ark],-13,-62.5,#C2A56B,Macro-Je ,Jabutí,Brazil
Arikara [ari],40,-97,#EAEDE9,Caddoan ,Northern Caddoan,USA
Aringa [luc],3,31,#B49149,Nilo-Saharan ,Central Sudanic,Uganda
Aritinngithigh [rrt],-13,141.67,#EAEDE9,Pama-Nyungan ,Paman,Australia
Arizona Tewa [tew],35.8,-110.4,#E4D8BE,Kiowa-Tanoan ,Tewa,USA
Armenian [hye],40,45,#E4D8BE,Indo-European ,Armenian,Armenia
Armenian_Agulis [hye-5],38.95,45.98,#E4D8BE,Indo-European ,Armenian,Azerbaijan
Armenian_Aslanberg [hye-9],41.2,30.5,#D2BD91,Indo-European ,Armenian,Turkey
Armenian_Kharpert [hye-8],38.67,39.22,#E4D8BE,Indo-European ,Armenian,Armenia
Armenian_Khodorjur [hye-4],40.73,41.2,#E4D8BE,Indo-European ,Armenian,Turkey
Armenian_Malatya [hye-7],38.35,38.3,#C2A56B,Indo-European ,Armenian,Turkey
Armenian_Sebastia [hye-6],39.75,37.02,#E4D8BE,Indo-European ,Armenian,Armenia
Armenian_Van [hye-10],38.49,43.38,#E4D8BE,Indo-European ,Armenian,Turkey
Armenian_Western [hye-2],40,40,#C2A56B,Indo-European ,Armenian,Turkey
Armenian_Yerevan [hye-11],40.18,44.52,#E4D8BE,Indo-European ,Armenian,Armenia
Aromanian [rup],42,23,#D2BD91,Indo-European ,Romance,Bulgaria
Aromanian-2 [rup-2],39.77,21.1,#D2BD91,Indo-European ,Romance,Greece
Arop-Lokep [apr],-5.333,147.083,#D2BD91,Oceanic,Western Oceanic,Papua New Guinea
Arosi [aia],-10.333,161.5,#EAEDE9,Oceanic,Southeast Solomonic,Solomons
Arpitan [frp-3],45.17,5.72,#B49149,Indo-European ,Romance,France
Arrernte_Central [are],-22.85,133.7,#095D91,Pama-Nyungan ,Arandic,Australia
Arrernte_Eastern [are-2],-23.292,134.445,#B3D1DF,Pama-Nyungan ,Arandic,Australia
Arrernte_Mparntwe [aer],-24,136,#B3D1DF,Pama-Nyungan ,Arandic,Australia
Arrernte_Pertame [xxx-82],-24.5,132,#B3D1DF,Pama-Nyungan ,Arandic,Australia
Arta [atz],16.42,121.66,#EAEDE9,Malayo-Polynesian,Philippines,Philippines
Arutani [atx],4.07,-62.87,#EAEDE9,Arutani–Sape,,Brazil
Arvanitika [als-3],38.42,23.08,#D2BD91,Indo-European ,Albanian,Greece
As [asz],-0.722,131.787,#EAEDE9,Malayo-Polynesian,Eastern Malayo-Polynesian,Indonesia-Papua
Asaro_Upper [aso],-5.967,145.292,#EAEDE9,Trans New Guinea ,Morobe-Eastern Highlands,Papua New Guinea
Asharon [acz],10.8,30.3,#C2A56B,Talodi-Heiban ,Talodi,Sudan
Ashe [ahs],9.37,7.39,#B49149,Niger-Kongo ,Atlantic-Congo,Nigeria
Asheninka_Apurucayali [cpc],-10.018,-74.793,#619EBD,Arawak ,Southern Maipuran,Peru
Ashéninka_Perené [prq],-10.8734,-75.245,#EAEDE9,Arawak ,Southern Maipuran,Peru
Ashéninka_Pichis [cpu],-9.9833,-74.9833,#B3D1DF,Arawak ,Southern Maipuran,Peru
Ashéninka_Ucayali-Yurúa [cpb],-10.1619,-74.0234,#B3D1DF,Arawak ,Southern Maipuran,Brazil
Ashkun [ask],34.84,70.37,#D2BD91,Indo-European ,Indo-Iranian,Afghanistan
Asho [csh-3],22.91,93.68,#996912,Tibeto-Burman ,Kuki-Chin-Naga,Myanmar
Ashuku [nza-2],6.98,10.71,#C2A56B,Niger-Kongo ,Atlantic-Congo,Nigeria
Ashuslay [cag-2],-23.5,-60.5,#E4D8BE,Matacoan ,Mataguayo I,Paraguay
Asi [bno-2],12.95,122.08,#619EBD,Malayo-Polynesian,Philippines,Philippines
Asienara [asi],-3.75,133.33,#EAEDE9,Trans New Guinea ,Asmat-Kamoro,Indonesia-Papua
Asilulu [asl],-3.67,127.95,#EAEDE9,Malayo-Polynesian,Central Maluku,Indonesia-Maluku-north
Asmat [asc],-5.3,138.3,#E4D8BE,Trans New Guinea ,Asmat-Kamoro,Indonesia-Papua
Asmat_North [nks],-5,138.5,#EAEDE9,Trans New Guinea ,Asmat-Kamoro,Indonesia-Papua
Assamese [asm],26.5,93,#C2A56B,Indo-European ,Indo-Iranian,India
Assamese_Dudhnoi [asm-10],26,90.8,#E4D8BE,Indo-European ,Indo-Iranian,India
Assiniboine [asb],49,-100,#EAEDE9,Siouan ,Western Siouan,Canada
Asturian [ast],43.33,-6,#EAEDE9,Indo-European ,Romance,Spain
Asuri [asr],23.04,84.54,#EAEDE9,Austroasiatic ,Munda,India
Asurini [asu],-3.3,-49.3,#E4D8BE,Tupian ,Tupi-Guarani,Brazil
Asuriní_Tocantins [asu-2],-3.3,-50,#EAEDE9,Tupian ,Tupi-Guarani,Brazil
Asuriní_Xingú [asn-2],-4.13,-52.32,#E4D8BE,Tupian ,Tupi-Guarani,Brazil
Ata [ata],-5.667,151,#EAEDE9,Ata ,,Papua New Guinea-Bismarcks
Ata_Manobo [atd],7.845,125.506,#B3D1DF,Malayo-Polynesian,Philippines,Philippines
Atacameño [kuz],-23,-69,#E4D8BE,Atacameño  ,,Chile
Atadei [slp-3],-8.46,123.555,#C2A56B,Malayo-Polynesian,Timoric,Indonesia-NTT
Atakapa [aqp],30,-93,#EAEDE9,Atakapa ,,USA
Atamanu [jal],-3.396,129.313,#EAEDE9,Malayo-Polynesian,Central Maluku,Indonesia-Maluku-north
Atampaya [amz],-11.33,142.5,#B3D1DF,Pama-Nyungan ,Paman,Australia
Atayal [tay],24.5,121,#E4D8BE,Austronesian ,Atayalic,Taiwan
Atchin [upv],-16,167.333,#C2A56B,Oceanic,Southern Oceanic,Vanuatu
Ateso [teo],1.915,33.955,#EAEDE9,Nilo-Saharan ,Nilotic,Uganda
Athpare [aph],26.75,87.33,#EAEDE9,Tibeto-Burman ,Kiranti,Nepal
Atikamekw [atj],48,-74,#B3D1DF,Algic ,Algonquian,Canada
Atong [aot],25.5,90.5,#E4D8BE,Tibeto-Burman ,Bodo-Garo,India
Atsawaka [atc],-14.17,-69.5,#B3D1DF,Panoan ,Main Panoan,Peru
Atsi [atb-2],28,93.5,#EAEDE9,Tibeto-Burman ,Lolo-Burmese,India
Atsugewi [atw],40.75,-121,#619EBD,Palaihnihan ,,USA
Atta_Pamplona-1 [att-2],18.46,121.341,#619EBD,Malayo-Polynesian,Philippines,Philippines
Atta_Pamplona-2 [att],18.458,121.342,#619EBD,Malayo-Polynesian,Philippines,Philippines
Attie [ati],6,-3.82,#B49149,Niger-Kongo ,Atlantic-Congo,Côte d'Ivoire
Au [avt],-3.5,142.083,#E4D8BE,Torricelli ,Central Torricelli ,Papua New Guinea
Auhelawa [kud],-10.284,151.02,#EAEDE9,Oceanic,Western Oceanic,Papua New Guinea
Aulua [aul],-16.33,167.694,#EAEDE9,Oceanic,Southern Oceanic,Vanuatu
Aurland [nob-3],60.87,7.23,#8C5603,Indo-European ,Germanic,Norway
Austral [aut],-23.377,-149.498,#EAEDE9,Oceanic,Central Pacific,French Polynesia
Auyana [auy],-6.523,145.708,#EAEDE9,Trans New Guinea ,Morobe-Eastern Highlands,Papua New Guinea
Auye [auu],-3.495,136.002,#EAEDE9,Trans New Guinea ,Western Trans New Guinea,Indonesia-Papua
Avá-Canoeiro [avv],-13.166403,-47.928611,#E4D8BE,Tupian ,Tupi-Guarani,Brazil
Avar [ava],42.54,46.7,#EAEDE9,Nakh-Daghestanian ,Avar-Andi,Russia
Avatime [avn],6.85,0.44,#A77D2B,Niger-Kongo ,Atlantic-Congo,Ghana
Avava [tmb],-16.224,167.523,#EAEDE9,Oceanic,Southern Oceanic,Vanuatu
Aveteian [xxx-101],-16.443,167.43,#E4D8BE,Oceanic,Southern Oceanic,Vanuatu
Avikam [avi],5.16,-5.25,#B49149,Niger-Kongo ,Atlantic-Congo,Côte d'Ivoire
Avok [xxx-37],-16.53,167.7,#C2A56B,Oceanic,Southern Oceanic,Vanuatu
Avok_Maxbaxo [xxx-172],-16.496,167.665,#B49149,Oceanic,Southern Oceanic,Vanuatu
Avokaya [avu],5,30.2,#D2BD91,Nilo-Saharan ,Central Sudanic,South Sudan
Awa [awb],-6.75,145.667,#D2BD91,Trans New Guinea ,Morobe-Eastern Highlands,Papua New Guinea
Awa Pit [kwi],0.75,-78.5,#EAEDE9,Barbacoan ,Northern Barbacoan,Ecuador
Awabakal [awk],-33.05,151.55,#619EBD,Pama-Nyungan ,Yuin-Kuri,Australia
Awad Bing [bcu],-5.584,146.349,#EAEDE9,Oceanic,Western Oceanic,Papua New Guinea
Awadhi [awa],27.5,81.5,#E4D8BE,Indo-European ,Indo-Iranian,India
Awak [awo],9.86,11.33,#A77D2B,Niger-Kongo ,Atlantic-Congo,Nigeria
Awar [aya],-4,144.625,#D2BD91,Lower Sepik-Ramu ,Ramu,Papua New Guinea
Awara [awx],-6.094,146.441,#E4D8BE,Trans New Guinea ,Morobe-Eastern Highlands,Papua New Guinea
Awbono [awh],-5.119,139.201,#E4D8BE,Bayono-Awbono ,,Indonesia-Papua
Aweer [bob-2],-1.717,40.967,#EAEDE9,Afro-Asiatic ,Cushitic,Kenya
Awera [awr],-2.677,136.242,#EAEDE9,Lakes Plains ,Western Lakes Plains,Indonesia-Papua
Awetí [awe],-12.926,-54.277,#E4D8BE,Tupian ,Aweti,Brazil
Awiakay [afp-2],-4.672,143.712,#EAEDE9,Arafundi ,,Papua New Guinea
Awin [awi],-5.833,142.5,#E4D8BE,Trans New Guinea ,Awin-Pa,Papua New Guinea
Awing [azo],5.88,10.24,#B49149,Niger-Kongo ,Atlantic-Congo,Cameroon
Awiya [som-2],10.851,36.892,#D2BD91,Afro-Asiatic ,Cushitic,Ethiopia
Awngi [awn],10.83,36.67,#E4D8BE,Afro-Asiatic ,Cushitic,Ethiopia
Awngthim [gwm],-12.54,141.98,#EAEDE9,Pama-Nyungan ,Paman,Australia
Awtuw [kmn],-3.5,141.917,#D2BD91,Sepik ,Ram,Papua New Guinea
Awutu [afu],5.42,-0.6,#B49149,Niger-Kongo ,Atlantic-Congo,Ghana
Awyi [auw],-3,140.75,#E4D8BE,Trans New Guinea ,Border,Papua New Guinea
Axi [yix-2],24.4,103.44,#D2BD91,Tibeto-Burman ,Lolo-Burmese,China
Axininca [cpc-2],-9,-75,#619EBD,Arawak ,Southern Maipuran,Peru
Axvax [akv],42.379,46.384,#EAEDE9,Nakh-Daghestanian ,Avar-Andi,Russia
Ayere [aye],7.52,6.02,#D2BD91,Niger-Kongo ,Atlantic-Congo,Nigeria
Aymara [ayr],-16,-69.5,#619EBD,Aymaran ,Aymara,Peru
Aymara_Carangas [ayr-3],-18.45,-67.45,#619EBD,Aymaran ,Aymara,Bolivia
Aymara_Chile [ayc],-19.15,-69.4,#619EBD,Aymaran ,Aymara,Chile
Aymara_Muylaq' [ayr-2],-16.675,-70.712,#619EBD,Aymaran ,Aymara,Peru
Äynu [aib],38.069,76.227,#C2A56B,Turkic ,South-east Turkic,China
Ayoré [ayo],-20.5,-59.25,#EAEDE9,Zamucoan ,,Paraguay
Ayu [ayu],9.26,8.6,#D2BD91,Niger-Kongo ,Atlantic-Congo,Nigeria
Azerbaijani [azj],40.5,48.5,#B49149,Turkic ,South-west Turkic,Azerbaijan
Azerbaijani_Tabriz [azj-3],38.07,46.3,#B49149,Turkic ,South-west Turkic,Azerbaijan
Azeri [azb],40.67,47.75,#B49149,Turkic ,South-west Turkic,Azerbaijan
Azha [aza],23.37,104.25,#B49149,Tibeto-Burman ,Lolo-Burmese,China
Azhe [yiz],24.2,103.6,#C2A56B,Tibeto-Burman ,Lolo-Burmese,China
B'lit_Manobo [mta],6.39,124.23,#EAEDE9,Malayo-Polynesian,Philippines,Philippines
Ba:ngingi_Sama [sse],6.133,121.805,#EAEDE9,Malayo-Polynesian,Barito,Philippines
Baagandji [drl],-32,142.533,#619EBD,Pama-Nyungan ,Yarli-Baagandji,Australia
Baangi [bqx],10.81,5.73,#B49149,Niger-Kongo ,Atlantic-Congo,Nigeria
Baarin [mon-4],43.53,118.67,#996912,Mongolic ,Core Mongolic,China
Baatonum [bba-2],9.63,3,#D2BD91,Niger-Kongo ,Atlantic-Congo,Benin
Baba [bbw],6.11,10.52,#D2BD91,Niger-Kongo ,Atlantic-Congo,Cameroon
Babanki [bbk],6.104,10.311,#996912,Niger-Kongo ,Atlantic-Congo,Cameroon
Babar_North [bcd],-7.83,129.58,#EAEDE9,Malayo-Polynesian,Southeast Maluku,Indonesia-Maluku-south
Babar_Southeast [vbb],-7.92,129.67,#EAEDE9,Malayo-Polynesian,Southeast Maluku,Indonesia-Maluku-south
Babatana [baa],-7.397,157.37,#D2BD91,Oceanic,Western Oceanic,Solomons
Babine-Witsuwit'en [bcr],55,-127,#B3D1DF,Dene-Yeniseic ,Na-Dene,Canada
Babungo [bav],6.12,10.42,#B49149,Niger-Kongo ,Atlantic-Congo,Cameroon
Babuza [bzg-2],24,120.58,#EAEDE9,Austronesian ,Western Plains,Taiwan
Baca [baf],4.36,11.03,#B49149,Niger-Kongo ,Atlantic-Congo,Cameroon
Bachamal [xxx-72],-13.17,130.17,#EAEDE9,Wagaydyic ,Wadjiginy,Australia
Bada [bhz],-1.793,120.313,#E4D8BE,Malayo-Polynesian,Celebic,Indonesia-Sulawesi
Badaga [bfq],11.31,76.6,#EAEDE9,Dravidian ,South Dravidian,India
Bade [bde],12.79,10.66,#E4D8BE,Afro-Asiatic ,Chadic,Nigeria
Bade-2 [bde-2],12,12,#EAEDE9,Afro-Asiatic ,Chadic,Nigeria
Badeng [xkl],3.17,115.22,#E4D8BE,Malayo-Polynesian,North Borneo,Malaysia-Borneo
Badimaya [bia],-27.667,119,#619EBD,Pama-Nyungan ,Kardu,Australia
Badjala [xby],-25.084,152.529,#B3D1DF,Pama-Nyungan ,Waka-Kabic,Australia
Badjiri [jbi],-28.79,145.47,#619EBD,Pama-Nyungan ,Karnic,Australia
Badyara [pbp],11.633,-13.4,#E4D8BE,Niger-Kongo ,Atlantic-Congo,Guinea
Baelelea [bvc],-8.453,160.66,#EAEDE9,Oceanic,Southeast Solomonic,Solomons
Baenggu [bvd],-8.506,160.706,#EAEDE9,Oceanic,Southeast Solomonic,Solomons
Baetora [btr],-15.258,168.166,#EAEDE9,Oceanic,Southern Oceanic,Vanuatu
Bafang [cmn-65],35.6,103.217,#C2A56B,Tibeto-Burman ,Sinitic,China
Bafanji [bfj-2],5.84,10.46,#A77D2B,Niger-Kongo ,Atlantic-Congo,Cameroon
Bafo [bwt],6.351,10.229,#C2A56B,Niger-Kongo ,Atlantic-Congo,Cameroon
Bafut [bfd],6.083,10.0999,#824700,Niger-Kongo ,Atlantic-Congo,Cameroon
Baga_Koga [bgo],10.13,-13.95,#C2A56B,Niger-Kongo ,Atlantic-Congo,Guinea
Baga_Mboteni [bcg],10.83,-14.55,#C2A56B,Niger-Kongo ,Atlantic-Congo,Guinea
Baga_Sitemu [bsp],10.48,-14.48,#C2A56B,Niger-Kongo ,Atlantic-Congo,Guinea
Bagheli [bfy],24.35,81.43,#E4D8BE,Indo-European ,Indo-Iranian,India
Bagirmi [bmi],10.202,17,#B49149,Nilo-Saharan ,Central Sudanic,Chad
Bagri [bgq],29.6,74.3,#EAEDE9,Indo-European ,Indo-Iranian,India
Bagulal [kva],42.56,46.17,#B3D1DF,Nakh-Daghestanian ,Avar-Andi,Russia
Bagusa [bqb],-1.905,137.932,#D2BD91,Kwerba ,Nuclear Kwerba,Indonesia-Papua
Baharnah [afb-4],26.03,50.55,#619EBD,Afro-Asiatic ,Semitic,Bahrain
Bahau [bhv],0.06,115.65,#E4D8BE,Malayo-Polynesian,North Borneo,Indonesia-Kalimantan
Bahinemo [bjh],-4.435,142.726,#EAEDE9,Sepik ,Sepik Hill,Papua New Guinea
Bahing [bhj],27.27,86.56,#996912,Tibeto-Burman ,Kiranti,Nepal
Bahnar [bdq],14,108.5,#EAEDE9,Austroasiatic ,Bahnaric,Vietnam
Bahonsuai [bsu],-2.23,121.71,#EAEDE9,Malayo-Polynesian,Celebic,Indonesia-Sulawesi
Bai [bca],26,100,#C2A56B,Tibeto-Burman ,Bai,China
Bai_Eryuan [bca-2],26.12,99.95,#B49149,Tibeto-Burman ,Bai,China
Bai_Heqing [bca-3],26.56,100.18,#B49149,Tibeto-Burman ,Bai,China
Bai_Lanping [bca-4],26.45,99.42,#B49149,Tibeto-Burman ,Bai,China
Bai_Luobenzhuo [bca-5],26.42,98.89,#996912,Tibeto-Burman ,Bai,China
Bai_Qiliqiao [bca-6],25.65,100.18,#B49149,Tibeto-Burman ,Bai,China
Bai_Xiangyun [bca-7],25.48,100.55,#B49149,Tibeto-Burman ,Bai,China
Bai_Yunlong [bca-8],25.88,99.37,#B49149,Tibeto-Burman ,Bai,China
Bai_Zhoucheng [bca-9],24.48,101.34,#B49149,Tibeto-Burman ,Bai,China
Baikeno [bkx],-9.3,124.32,#EAEDE9,Malayo-Polynesian,Timoric,Timor leste
Baima [bqh],30.32,107.34,#8C5603,Tibeto-Burman ,Bodic,China
Bainapi [dby],-7.904,142.715,#D2BD91,Papuan Gulf ,Strickland,Papua New Guinea
Baining [gcc-2],-4.6,152,#EAEDE9,Baining ,,Papua New Guinea-Bismarcks
Baiso [bsw-2],6.45,37.77,#C2A56B,Afro-Asiatic ,Cushitic,Somalia
Bajau_Semporna [ssb],4.5,118.5,#C2A56B,Malayo-Polynesian,Barito,Indonesia-Kalimantan
Bajau_Sulawesi [bdl],-3.75,122.5,#C2A56B,Malayo-Polynesian,Barito,Indonesia-Sulawesi
Bajuni [swh-3],-1,42.04,#EAEDE9,Niger-Kongo ,Atlantic-Congo,Comoros
Baka [bdh],4.8,31.6,#A77D2B,Nilo-Saharan ,Central Sudanic,South Sudan
Baka [bkc],2.16,13.78,#D2BD91,Ubangian ,Sere-Mba,Cameroon
Bakairí [bkq],-14,-55,#D2BD91,Cariban ,Pekodian,Brazil
Bakairí_West [bkq-2],-14.7302,-56.2479,#E4D8BE,Cariban ,Pekodian,Brazil
Bakaka [bqz],4.8,9.8,#D2BD91,Niger-Kongo ,Atlantic-Congo,Cameroon
Bakhtiari [ldd],31.92,50.86,#EAEDE9,Indo-European ,Indo-Iranian,Iran
Baki [bki],-16.717,168.138,#EAEDE9,Oceanic,Southern Oceanic,Vanuatu
Bakoko [bkh],4.2,9.67,#D2BD91,Niger-Kongo ,Atlantic-Congo,Cameroon
Bakole [kme],4.44,8.97,#D2BD91,Niger-Kongo ,Atlantic-Congo,Cameroon
Bakumpai [bkr],-1.988,114.7,#E4D8BE,Malayo-Polynesian,Barito,Indonesia-Kalimantan
Balaesang [bls],-0.06,119.69,#EAEDE9,Malayo-Polynesian,Celebic,Indonesia-Sulawesi
Balami [new-3],27.801,85.25,#B49149,Tibeto-Burman ,Newaric,Nepal
Balangao [blw],17.167,120.333,#E4D8BE,Malayo-Polynesian,Philippines,Philippines
Balanta [ble],12,-15,#C2A56B,Niger-Kongo ,Atlantic-Congo,Guinea Bissau
Balantak [blz],-0.82,123.431,#EAEDE9,Malayo-Polynesian,Celebic,Indonesia-Sulawesi
Balante_Sofa [bjt],12.54,-15.67,#B49149,Niger-Kongo ,Atlantic-Congo,Guinea Bissau
Balawaia [snc-2],-9.98,147.865,#EAEDE9,Oceanic,Western Oceanic,Papua New Guinea
Balearic [cat-3],39.5,3,#C2A56B,Indo-European ,Romance,Spain
Balendru [led],1.968,30.485,#B49149,Nilo-Saharan ,Central Sudanic,Democratic Republic of the Congo
Bali-Vitu [wiv],-4.733,149.283,#EAEDE9,Oceanic,Western Oceanic,Papua New Guinea-Bismarcks
Balinese [ban],-8.583,115.25,#E4D8BE,Malayo-Polynesian,Malayo-Sumbawan,Indonesia-NTB
Balingian [mel-6],2.92,112.53,#B3D1DF,Malayo-Polynesian,Malayo-Sumbawan,Malaysia-Borneo
Balochi [bgp-2],27,63.5,#EAEDE9,Indo-European ,Indo-Iranian,Pakistan
Balti [bft],35.2,76,#EAEDE9,Tibeto-Burman ,Bodic,Pakistan
Baluchi [bgp],28,62,#EAEDE9,Indo-European ,Indo-Iranian,Iran
Balui Liko [ree],1.92,114.52,#E4D8BE,Malayo-Polynesian,North Borneo,Malaysia-Borneo
Bam [bmc],-3.61,144.82,#E4D8BE,Oceanic,Western Oceanic,Papua New Guinea
Bambalang [bmo],5.86,10.54,#A77D2B,Niger-Kongo ,Atlantic-Congo,Cameroon
Bambara [bam],12.5,-7.5,#D2BD91,Mande ,Western Mande,Mali
Bamenyam [bce],5.77,10.33,#996912,Niger-Kongo ,Atlantic-Congo,Cameroon
Bamu [bcf],-8,143.833,#EAEDE9,Kiwaian ,Bamu,Papua New Guinea
Bamun [bax],5.726,10.904,#B49149,Niger-Kongo ,Atlantic-Congo,Cameroon
Bamunka [bvm],6,10.51,#B49149,Niger-Kongo ,Atlantic-Congo,Cameroon
Bana [bcw],10.42,13.58,#619EBD,Afro-Asiatic ,Chadic,Cameroon
Banam Bay [vrt-2],-16.41,167.78,#B49149,Oceanic,Southern Oceanic,Vanuatu
Banda [bnd],-5.25,133.17,#EAEDE9,Malayo-Polynesian,Central Maluku,Indonesia-Maluku-north
Banda [bpd],2,22,#C2A56B,Ubangian ,Bandaic,Central African Republic
Banda_Ndele [bfl],8.03,23.9,#C2A56B,Ubangian ,Bandaic,Central African Republic
Bandi [bza],7.74,-10.17,#D2BD91,Mande ,Western Mande,Liberia
Bandiaal [bqj],13.02,-15.32,#A77D2B,Niger-Kongo ,Atlantic-Congo,Senegal
Bandjalang [bdy],-28.75,153,#B3D1DF,Pama-Nyungan ,Yugambeh-Bundjalung,Australia
Bandjalang-2 [bdy-4],-28.39,152.61,#B3D1DF,Pama-Nyungan ,Yugambeh-Bundjalung,Australia
Bandjalang-Gidabal [bdy-2],-28.25,152,#B3D1DF,Pama-Nyungan ,Yugambeh-Bundjalung,Australia
Banggai [bgz],-1.42,123.17,#EAEDE9,Malayo-Polynesian,Celebic,Indonesia-Sulawesi
Banggime [dbb],14.78,-3.76,#B49149,Banggime ,,Mali
Bangolan [bgj],6.05,10.45,#B49149,Niger-Kongo ,Atlantic-Congo,Cameroon
Bangru [hru-3],27.9,93.35,#D2BD91,Tibeto-Burman ,Hrusish,India
Bangubangu [bnx],-4.689,27.693,#EAEDE9,Niger-Kongo ,Atlantic-Congo,Democratic Republic of the Congo
Baniwa_Central [bwi-2],1.4091,-68.1358,#B3D1DF,Arawak ,Northern Maipuran,Brazil
Baniwa_do_Içana [bwi],2.18,-67.77,#B3D1DF,Arawak ,Northern Maipuran,Brazil
Baniwa_Rio_Negro [bwi-3],0.053,-67.43,#B3D1DF,Arawak ,Northern Maipuran,Brazil
Baniwa_Siusi [bwi],2.19,-67.76,#B3D1DF,Arawak ,Northern Maipuran,Brazil
Banjar [bjn],0.75,115.79,#619EBD,Malayo-Polynesian,Malayo-Sumbawan,Indonesia-Kalimantan
Banjari [lmn-2],16.5,77.455,#E4D8BE,Indo-European ,Indo-Iranian,India
Bankariya [cdm-2],27.5,85,#EAEDE9,Tibeto-Burman ,Chepang,Nepal
Bankon [abb],4.37,9.64,#D2BD91,Niger-Kongo ,Atlantic-Congo,Cameroon
Banoni [bcm],-6.417,155.25,#EAEDE9,Oceanic,Western Oceanic,Papua New Guinea-Bougainville
Bantang [pho-5],21.75,102.25,#B49149,Tibeto-Burman ,Lolo-Burmese,Laos
Bantawa [bap],27.2,87.1,#E4D8BE,Tibeto-Burman ,Kiranti,Nepal
Banten [sun-2],-6.35,106.1,#D2BD91,Malayo-Polynesian,Malayo-Sumbawan,Indonesia-Java
Bantik [bnq],1.564,124.859,#E4D8BE,Malayo-Polynesian,Philippines,Indonesia-Sulawesi
Bantoanon [bno],12.784,122.049,#619EBD,Malayo-Polynesian,Philippines,Philippines
Banyaduq [byd],0.5,110,#EAEDE9,Malayo-Polynesian,Malayo-Sumbawan,Indonesia-Kalimantan
Banyum [bab],11.497,-16.5,#A77D2B,Niger-Kongo ,Atlantic-Congo,Guinea Bissau
Banyun [bcb-2],12.75,-16.3,#A77D2B,Niger-Kongo ,Atlantic-Congo,Senegal
Baoan [peh],35.05,102.1,#E4D8BE,Mongolic ,Core Mongolic,China
Baoan [yue-19],22.55,113.9,#E4D8BE,Tibeto-Burman ,Sinitic,China
Baoan_Dahejia [peh-2],35.72,102.88,#E4D8BE,Mongolic ,Core Mongolic,China
Baoan_Dongxiang [peh-5],35.6,103.22,#E4D8BE,Mongolic ,Core Mongolic,China
Baoan_Kangjia [peh-4],35.04,101.25,#B49149,Mongolic ,Core Mongolic,China
Baoan_Ñantoq [peh-3],35.41,102.08,#E4D8BE,Mongolic ,Core Mongolic,China
Bará [bao],0.1,-70.45,#E4D8BE,Tucanoan ,East Tucanoan,Colombia
Baraba [tat-3],55.333,78.333,#C2A56B,Turkic ,North-west Turkic,Russia
Barai [bbb],-9.417,148,#EAEDE9,Southeast Papuan ,Owen Stanley Ranges,Papua New Guinea
Barain_Giliya [bva-2],12.08,18.58,#EAEDE9,Afro-Asiatic ,Chadic,Chad
Barain_Jalking [bva-3],12.22,18.8,#EAEDE9,Afro-Asiatic ,Chadic,Chad
Barain_Jalkiya [bva],12.18,18.68,#EAEDE9,Afro-Asiatic ,Chadic,Chad
Barain_Komiya [bva-4],12.17,18.75,#EAEDE9,Afro-Asiatic ,Chadic,Chad
Baram [brd],27.95,85,#E4D8BE,Tibeto-Burman ,Western Himalayan,Nepal
Barang-barang [lji],-6.4,120.5,#E4D8BE,Malayo-Polynesian,Celebic,Indonesia-Sulawesi
Barapasi [brp],-2.247,136.995,#EAEDE9,Geelvink Bay ,Barapasi-Sauri-Kofei,Indonesia-Papua
Barasano [bsn],-0.25,-70.75,#E4D8BE,Tucanoan ,East Tucanoan,Colombia
Bardi [bcj],-16.58,122.92,#619EBD,Nyulnyul ,West Nyulnyul,Australia
Baré [bae],1.6,-66.8,#B3D1DF,Arawak ,Northern Maipuran,Venezuela
Bareke [mpr],-8.543,158.113,#EAEDE9,Oceanic,Western Oceanic,Solomons
Barese [ita-46],41.1,16.9,#D2BD91,Indo-European ,Romance,Italy
Bargam [mlp],-4.87,145.76,#EAEDE9,Trans New Guinea ,Madang,Papua New Guinea
Bari [bfa],3.8,31,#E4D8BE,Nilo-Saharan ,Nilotic,South Sudan
Barí [mot],9,-73.5,#E4D8BE,Chibchan ,Core Chibchan,Venezuela
Bariai [bch],-5.497,148.63,#EAEDE9,Oceanic,Western Oceanic,Papua New Guinea
Bariba [bba],10.217,2.667,#D2BD91,Niger-Kongo ,Atlantic-Congo,Benin
Bariji [bjc],-9.211,148.401,#EAEDE9,Southeast Papuan ,Owen Stanley Ranges,Papua New Guinea
Barman Thar [xxx-183],25.899,89.899,#C2A56B,Tibeto-Burman ,Bodo-Garo,India
Barok [bjk],-3.48,152.19,#E4D8BE,Oceanic,Western Oceanic,Papua New Guinea-Bismarcks
Barranbinya [zmu-2],-30.1,145.93,#619EBD,Pama-Nyungan ,Muruwari,Australia
Barranquenho [por-2],38.13,-6.975,#B49149,Indo-European ,Romance,Portugal
Barrow_Point [bpt],-14.373,144.63,#EAEDE9,Pama-Nyungan ,Paman,Australia
Baruga [bjz],-9.328,148.734,#EAEDE9,Trans New Guinea ,Oro-Wharton,Papua New Guinea
Barunggam [xxx-64],-26.25,151.25,#EAEDE9,Pama-Nyungan ,Waka-Kabic,Australia
Barupu [wra],-3.083,142.083,#D2BD91,Skou ,Eastern Skou,Papua New Guinea
Baruya [byr],-6.917,145.833,#E4D8BE,Trans New Guinea ,Morobe-Eastern Highlands,Papua New Guinea
Basaa [bas],5,10.15,#D2BD91,Niger-Kongo ,Atlantic-Congo,Cameroon
Basap [bdb],0.9,117.57,#E4D8BE,Malayo-Polynesian,Basap,Indonesia-Kalimantan
Basari [bsc],12.25,-13,#A77D2B,Niger-Kongo ,Atlantic-Congo,Senegal
Basay [byq-2],25,121.86,#B3D1DF,Austronesian ,East Formosan,Taiwan
Basay_Trobriawan [byq],25,122,#B3D1DF,Austronesian ,East Formosan,Taiwan
Basel [gsw-4],47.56,7.59,#E4D8BE,Indo-European ,Germanic,Switzerland
Bashkarik [gwc-2],35.358,72.137,#C2A56B,Indo-European ,Indo-Iranian,Pakistan
Bashkir [bak],53,58,#B49149,Turkic ,North-west Turkic,Russia
Basila [ade],8.17,0.62,#A77D2B,Niger-Kongo ,Atlantic-Congo,Benin
Basketo [bst],6.384,36.651,#EAEDE9,Afro-Asiatic ,Omotic,Ethiopia
Basque [eus],43.32,-1.95,#EAEDE9,Basque ,,Spain
Basque_Arbizu [eus-6],42.9,-2,#D2BD91,Basque ,,Spain
Basque_Baztan [eus-8],43.2,-1.5,#D2BD91,Basque ,,Spain
Basque_Gernika [eus-5],43.3,-2.7,#D2BD91,Basque ,,Spain
Basque_Lekeitio [],43.365,-2.51,#EAEDE9,Basque ,,Spain
Basque_Ondarroa [eus-7],43.3,-2.4,#D2BD91,Basque ,,Spain
Bassossi [bsi],5.24,9.52,#C2A56B,Niger-Kongo ,Atlantic-Congo,Cameroon
Bata [bta],9.7,12.5,#E4D8BE,Afro-Asiatic ,Chadic,Nigeria
Batak_Dairi [btd],2.546,98.3,#E4D8BE,Malayo-Polynesian,Batak-Barrier Islands,Indonesia-Sumatra
Batak_Karo [btx],3,98.167,#D2BD91,Malayo-Polynesian,Batak-Barrier Islands,Indonesia-Sumatra
Batak_Palawan [bya],10.115,119.214,#B3D1DF,Malayo-Polynesian,Philippines,Philippines
Batang [khg-8],30.57,98.97,#B49149,Tibeto-Burman ,Bodic,China
Batanga [bnm],2.09,9.75,#C2A56B,Niger-Kongo ,Atlantic-Congo,Equatorial Guinea
Bateg [btq],5,102.5,#B49149,Austroasiatic ,Aslian,Malaysia
Bathari [bhm],17.6,56,#D2BD91,Afro-Asiatic ,Semitic,Oman
Batsbi [bbl-2],42.05,45.31,#EAEDE9,Nakh-Daghestanian ,Nakh,Georgia
Batuley [bay],-5.8,134.75,#EAEDE9,Malayo-Polynesian,Southeast Maluku,Indonesia-Maluku-south
Bau [bbd],-5.213,145.556,#EAEDE9,Trans New Guinea ,Madang,Papua New Guinea
Baukan_Murut [bnb],5.273,116.519,#B3D1DF,Malayo-Polynesian,North Borneo,Malaysia-Borneo
Baule [bci],7.5,-5,#D2BD91,Niger-Kongo ,Atlantic-Congo,Côte d'Ivoire
Baure [brg],-15,-64,#EAEDE9,Arawak ,Southern Maipuran,Bolivia
Bauro [bxa],-10.647,161.858,#EAEDE9,Oceanic,Southeast Solomonic,Solomons
Bauzi [bvz],-2.5,137.667,#E4D8BE,Geelvink Bay ,,Indonesia-Papua
Bavarian [bar-3],46.73,12.28,#996912,Indo-European ,Germanic,Italy
Bawm [bgr],22.5,92.25,#EAEDE9,Tibeto-Burman ,Kuki-Chin-Naga,India
Bayso [bsw],6.28,37.76,#EAEDE9,Afro-Asiatic ,Cushitic,Somalia
Bayso-2 [bsw-3],6.456,37.745,#EAEDE9,Afro-Asiatic ,Cushitic,Ethiopia
Bayungu [bxj],-23.3,113.7,#619EBD,Pama-Nyungan ,Kanyara-Mantharta,Australia
Bduul [ajp-3],30.33,35.44,#EAEDE9,Afro-Asiatic ,Semitic,Syria
Beary [xxx-150],12.605,75.01,#E4D8BE,Dravidian ,South Dravidian,India
Bedamini [beo],-6.321,142.489,#E4D8BE,Trans New Guinea ,Bosavi,Papua New Guinea
Bedayuh [bth],1.01,110.51,#E4D8BE,Malayo-Polynesian,Land Dayak,Malaysia-Borneo
Bedik [tnr],12.75,-12.467,#A77D2B,Niger-Kongo ,Atlantic-Congo,Senegal
Bediondo [bjv],10.203,17,#B49149,Nilo-Saharan ,Central Sudanic,Chad
Befang [bby-2],6.28,10.03,#C2A56B,Niger-Kongo ,Atlantic-Congo,Cameroon
Begak [dbj],5.25,118.833,#E4D8BE,Malayo-Polynesian,North Borneo,Malaysia-Borneo
Beihai [yue-12],21.47,109.1,#C2A56B,Tibeto-Burman ,Sinitic,China
Beja [bej],18,36,#EAEDE9,Afro-Asiatic ,Cushitic,Sudan
Bekati [bei],0.975,109.425,#EAEDE9,Malayo-Polynesian,Land Dayak,Indonesia-Kalimantan
Beketan [bkn-3],1.3,114.9,#E4D8BE,Malayo-Polynesian,Land Dayak,Indonesia-Kalimantan
Bekwarra [bkv],6.74,8.86,#EAEDE9,Niger-Kongo ,Atlantic-Congo,Nigeria
Bekwil [bkw],1.72,14.65,#D2BD91,Niger-Kongo ,Atlantic-Congo,Cameroon
Bela [bxd-2],24.33,98.4,#E4D8BE,Tibeto-Burman ,Lolo-Burmese,Myanmar
Belait [beg],4.382,114.462,#EAEDE9,Malayo-Polynesian,North Borneo,Brunei
Belanda Boor [bxb],6.5,28,#A77D2B,Nilo-Saharan ,Nilotic,South Sudan
Belarussian [bel],54,27,#D2BD91,Indo-European ,Balto-Slavic,Belarus
Belep [yly],-19.75,163.67,#E4D8BE,Oceanic,Southern Oceanic,New Caledonia
Belhare [byw],27,87.25,#EAEDE9,Tibeto-Burman ,Kiranti,Nepal
Beli [blm],6.75,29.75,#B49149,Nilo-Saharan ,Central Sudanic,South Sudan
Bella Coola [blc],52.5,-126.67,#619EBD,Salish ,Bella Coola,Canada
Bellona [mnv-2],-11.296,159.79,#EAEDE9,Oceanic,Central Pacific,Solomons
Belneng [xxx-174],9.15,9.51,#E4D8BE,Afro-Asiatic ,Chadic,Nigeria
Bemal [bmh],-5.234,145.475,#EAEDE9,Trans New Guinea ,Madang,Papua New Guinea
Bemba [bem],-11,31,#EAEDE9,Niger-Kongo ,Atlantic-Congo,Zambia
Bembe [bmb],-4,14,#EAEDE9,Niger-Kongo ,Atlantic-Congo,Democratic Republic of the Congo
Bena [bez],-9.27,35.04,#EAEDE9,Niger-Kongo ,Atlantic-Congo,Tanzania
Bena-Bena [bef],-6.114,145.567,#EAEDE9,Trans New Guinea ,Morobe-Eastern Highlands,Papua New Guinea
Bench [bcq],7,35.75,#EAEDE9,Afro-Asiatic ,Omotic,Ethiopia
Bende [bdp],-6,30.5,#EAEDE9,Niger-Kongo ,Atlantic-Congo,Tanzania
Beng [nhb],7.83,-4.25,#D2BD91,Mande ,Eastern Mande,Côte d'Ivoire
Benga [bng],1.2,9.5,#D2BD91,Niger-Kongo ,Atlantic-Congo,Equatorial Guinea
Bengali [ben],22.5,90,#D2BD91,Indo-European ,Indo-Iranian,Bangladesh
Bengali_Barisal [ben-10],22.7,90.37,#D2BD91,Indo-European ,Indo-Iranian,Bangladesh
Bengali_east [ben-8],24.4,90.28,#D2BD91,Indo-European ,Indo-Iranian,Bangladesh
Bengali_west [ben-9],23.4,89.45,#D2BD91,Indo-European ,Indo-Iranian,Bangladesh
Bengni [adi-10],28.66,93.37,#EAEDE9,Tibeto-Burman ,Macro-Tani,China
Benuaq [lbx-2],-1.6,115.51,#E4D8BE,Malayo-Polynesian,Barito,Indonesia-Kalimantan
Benyadu [byd],0.595,109.62,#E4D8BE,Malayo-Polynesian,Land Dayak,Indonesia-Kalimantan
Beothuk [bue],48,-55,#EAEDE9,Beothuk ,,Canada
Bergamasco [ita-16],45.7,9.75,#B49149,Indo-European ,Romance,Italy
Bergensk [nno],60.39,5.33,#702B01,Indo-European ,Germanic,Norway
Berik [bkl],-2.25,138.92,#E4D8BE,Trans New Guinea ,Orya-Tor,Indonesia-Papua
Berlinerisch [deu-3],52.5,13.15,#A77D2B,Indo-European ,Germanic,Germany
Bernese [gsw-3],46.83,7.62,#8C5603,Indo-European ,Germanic,Switzerland
Berom [bom-2],9.67,8.81,#D2BD91,Niger-Kongo ,Atlantic-Congo,Nigeria
Berrichon [fra-17],47.08,2.38,#A77D2B,Indo-European ,Romance,France
Berta [wti],10.67,34.5,#EAEDE9,Nilo-Saharan ,Berta,Ethiopia
Besemah [pse],-4.2,103,#B3D1DF,Malayo-Polynesian,Malayo-Sumbawan,Indonesia-Sumatra
Beserrman [udm],58.02,52.15,#C2A56B,Uralic ,Permic,Russia
Bésiro [xxx-16],-16.6375,-61.9271,#E4D8BE,Arawak ,Southern Maipuran,Bolivia
Besoa [bep],-1.599,120.379,#E4D8BE,Malayo-Polynesian,Celebic,Indonesia-Sulawesi
Betawi [bew],-6.21,107.02,#C2A56B,Malayo-Polynesian,Malayo-Sumbawan,Indonesia-Java
Bété [btg],6.25,-6.25,#8C5603,Niger-Kongo ,Atlantic-Congo,Côte d'Ivoire
Bete [byf],7.05,9.748,#996912,Niger-Kongo ,Atlantic-Congo,Nigeria
Betta Kurumba [xub],11.58,76.55,#E4D8BE,Dravidian ,South Dravidian,India
Bewani [pgi],-3.024,141.167,#C2A56B,Trans New Guinea ,Border,Papua New Guinea
Bezhta [kap],42.133,46.128,#C2A56B,Nakh-Daghestanian ,Tsezic,Russia
Bhaṭe-sa zib [xxx-154],34.94,72.88,#E4D8BE,Indo-European ,Indo-Iranian,Afghanistan
Bhatibari [ben-6],26.48,89.54,#D2BD91,Indo-European ,Indo-Iranian,India
Bhele [bhy],0.25,28.67,#D2BD91,Niger-Kongo ,Atlantic-Congo,Democratic Republic of the Congo
Bhili [bhb],22,73,#C2A56B,Indo-European ,Indo-Iranian,India
Bhili_Mahikantha [bhb-2],23.83,72.5,#E4D8BE,Indo-European ,Indo-Iranian,India
Bhoi [kha-5],25.9,91.88,#EAEDE9,Austroasiatic ,Khasi-Palaung,India
Bhojpuri [bho],26.8,85.3,#E4D8BE,Indo-European ,Indo-Iranian,India
Bhojpuri_Nagpuria [bho-4],23.36,85.33,#E4D8BE,Indo-European ,Indo-Iranian,India
Bhojpuri_Northern [bho-2],26.76,83.37,#E4D8BE,Indo-European ,Indo-Iranian,India
Bhojpuri_Western [bho-3],25.32,83.01,#E4D8BE,Indo-European ,Indo-Iranian,India
Bhumij [muw],21.333,86.5,#E4D8BE,Austroasiatic ,Munda,India
Biafada [bif],11.47,-15.13,#D2BD91,Niger-Kongo ,Atlantic-Congo,Guinea Bissau
Biage [bdf],-9.158,147.664,#EAEDE9,Southeast Papuan ,Owen Stanley Ranges,Papua New Guinea
Biak [bhw],-1.14,136,#EAEDE9,Malayo-Polynesian,Eastern Malayo-Polynesian,Indonesia-Papua
Biak-west [bhw-2],-0.835,135.59,#EAEDE9,Malayo-Polynesian,Eastern Malayo-Polynesian,Indonesia-Papua
Biaka [axk-2],3.65,17.27,#D2BD91,Niger-Kongo ,Atlantic-Congo,Congo
Biali [beh],11.04,1.08,#E4D8BE,Niger-Kongo ,Atlantic-Congo,Benin
Bian_Marind [bpv],-7.222,140.548,#EAEDE9,Anim ,Marind-Yaqay,Indonesia-Papua
Biangai [big],-7.33,146.75,#E4D8BE,Trans New Guinea ,Oro-Wharton,Papua New Guinea
Biao [byk-3],23.9,112.2,#A77D2B,Tai-Kadai ,Kam-Tai,China
Biao_Dagang [byk-2],23.81,112.135,#A77D2B,Tai-Kadai ,Kam-Tai,China
Biao_Yonggu [byk],23.72,112.07,#A77D2B,Tai-Kadai ,Kam-Tai,China
Biaomin Yao [bmt],23.6,111.75,#E4D8BE,Hmong-Mien ,Mienic,China
Biatah [bth-2],1.264,110.32,#C2A56B,Malayo-Polynesian,Land Dayak,Indonesia-Kalimantan
Bidjara [bym],-24.5,146.592,#619EBD,Pama-Nyungan ,Greater Maric,Australia
Bierebo [bnk],-16.667,168.131,#D2BD91,Oceanic,Southern Oceanic,Vanuatu
Bieria [brj],-16.807,168.194,#EAEDE9,Oceanic,Southern Oceanic,Vanuatu
Bih [rad],12.48,108.025,#A77D2B,Malayo-Polynesian,Malayo-Sumbawan,Vietnam
Bijago [bjg],11.28,-15.83,#D2BD91,Niger-Kongo ,Atlantic-Congo,Guinea Bissau
Bijago_Orango [bjg-2],11.034,-16.146,#D2BD91,Niger-Kongo ,Atlantic-Congo,Guinea Bissau
Bikele [biw],3.66,12.86,#B49149,Niger-Kongo ,Atlantic-Congo,Cameroon
Bikol [bcl],13.333,123.5,#B3D1DF,Malayo-Polynesian,Philippines,Philippines
Bikol_Iriga [bcl-3],13.39,123.33,#B3D1DF,Malayo-Polynesian,Philippines,Philippines
Bikol_Naga [bcl-4],13.62,123.17,#EAEDE9,Malayo-Polynesian,Philippines,Philippines
Biksi [yet],-4.013,140.494,#EAEDE9,Yetfa-Biksi ,,Papua New Guinea
Bila [bip],1.17,28.76,#B49149,Niger-Kongo ,Atlantic-Congo,Democratic Republic of the Congo
Bilba [bpz],-10.67,123.34,#EAEDE9,Malayo-Polynesian,Timoric,Indonesia-NTT
Bilbil [brz],-5.26,145.76,#EAEDE9,Oceanic,Western Oceanic,Papua New Guinea
Biliau [bcu-2],-5.65,146.3,#EAEDE9,Oceanic,Western Oceanic,Papua New Guinea
Bilin [byn],15.9,38.3,#D2BD91,Afro-Asiatic ,Cushitic,Eritrea
Bilinara [nbj],-16,131.667,#619EBD,Pama-Nyungan ,Ngumbin-Yapa,Australia
Biloxi [bll],32.25,-90,#EAEDE9,Siouan ,Western Siouan,USA
Bilua [blb],-7.75,156.667,#EAEDE9,Solomons East Papuan ,,Solomons
Bima [bhp],-8.545,118.677,#EAEDE9,Malayo-Polynesian,Bima,Indonesia-NTB
Bima_Kolo [bhp-2],-8.32,118.76,#EAEDE9,Malayo-Polynesian,Bima,Indonesia-NTB
Bimin [bhl],-5.43,141.942,#EAEDE9,Trans New Guinea ,Ok,Papua New Guinea
Bimoba [bim],10.46,0.06,#E4D8BE,Niger-Kongo ,Atlantic-Congo,Ghana
Bina [bmn],-10.249,149.683,#EAEDE9,Oceanic,Western Oceanic,Papua New Guinea
Binandere [bhg],-8.167,147.917,#EAEDE9,Trans New Guinea ,Oro-Wharton,Papua New Guinea
Binbinga [wmb-2],-16.17,135,#619EBD,Mirndi ,Ngurlun,Australia
Bine [bon],-9.05,142.884,#E4D8BE,Eastern Trans Fly ,,Papua New Guinea
Bini_Edo [bin],6.42,5.83,#D2BD91,Niger-Kongo ,Atlantic-Congo,Nigeria
Bini-2 [bin-2],6.41,5.7,#D2BD91,Niger-Kongo ,Atlantic-Congo,Nigeria
Binigura [pnv],-22.488,116.506,#619EBD,Pama-Nyungan ,Kanyara-Mantharta,Australia
Bininj Gun-Wok [gup],-12.5,133.75,#EAEDE9,Macro-Gunwinygu ,Gunwingyuan proper,Australia
Bintan Orang Laut [zlm-14],1.077,104.5,#C2A56B,Malayo-Polynesian,Malayo-Sumbawan,Indonesia-Sumatra
Bintulu [bny],3.83,113.67,#B3D1DF,Malayo-Polynesian,North Borneo,Malaysia-Borneo
Binukid [bkd],8.3,125,#B3D1DF,Malayo-Polynesian,Philippines,Philippines
Binumarien [bjr],-6.25,146.08,#EAEDE9,Trans New Guinea ,Morobe-Eastern Highlands,Papua New Guinea
Binyang [cmn-44],23.22,108.82,#E4D8BE,Tibeto-Burman ,Sinitic,China
Bipi [biq],-2.109,146.4,#EAEDE9,Oceanic,Admiralties,Papua New Guinea
Bira [brf],1.5,30.03,#D2BD91,Niger-Kongo ,Atlantic-Congo,Democratic Republic of the Congo
Bira [brf],1.6,30.13,#B49149,Niger-Kongo ,Atlantic-Congo,Democratic Republic of the Congo
Birao [brr],-9.746,160.515,#EAEDE9,Oceanic,Southeast Solomonic,Solomons
Birgid [btf],13,27,#B49149,Afro-Asiatic ,Chadic,Sudan
Biri [bvi],7.55,6.233,#A77D2B,Ubangian ,Sere-Mba,Nigeria
Biri [bzr],-20.5,146.5,#619EBD,Pama-Nyungan ,Greater Maric,Australia
Birifor [biv],9.29,-2.73,#B49149,Niger-Kongo ,Atlantic-Congo,Ghana
Biritai [bqq],-3,137.6,#D2BD91,Lakes Plains ,Tariku,Indonesia-Papua
Birom [bom],9.67,8.83,#D2BD91,Niger-Kongo ,Atlantic-Congo,Nigeria
Birriya [xpa],-24.5,143.5,#619EBD,Pama-Nyungan ,Pirriya,Australia
Bisa [bib],11.783,0.366,#E4D8BE,Mande ,Eastern Mande,Burkina Faso
Bisayah_Sarawak [bsb],5.33,115.5,#E4D8BE,Malayo-Polynesian,North Borneo,Malaysia-Borneo
Bishnupriya [bpy],25.08,92.92,#619EBD,Indo-European ,Indo-Iranian,India
Bisiacco [vec-2],45.95,12.45,#EAEDE9,Indo-European ,Romance,Italy
Bissa [bib-2],10.43,-1.67,#E4D8BE,Mande ,Eastern Mande,Burkina Faso
Bisu [bii],19.75,100,#D2BD91,Tibeto-Burman ,Lolo-Burmese,Thailand
Biya [mij-6],6.615,10.18,#B49149,Niger-Kongo ,Atlantic-Congo,Cameroon
Bizkaian [eus-3],43.25,-2.98,#EAEDE9,Basque ,,Spain
Bjokapakha [tsj-3],26.965,91.05,#B49149,Tibeto-Burman ,Bodic,Bhutan
Bjokapakha [tsj-5],26.965,91.045,#D2BD91,Tibeto-Burman ,Bodic,Bhutan
Blablanga [blp],-8.17,159.42,#EAEDE9,Oceanic,Western Oceanic,Solomons
Blablanga_Ghove [blp-2],-8.33,159.5,#EAEDE9,Oceanic,Western Oceanic,Solomons
Black_Tai [blt-2],19.75,105,#B49149,Tai-Kadai ,Kam-Tai,Vietnam
Blackfoot [bla],50,-112.67,#619EBD,Algic ,Algonquian,Canada
Blagar [beu],-8.33,124.25,#EAEDE9,Timor-Alor-Pantar ,Alor-Pantar,Indonesia-NTT
Blang [blr],23.3,100,#A77D2B,Austroasiatic ,Khasi-Palaung,China
Boano [bzl],0.51,120.99,#EAEDE9,Malayo-Polynesian,Celebic,Indonesia-Sulawesi
Boano [bzn],-2.96,127.95,#EAEDE9,Malayo-Polynesian,Central Maluku,Indonesia-Maluku-north
Boazi [kvg],-7,141.25,#E4D8BE,Anim ,Boazi,Papua New Guinea
Boazi_Kuni [kvg-2],-6.913,141.326,#D2BD91,Anim ,Boazi,Papua New Guinea
Bobangi [bni],0,17.8,#D2BD91,Niger-Kongo ,Atlantic-Congo,Democratic Republic of the Congo
Bobo_Madare_North [bbo-2],12.42,-4.48,#C2A56B,Mande ,Western Mande,Burkina Faso
Bobo_Madare_South [bwq],11.54,-4.26,#D2BD91,Mande ,Western Mande,Burkina Faso
Bobo-Fing [bbo],11.83,-4.42,#D2BD91,Mande ,Western Mande,Burkina Faso
Bobongko [bgb],-0.5,121.75,#EAEDE9,Malayo-Polynesian,Celebic,Indonesia-Sulawesi
Bobot [bty],-3.33,130.17,#EAEDE9,Malayo-Polynesian,Central Maluku,Indonesia-Maluku-north
Bocota [sab],9.34,-82.24,#D2BD91,Chibchan ,Core Chibchan,Panama
Bogaya [boq],-5.621,142.231,#D2BD91,Trans New Guinea ,Duna-Bogaya,Papua New Guinea
Bohemian [ces-3],50,13,#EAEDE9,Indo-European ,Balto-Slavic,Czech Republic
Boholano [ceb-2],9.9,124.2,#619EBD,Malayo-Polynesian,Philippines,Philippines
Bohutu [bxh],-10.5,150.33,#EAEDE9,Oceanic,Western Oceanic,Papua New Guinea
Boiken [bzf],-3.525,143.415,#B49149,Ndu ,Boiken,Papua New Guinea
Bokar [adi-2],29,94.35,#D2BD91,Tibeto-Burman ,Macro-Tani,India
Boko [bkp],10.52,3.72,#D2BD91,Mande ,Eastern Mande,Benin
Bokyi [bky],6.1,9.06,#D2BD91,Niger-Kongo ,Atlantic-Congo,Nigeria
Bola [bnp],-5.5,150,#EAEDE9,Oceanic,Western Oceanic,Papua New Guinea-Bismarcks
Bola [bxd-3],24.45,98.6,#D2BD91,Tibeto-Burman ,Lolo-Burmese,China
Bolaang-Mongondow [mog],0.55,124,#EAEDE9,Malayo-Polynesian,Philippines,Indonesia-Sulawesi
Bolano [bzl],0.52,121,#EAEDE9,Malayo-Polynesian,Celebic,Indonesia-Sulawesi
Bole [bol],11.007,10.747,#EAEDE9,Afro-Asiatic ,Chadic,Nigeria
Bolgo [bvo-2],10.9,18.81,#A77D2B,Niger-Kongo ,Atlantic-Congo,Chad
Bolgo_Dugag [bvo],10.79,18.61,#B49149,Niger-Kongo ,Atlantic-Congo,Chad
Bolinao [smk],16.341,119.893,#EAEDE9,Malayo-Polynesian,Philippines,Philippines
Bologna [ita-3],44.51,11.35,#E4D8BE,Indo-European ,Romance,Italy
Bolyu [ply],24.78,105.35,#D2BD91,Austroasiatic ,Mangic,China
Bom [bmf],9.28,-11.6,#D2BD91,Niger-Kongo ,Atlantic-Congo,Sierra Leone
Boma [boh],2.5,15.6,#D2BD91,Niger-Kongo ,Atlantic-Congo,Cameroon
Bomitaba [zmx],1.7,17.37,#E4D8BE,Niger-Kongo ,Atlantic-Congo,Congo
Bomitaba-2 [zmx],1.701,17.371,#D2BD91,Niger-Kongo ,Atlantic-Congo,Congo
Bonan [peh-6],35.7,103,#E4D8BE,Mongolic ,Core Mongolic,China
Bonda [bfw-2],19,82.75,#EAEDE9,Austroasiatic ,Munda,India
Bondei [bou],-5.082,38.432,#EAEDE9,Niger-Kongo ,Atlantic-Congo,Tanzania
Bonerate [bna],-7.38,121.79,#EAEDE9,Malayo-Polynesian,Celebic,Indonesia-Sulawesi
Bongaigaon [asm-4],26.48,90.56,#D2BD91,Indo-European ,Indo-Iranian,India
Bonggi [bdg],7.3,117.2,#EAEDE9,Malayo-Polynesian,North Borneo,Philippines
Bonggo [bpg],-2.28,139.6,#EAEDE9,Oceanic,Western Oceanic,Indonesia-Papua
Bongili [bui],0.37,16.61,#EAEDE9,Niger-Kongo ,Atlantic-Congo,Congo
Bongo [bot],7.5,28,#B49149,Nilo-Saharan ,Central Sudanic,South Sudan
Boni [bob],0.5,43,#EAEDE9,Afro-Asiatic ,Cushitic,Somalia
Bonifacino [lij-3],41.39,9.16,#D2BD91,Indo-European ,Romance,France
Bontoc_Guinaang [bnc-2],17.08,120.9,#B3D1DF,Malayo-Polynesian,Philippines,Philippines
Bontok [bnc],17.083,120.917,#B3D1DF,Malayo-Polynesian,Philippines,Philippines
Bor [bvf],5.605,27.472,#EAEDE9,Afro-Asiatic ,Chadic,South Sudan
Bora [boa],-2.25,-71.75,#E4D8BE,Boran ,Bora,Peru
Bori [adi-5],28.2,94.6,#D2BD91,Tibeto-Burman ,Macro-Tani,India
Bormiese [ita-15],46.47,10.375,#B49149,Indo-European ,Romance,Italy
Bornholmsk [scy],55,15,#8C5603,Indo-European ,Germanic,Denmark
Boro [brx],26.75,92,#E4D8BE,Tibeto-Burman ,Bodo-Garo,India
Boro [bwo],10.66,35.34,#E4D8BE,Afro-Asiatic ,Omotic,Ethiopia
Borong Kosorong [ksr],-6.534,147.502,#EAEDE9,Trans New Guinea ,Morobe-Eastern Highlands,Papua New Guinea
Boróro [bor],-15,-52,#D2BD91,Macro-Je ,Bororo,Brazil
Bororo-2 [bor-2],-16.6,-55.2,#D2BD91,Macro-Je ,Bororo,Brazil
Boruca [brn],9.001,-83.325,#EAEDE9,Chibchan ,Core Chibchan,Costa Rica
Bosavi [bco-2],-6.425,142.765,#D2BD91,Trans New Guinea ,Bosavi,Papua New Guinea
Bosnian [bos],44,18,#EAEDE9,Indo-European ,Balto-Slavic,Bosnia
Botin_Samban [kbx-2],-4.33,144.17,#E4D8BE,Ap Ma ,,Papua New Guinea
Botlikh [bph],42.66,46.22,#EAEDE9,Nakh-Daghestanian ,Avar-Andi,Russia
Bourbonnais [fra-11],46.57,3.33,#A77D2B,Indo-European ,Romance,France
Bouyei [pcc-5],25.817,107.55,#E4D8BE,Tai-Kadai ,Kam-Tai,China
Bouyei_Changshun Duncao [pcc-8],25.9,106.5,#B49149,Tai-Kadai ,Kam-Tai,China
Bouyei_Dushan Huanghou [pcc-10],25.4,107.6,#B49149,Tai-Kadai ,Kam-Tai,China
Bouyei_Guiding Houchang [pcc-12],26.4,107,#B49149,Tai-Kadai ,Kam-Tai,China
Bouyei_Huishui Yashui [pcc-11],26,106.9,#B49149,Tai-Kadai ,Kam-Tai,China
Bouyei_Libo Fucun [pcc-9],25.3,108,#B49149,Tai-Kadai ,Kam-Tai,China
Bouyei_Luodian Bamao [pcc-7],25.3,106.95,#B49149,Tai-Kadai ,Kam-Tai,China
Bouyei_Luodian Luokun [pcc-6],25.25,106.7,#B49149,Tai-Kadai ,Kam-Tai,China
Bouyei_Pingtang Sizhai [pcc-13],25.65,107.4,#B49149,Tai-Kadai ,Kam-Tai,China
Bouyei_Sandu Zhouqin [pcc-14],25.7,107.9,#B49149,Tai-Kadai ,Kam-Tai,China
Bouyei_west [pcc-2],25.75,107.333,#E4D8BE,Tai-Kadai ,Kam-Tai,China
Brabants [nld-9],50.75,4.65,#824700,Indo-European ,Germanic,Belgium
Brag-g.yab [khg-2],30.65,97.55,#C2A56B,Tibeto-Burman ,Bodic,China
Brahui [brh],29,67,#619EBD,Dravidian ,North Dravidian,Pakistan
Brahui_Jahlawan [brh],25.8,66.5,#EAEDE9,Dravidian ,North Dravidian,Pakistan
Brahui_Sarawan [brh],29,66.6,#EAEDE9,Dravidian ,North Dravidian,Pakistan
Brajbhasha [bra],27.49,77.67,#EAEDE9,Indo-European ,Indo-Iranian,India
Brao [brb],14,107.001,#B49149,Austroasiatic ,Bahnaric,Cambodia
Brao_Krung [brb-3],13.8,107,#C2A56B,Austroasiatic ,Bahnaric,Cambodia
Breton [bre],47.65,-2.75,#996912,Indo-European ,Celtic,France
Breton_Kerneveg [bre-2],48,-4.1,#996912,Indo-European ,Celtic,France
Breton_Leoneg [bre-3],48.6,-4.3,#996912,Indo-European ,Celtic,France
Breton_Tregiereg [bre-4],48.5,-3.125,#996912,Indo-European ,Celtic,France
Bribri [bzd],9.5,-83,#EAEDE9,Chibchan ,Core Chibchan,Costa Rica
Brokpa [sgt],27.33,92,#EAEDE9,Tibeto-Burman ,Bodic,Bhutan
Bru_Western [brv],16.75,104.75,#996912,Austroasiatic ,Katuic,Laos
Brugge [vls-2],51.22,3.23,#B49149,Indo-European ,Germanic,Netherlands
Bruu [bru],17.167,104.333,#996912,Austroasiatic ,Katuic,Thailand
Bu [jid],9.05,8.66,#D2BD91,Niger-Kongo ,Atlantic-Congo,Nigeria
Buamu [box],11.17,-3.5,#EAEDE9,Niger-Kongo ,Atlantic-Congo,Burkina Faso
Buang_Central [bzh],-6.855,146.774,#D2BD91,Oceanic,Western Oceanic,Papua New Guinea
Bube [bvb],3.5,8.7,#D2BD91,Niger-Kongo ,Atlantic-Congo,Equatorial Guinea
Bubia [bbx-2],4.02,9.22,#D2BD91,Niger-Kongo ,Atlantic-Congo,Cameroon
Budong-bundong [bdx],-2.171,119.328,#EAEDE9,Malayo-Polynesian,Greater South Sulawesi,Indonesia-Sulawesi
Budu [buu],2.01,27.95,#B49149,Niger-Kongo ,Atlantic-Congo,Democratic Republic of the Congo
Budu [buu],2.011,27.949,#B49149,Niger-Kongo ,Atlantic-Congo,Democratic Republic of the Congo
Buduma [bdm],13.6,14,#E4D8BE,Afro-Asiatic ,Chadic,Chad
Budux [bdk],41.19,48.37,#A77D2B,Nakh-Daghestanian ,Lezgic,Russia
Bugan [bbh],23.75,105,#A77D2B,Austroasiatic ,Mangic,China
Bugan_Nala [bbh-2],23.487,105.15,#A77D2B,Austroasiatic ,Mangic,China
Bughotu [bgt],-8.478,159.808,#EAEDE9,Oceanic,Southeast Solomonic,Solomons
Bugis [bug],-4,120,#E4D8BE,Malayo-Polynesian,Greater South Sulawesi,Indonesia-Sulawesi
Bugun [bgn],27.3,92.35,#EAEDE9,Tibeto-Burman ,Kho-Bwa,India
Buhid [bku],12.574,121.25,#EAEDE9,Malayo-Polynesian,Philippines,Philippines
Buin [buo],-6.75,155.833,#EAEDE9,South Bougainville ,Buin,Papua New Guinea-Bougainville
Bukar_Sadong [sdo],0.97,110.66,#D2BD91,Malayo-Polynesian,Land Dayak,Malaysia-Borneo
Bukat [bvk],1.29,113.25,#B3D1DF,Malayo-Polynesian,Land Dayak,Malaysia-Borneo
Bukawa [buk],-6.732,147.359,#E4D8BE,Oceanic,Western Oceanic,Papua New Guinea
Buket [bvk],0.8,112.6,#E4D8BE,Malayo-Polynesian,Land Dayak,Malaysia-Borneo
Bukit [bvu],-2.75,115.64,#619EBD,Malayo-Polynesian,Malayo-Sumbawan,Indonesia-Kalimantan
Bukitan [bkn],2.35,114.89,#B3D1DF,Malayo-Polynesian,Malayo-Sumbawan,Malaysia-Borneo
Bukiyip_Arapesh [ape],-3.667,142.5,#C2A56B,Torricelli ,Kombio-Arapesh,Papua New Guinea
Bukusu [bxk],1.02,35,#EAEDE9,Niger-Kongo ,Atlantic-Congo,Kenya
Bularnu [yil],-21.5,137.5,#619EBD,Pama-Nyungan ,Warluwaric,Australia
Bulgarian [bul],43,25,#D2BD91,Indo-European ,Balto-Slavic,Bulgaria
Bulgarian_Banat [bul-3],45.7,20.9,#C2A56B,Indo-European ,Balto-Slavic,Bulgaria
Bulgarian_Boboshevo [bul-6],42.15,23,#EAEDE9,Indo-European ,Balto-Slavic,Bulgaria
Bulgarian_Erkech [bul-7],42.84,27.58,#E4D8BE,Indo-European ,Balto-Slavic,Bulgaria
Bulgarian_Gabare [bul-8],43.316,21.92,#E4D8BE,Indo-European ,Balto-Slavic,Bulgaria
Bulgarian_Lovec [bul-9],43.14,24.71,#E4D8BE,Indo-European ,Balto-Slavic,Bulgaria
Bulgarian_Moesian [bul-2],42.7,27.75,#D2BD91,Indo-European ,Balto-Slavic,Bulgaria
Bulgarian_Momchilovci [bul-10],41.66,24.77,#D2BD91,Indo-European ,Balto-Slavic,Bulgaria
Bulgarian_North-west [bul-5],43.6,23.18,#C2A56B,Indo-European ,Balto-Slavic,Bulgaria
Bulgarian_Nova Nadezda [bul-11],42.02,25.72,#EAEDE9,Indo-European ,Balto-Slavic,Bulgaria
Buli [bzq],0.833,128.5,#EAEDE9,Malayo-Polynesian,Eastern Malayo-Polynesian,Indonesia-Maluku-north
Bulu [bum],2.917,11.15,#D2BD91,Niger-Kongo ,Atlantic-Congo,Cameroon
Bulusu [bqr],3,116,#E4D8BE,Malayo-Polynesian,Bulusu,Indonesia-Kalimantan
Bum [bmv],6.49,10.42,#D2BD91,Niger-Kongo ,Atlantic-Congo,Cameroon
Buma [tkw],-11.63,166.83,#EAEDE9,Oceanic,Te Motu,Solomons_East
Buma [yns-2],-3.33,17.5,#EAEDE9,Niger-Kongo ,Atlantic-Congo,Democratic Republic of the Congo
Bumang [bvp],22.5,96.5,#B49149,Austroasiatic ,Khasi-Palaung,Laos
Bumbita_Arapesh [aon],-3.667,142.833,#C2A56B,Torricelli ,Kombio-Arapesh,Papua New Guinea
Bumthang [kjz],27.802,90.8,#C2A56B,Tibeto-Burman ,Bodic,Bhutan
Bumthang_Ura [kjz-2],27.48,90.905,#D2BD91,Tibeto-Burman ,Bodic,Bhutan
Bunama [bdd],-10.064,151.075,#EAEDE9,Oceanic,Western Oceanic,Papua New Guinea
Bunan [bfu],32.61,76.91,#D2BD91,Tibeto-Burman ,Western Himalayan,India
Bunaq [bfn],-9.1,125.15,#D2BD91,Timor-Alor-Pantar ,Mainland Timor-Alor-Pantar ,Indonesia-NTT
Bunaq_Lolotoen [bfn-2],-9.161,125.26,#EAEDE9,Timor-Alor-Pantar ,Mainland Timor-Alor-Pantar ,Timor leste
Bunaq_South [bfn-3],-9.227,125.393,#EAEDE9,Timor-Alor-Pantar ,Mainland Timor-Alor-Pantar ,Timor leste
Bundeli [bns],23.18,79.95,#EAEDE9,Indo-European ,Indo-Iranian,India
Bunganditj [xbg],-36.5,141,#619EBD,Pama-Nyungan ,Kulinic,Australia
Bungku [bkz],-3,122.33,#EAEDE9,Malayo-Polynesian,Celebic,Indonesia-Sulawesi
Bunong [cmo],12.63,107.3,#B49149,Austroasiatic ,Bahnaric,Cambodia
Bunu [buh],25.5,108.7,#D2BD91,Hmong-Mien ,Hmongic,China
Bunu_Dongnu [bwx],23.88,108.08,#A77D2B,Hmong-Mien ,Hmongic,China
Bunu_Nunu [bwx-2],23.799,110.178,#C2A56B,Hmong-Mien ,Hmongic,China
Bunuba [bck],-17.75,125.75,#619EBD,Bunuban ,,Australia
Bunun [bnn],23.5,121,#619EBD,Austronesian ,Bunun,Taiwan
Bunun_Isbukun [bnn-2],23.459,121.056,#619EBD,Austronesian ,Bunun,Taiwan
Buol [blf],1,121.5,#EAEDE9,Malayo-Polynesian,Philippines,Indonesia-Sulawesi
Bura [bwr],10.611,12.195,#E4D8BE,Afro-Asiatic ,Chadic,Nigeria
Burarra [bvr],-12.25,134.667,#EAEDE9,Macro-Gunwinygu ,Maningrida,Australia
Burji [bji],5.5,37.9,#EAEDE9,Afro-Asiatic ,Cushitic,Ethiopia
Burmbar [vrt],-16.372,167.749,#D2BD91,Oceanic,Southern Oceanic,Vanuatu
Burmese [mya],20,96,#D2BD91,Tibeto-Burman ,Lolo-Burmese,Myanmar
Burmese_Arakan [mya-4],20.14,92.9,#E4D8BE,Tibeto-Burman ,Lolo-Burmese,Myanmar
Burmese_Intha [mya-3],20.55,96.92,#C2A56B,Tibeto-Burman ,Lolo-Burmese,Myanmar
Burmese_Myeik [mya-2],12.43,98.6,#D2BD91,Tibeto-Burman ,Lolo-Burmese,Myanmar
Burmese_Palaw [mya-6],13.12,98.68,#D2BD91,Tibeto-Burman ,Lolo-Burmese,Myanmar
Burmese_Tavoyan [mya-5],14.08,98.2,#D2BD91,Tibeto-Burman ,Lolo-Burmese,Myanmar
Burmeso [bzu],-2.447,138.209,#EAEDE9,Burmeso ,,Indonesia-Papua
Buru [mhs],-3.7,126.4,#EAEDE9,Malayo-Polynesian,Central Maluku,Indonesia-Maluku-north
Burum [bmu],-6.484,147.311,#E4D8BE,Trans New Guinea ,Morobe-Eastern Highlands,Papua New Guinea
Burum_Mindik [bmu-3],-6.47,147.44,#E4D8BE,Trans New Guinea ,Morobe-Eastern Highlands,Papua New Guinea
Burun [bdi-2],10.8,33.8,#C2A56B,Nilo-Saharan ,Nilotic,Sudan
Burushaski [bsk],36.5,74.5,#EAEDE9,Burushaski ,,Pakistan
Burushaski_eastern [bsk-2],36.32,74.65,#EAEDE9,Burushaski ,,Pakistan
Burushaski_Jammu-Kashmir [bsk-2],34.11,74.82,#EAEDE9,Burushaski ,,India
Buruwai [asi-2],-3.55,133.33,#EAEDE9,Trans New Guinea ,Asmat-Kamoro,Indonesia-Papua
Buryat [bxm],52,108,#D2BD91,Mongolic ,Core Mongolic,Russia
Busa [bqp],9.67,4,#D2BD91,Mande ,Eastern Mande,Nigeria
Busa-2 [bqp-2],9.91,4.4,#D2BD91,Mande ,Eastern Mande,Nigeria
Busami [bsm],-1.8,135.95,#EAEDE9,Malayo-Polynesian,Eastern Malayo-Polynesian,Indonesia-Papua
Bushong [buf],-4.67,21.3,#D2BD91,Niger-Kongo ,Atlantic-Congo,Democratic Republic of the Congo
Busoa [bup],-5.62,122.616,#EAEDE9,Malayo-Polynesian,Celebic,Indonesia-Sulawesi
Butmas_Tur [bnr],-15.376,167.028,#EAEDE9,Oceanic,Southern Oceanic,Vanuatu
Buwal [bhs],10.5,13.86,#095D91,Afro-Asiatic ,Chadic,Cameroon
Buxing [bgk-2],21.48,101.57,#996912,Austroasiatic ,Khasi-Palaung,China
Buyang [yha],24,104.8,#B49149,Tai-Kadai ,Kadaic,China
Buyi_Hezhang [pcc-3],27.12,104.73,#996912,Tai-Kadai ,Kam-Tai,China
Buyuan_Jino [jiy],22.05,101,#A77D2B,Tibeto-Burman ,Lolo-Burmese,China
Bwaidoka [bwd],-9.479,150.311,#EAEDE9,Oceanic,Western Oceanic,Papua New Guinea
Byansi [bee],30.17,80.5,#B49149,Tibeto-Burman ,Western Himalayan,India
C'lela [dri],11.47,5.27,#C2A56B,Niger-Kongo ,Atlantic-Congo,Nigeria
Caac [msq],-20.42,164.42,#D2BD91,Oceanic,Southern Oceanic,New Caledonia
Cabecar [cjp],9.91,-83.68,#D2BD91,Chibchan ,Core Chibchan,Costa Rica
Cabiyarí [cbb],-0.1302,-70.6927,#B3D1DF,Arawak ,Northern Maipuran,Colombia
Cacaopera [ccr],13.74,-88.11,#619EBD,Misumalpan ,Sumalpan,Nicaragua
Caddo [cad],33.33,-93.5,#619EBD,Caddoan ,Caddo,USA
Cadorino [ita-20],46.445,12.39,#D2BD91,Indo-European ,Romance,Italy
Cagayano [cgc],10.47,119.87,#B3D1DF,Malayo-Polynesian,Philippines,Philippines
Cagliaritano [ita-54],39.225,9.15,#D2BD91,Indo-European ,Romance,Italy
Cahita [opt-2],27.9,-109,#EAEDE9,Uto-Aztecan ,Cahitan,Mexico
Cahuilla [chl],33.75,-117.75,#EAEDE9,Uto-Aztecan ,North Uto-Aztecan,USA
Caijia_Niujiaojing [xxx-135],27.067,104.297,#C2A56B,Tibeto-Burman ,Caijia,China
Caijia_Xingfa [xxx-134],26.934,104.863,#D2BD91,Tibeto-Burman ,Caijia,China
Cak [ckh],21.41,92.6,#C2A56B,Tibeto-Burman ,Jingpho,Bangladesh
Cakchiquel [ckf],14.5,-91,#E4D8BE,Mayan ,Core Mayan,Guatemala
Calabrian [scn-2],38.148,16.18,#E4D8BE,Indo-European ,Romance,Italy
Calabrian-2 [scn-4],38.92,16.6,#EAEDE9,Indo-European ,Romance,Italy
Callahuaya [caw],-15,-69,#619EBD,Puquina ,,Bolivia
Calusa [xxx-175],27.76,-82.55,#D2BD91,Tunica ,,USA
Camling [rab],27.3,86.8,#EAEDE9,Tibeto-Burman ,Kiranti,Nepal
Campa [cni],-12,-74,#B3D1DF,Arawak ,Southern Maipuran,Peru
Campalagian [cml],-4.02,119.62,#EAEDE9,Malayo-Polynesian,Greater South Sulawesi,Indonesia-Sulawesi
Campobassano [ita-44],41.6,14.66,#D2BD91,Indo-European ,Romance,Italy
Camsá [kbh],1,-77,#E4D8BE,Camsá ,,Colombia
Camuno [lmo-6],45.943,10.28,#B49149,Indo-European ,Romance,Italy
Canamari [knm-2],-6.46,-68.78,#B3D1DF,Katukinan ,,Brazil
Canarian [spa-10],28,-15.4,#EAEDE9,Indo-European ,Romance,Cape Verde Islands
Candoshi [cbu],-4.17,-77,#619EBD,Candoshi ,,Peru
Canela-Krahô [ram],-6.5,-45,#996912,Macro-Je ,Je,Brazil
Cantabrian_East [spa-7],43.3,-4.1,#EAEDE9,Indo-European ,Romance,Spain
Cantabrian_West [spa-6],43.3,-3.9,#EAEDE9,Indo-European ,Romance,Spain
Cantonese [yue],22.333,114,#D2BD91,Tibeto-Burman ,Sinitic,China
Cantonese_Nanning [yue-9],22.817,108.317,#A77D2B,Tibeto-Burman ,Sinitic,China
Canzés [lmo-4],45.85,9.27,#B49149,Indo-European ,Romance,Italy
Cao Bang [zyg-2],23.18,105.41,#B49149,Tai-Kadai ,Kam-Tai,China
Caodeng_rGyalrong [jya-6],32.2,101.8,#B49149,Tibeto-Burman ,Na-Qiangic,China
Capanahua [kaq],-7,-74,#B3D1DF,Panoan ,Main Panoan,Peru
Cappadocian [cpg],38.66,34.85,#C2A56B,Indo-European ,Graeco-Phrygian,Turkey
Caquinte [cot],-11.7092,-73.9252,#B3D1DF,Arawak ,Southern Maipuran,Peru
Car [caq],9.167,92.75,#996912,Austroasiatic ,Nicobar,India_Andaman-Nicobars
Cara [cfd],10.13,8.75,#D2BD91,Niger-Kongo ,Atlantic-Congo,Nigeria
Carapana [cbc],0.45,-71,#E4D8BE,Tucanoan ,East Tucanoan,Colombia
Carib [car],7.85,-59,#E4D8BE,Cariban ,Guianan Carib,Guyana
Carib_Suriname [crb-2],5.7,-55.932,#E4D8BE,Arawak ,Northern Maipuran,Suriname
Carib_Venezuela [crb-3],7.969,-65.67,#EAEDE9,Arawak ,Northern Maipuran,Venezuela
Carijona [cbd],0.148,-70.708,#D2BD91,Cariban ,Guianan Carib,Colombia
Carolinian [cal],15,146,#B49149,Oceanic,Micronesian,USA Federated States of Micronesia
Carrarese [ita-28],44.08,10.1,#D2BD91,Indo-European ,Romance,Italy
Cashibo-Cacataibo [cbr],-9.1,-75.5,#EAEDE9,Panoan ,Main Panoan,Peru
Cashinahua [cbs],-10.5,-71.75,#B3D1DF,Panoan ,Main Panoan,Peru
Castellanese [sdn-2],40.913,8.71,#D2BD91,Indo-European ,Romance,Italy-Sardinia
Catalan [cat],41.4,2.02,#D2BD91,Indo-European ,Romance,Spain
Catalan_Northern [cat-5],42.7,2.9,#EAEDE9,Indo-European ,Romance,France
Catalan_Northwestern [cat-6],42.5,1.5,#EAEDE9,Indo-European ,Romance,Andorra
Catanese [ita-51],37.5,15.1,#EAEDE9,Indo-European ,Romance,Italy
Catanzarese [ita-50],38.9,16.6,#EAEDE9,Indo-European ,Romance,Italy
Catawba [chc],34,-81,#B3D1DF,Siouan ,Eastern Siouan,USA
Cauho [pho-6],21.4,102,#B49149,Tibeto-Burman ,Lolo-Burmese,Laos
Cavineña [cav],-12.25,-67.5,#B3D1DF,Tacanan ,Araona-Tacana,Bolivia
Cayapa [cbi],1.2,-78.75,#B3D1DF,Barbacoan ,Southern Barbacoan,Ecuador
Cayapo [txu-2],-7.77,-51.67,#A77D2B,Macro-Je ,Je,Brazil
Cayuga [cay],42.75,-76.75,#EAEDE9,Iroquoian ,Northern Iroquoian,USA
Cayuvava [cyb],-12.5,-67,#C2A56B,Cayuvava ,,Bolivia
Ce [ruk],10,8.67,#B49149,Niger-Kongo ,Atlantic-Congo,Nigeria
Cebuano [ceb],10,124,#619EBD,Malayo-Polynesian,Philippines,Philippines
Cemuhi [cam],-20.833,165,#D2BD91,Oceanic,Southern Oceanic,New Caledonia
Central !Kung [nmn-3],-19.57,18.12,#EAEDE9,Tuu ,Hua,Botswana
Central Banda [tor],6.64,22.76,#A77D2B,Ubangian ,Bandaic,Central African Republic
Central-Eastern Niger Fulfulde [fuq],15.09,8.43,#EAEDE9,Niger-Kongo ,Atlantic-Congo,Niger
Cerma [cme],10.249,-4.85,#EAEDE9,Niger-Kongo ,Atlantic-Congo,Burkina Faso
Ch'ol [cti],17.49,-92.47,#E4D8BE,Mayan ,Core Mayan,Mexico
Cha'palaachi [cbi-2],0.838,-78.877,#EAEDE9,Barbacoan ,Southern Barbacoan,Ecuador
Chachapuya [xxx-16],-6.42,-77.92,#EAEDE9,Chachapoya,,Peru
Chacobo [cao],-12.25,-65,#B3D1DF,Panoan ,Southern Panoan,Bolivia
Chadong [cdy],25.2,110.2,#B49149,Tai-Kadai ,Kam-Tai,China
Chaha [sgw],8.2,38,#C2A56B,Afro-Asiatic ,Semitic,Ethiopia
Chakali [cli],9.83,-1.9,#B49149,Niger-Kongo ,Atlantic-Congo,Ghana
Chakavian [hrv-2],45.17,14.85,#EAEDE9,Indo-European ,Balto-Slavic,Croatia
Chakhar [mon-3],44.94,115.38,#C2A56B,Mongolic ,Core Mongolic,Mongolia
Chakhar-2 [mon-5],43,115,#EAEDE9,Mongolic ,Core Mongolic,China
Chakma [ccp],22.9,92.23,#D2BD91,Indo-European ,Indo-Iranian,Bangladesh
Chakosi [cko-2],10.36,0.48,#D2BD91,Niger-Kongo ,Atlantic-Congo,Ghana
Chali [tgf],27.3,91.26,#EAEDE9,Tibeto-Burman ,Bodic,Bhutan
Chaling [gan-20],28.81,113.64,#B49149,Tibeto-Burman ,Sinitic,China
Cham_Eastern [cjm],10.93,108.1,#C2A56B,Malayo-Polynesian,Malayo-Sumbawan,Vietnam
Cham_Western [cja],12,105.5,#B49149,Malayo-Polynesian,Malayo-Sumbawan,Cambodia
Chama [ese-6],-11.33,-66.25,#B3D1DF,Tacanan ,Ese'ejja,Bolivia
Chamacoco [ceg],-22.3578,-59.7197,#B49149,Zamucoan ,,Paraguay
Chamalal_Gigatil [cji],42.54,46.06,#B3D1DF,Nakh-Daghestanian ,Avar-Andi,Russia
Chamalal_Nizhnee_Gakvari [cji-2],42.53,46.05,#B3D1DF,Nakh-Daghestanian ,Avar-Andi,Russia
Chamba [ndi-2],8.19,11.74,#C2A56B,Niger-Kongo ,Atlantic-Congo,Cameroon
Chambri [can],-4.167,143.083,#E4D8BE,Lower Sepik-Ramu ,Lower Sepik,Papua New Guinea
Chamicuro [ccc],-5.114,-75.736,#EAEDE9,Arawak ,Western Maipuan,Peru
Chamorro [cha],13.583,145,#E4D8BE,Malayo-Polynesian,Chamorro,Guam
Chaná [qsi],-34,-55,#EAEDE9,Charruan ,,Uruguay
Chang [chg],26.23,94.817,#E4D8BE,Tibeto-Burman ,Kuki-Chin-Naga,India
Changchow [nan-25],24.75,117.833,#D2BD91,Tibeto-Burman ,Sinitic,China
Changchun [cmn-85],43.88,125.32,#E4D8BE,Tibeto-Burman ,Sinitic,China
Changle [cmn-45],25.92,119.55,#D2BD91,Tibeto-Burman ,Sinitic,China
Changpaoyao [bmt-2],25.417,107.88,#D2BD91,Hmong-Mien ,Mienic,China
Changsha [hsn],28,113,#D2BD91,Tibeto-Burman ,Sinitic,China
Changting [hak-7],25.83,116.35,#E4D8BE,Tibeto-Burman ,Sinitic,China
Changzhi [cjy-8],36.167,113,#D2BD91,Tibeto-Burman ,Sinitic,China
Changzhou [wuu-31],31.783,119.967,#C2A56B,Tibeto-Burman ,Sinitic,China
Channel_English [eng-8],49.44,-2.367,#C2A56B,Indo-European ,Germanic,Britain-Channel isles
Chantyal [chx],28.75,83.5,#E4D8BE,Tibeto-Burman ,Bodic,Nepal
Chaoyang [nan-42],23.32,116.48,#EAEDE9,Tibeto-Burman ,Sinitic,China
Chaozhou [nan-26],23.667,116.667,#E4D8BE,Tibeto-Burman ,Sinitic,China
Chaplino [ess-2],65,-173,#B3D1DF,Eskimo-Aleut ,Eskimo,Russia
Chaplino_Alaska [ess-3],63.5,-170.5,#B3D1DF,Eskimo-Aleut ,Eskimo,USA-Alaska
Chara [cra],6.617,36.238,#EAEDE9,Afro-Asiatic ,Omotic,Ethiopia
Charleroi [wln-2],50.41,4.45,#D2BD91,Indo-European ,Romance,Belgium
Chatino [ctp],16.5,-97.25,#EAEDE9,Otomanguean ,Eastern Otomanguean,Mexico
Chatino_Tataltepec [cta],16.3,-97.55,#EAEDE9,Otomanguean ,Eastern Otomanguean,Mexico
Chatino_Yaitepec [ctp-2],16.225,-97.27,#EAEDE9,Otomanguean ,Eastern Otomanguean,Mexico
Chatino_Zenzontepec [czn],17.34,-92.34,#EAEDE9,Otomanguean ,Eastern Otomanguean,Mexico
Chattisgarhi [hne],21.25,81.25,#EAEDE9,Indo-European ,Indo-Iranian,India
Chaudangsi [cdn],29.7,80.48,#B49149,Tibeto-Burman ,Western Himalayan,India
Che [ruk-2],10.03,8.65,#C2A56B,Niger-Kongo ,Atlantic-Congo,Nigeria
Che'_Wong [cwg],3.833,102,#C2A56B,Austroasiatic ,Aslian,Malaysia
Chechen [che],43.13,45.54,#C2A56B,Nakh-Daghestanian ,Nakh,Russia
Cheke_Holo_Maringe [mrn],-8.5,159.67,#EAEDE9,Oceanic,Western Oceanic,Solomons
Chemakum [xch],48.08,-122.93,#619EBD,Chimakuan ,,USA
Chemehuevi [ute-3],34.33,-115.17,#EAEDE9,Uto-Aztecan ,Numic,USA
Chemnitz [nds-5],50.83,12.92,#D2BD91,Indo-European ,Germanic,Germany
Chenapian [cjn],-4.25,142.33,#E4D8BE,Sepik ,Iwam-Wogamus,Papua New Guinea
Chenchu [cde],15.88,79.25,#EAEDE9,Dravidian ,South-Central Dravidian ,India
Cheng [jeg],15,107.167,#8C5603,Austroasiatic ,Bahnaric,Laos
Chengdu [cmn-14],30.6,104.1,#E4D8BE,Tibeto-Burman ,Sinitic,China
Chengfeng [xxx-109],29.685,113.49,#D2BD91,Hmong-Mien ,Hmongic,China
Chengqiao [wuu-12],31.63,121.4,#996912,Tibeto-Burman ,Sinitic,China
Chenxian [hsn-18],26.34,113.285,#E4D8BE,Tibeto-Burman ,Sinitic,China
Chenzhou [hsn-16],25.77,113.01,#E4D8BE,Tibeto-Burman ,Sinitic,China
Chepang [cdm],28.05,83.92,#E4D8BE,Tibeto-Burman ,Chepang,Nepal
Cheremis [mrj],55.624,55.484,#C2A56B,Uralic ,Mari,Russia
Cherepon [cpn],6.05,-0.11,#EAEDE9,Niger-Kongo ,Atlantic-Congo,Ghana
Cherokee [chr],35.5,-83.5,#EAEDE9,Iroquoian ,Southern Iroquoian,USA
Cherokee_lower [chr-2],37.48,-82.53,#EAEDE9,Iroquoian ,Southern Iroquoian,USA
Cherokee_Qualla [chr-3],35.5,-83.26,#EAEDE9,Iroquoian ,Southern Iroquoian,USA
Cheyenne [chy],43.5,-104,#619EBD,Algic ,Algonquian,USA
Chiapanec [cip],16.66,-91.94,#B3D1DF,Otomanguean ,Western Otomanguean,Mexico
Chibcha [xxx-149],9.2,-74.5,#EAEDE9,Chibchan ,Core Chibchan,Colombia
Chichewa [nya-2],-14.8,32.81,#EAEDE9,Niger-Kongo ,Atlantic-Congo,Malawi
Chichimec [pei],24.87,-103.7,#D2BD91,Otomanguean ,Western Otomanguean,Mexico
Chickasaw [cic],34,-88,#619EBD,Muskogean ,Western Muskogean,USA
Chietino [ita-43],42.35,14.17,#EAEDE9,Indo-European ,Romance,Italy
Chiguano_Izoceño [gui-2],-20,-63,#E4D8BE,Tupian ,Tupi-Guarani,Bolivia
ChiKunda [kdn],-15.73,30.28,#EAEDE9,Niger-Kongo ,Atlantic-Congo,Mozambique
Chilcotin [clc],52,-125,#619EBD,Dene-Yeniseic ,Na-Dene,Canada
Chimane [cas-4],-14.64,-67.84,#E4D8BE,Moseten ,Chimane,Bolivia
Chimariko [cid],41,-123,#B3D1DF,Chimariko ,,USA
Chimila [cbg],10.75,-73,#EAEDE9,Chibchan ,Core Chibchan,Colombia
Chimwiini [swh-2],1.1,43,#EAEDE9,Niger-Kongo ,Atlantic-Congo,Somalia
Chin_Daai [dao],21.1,93.65,#D2BD91,Tibeto-Burman ,Kuki-Chin-Naga,Myanmar
Chin_Daai_Mkuui [dao-2],21.25,93.5,#C2A56B,Tibeto-Burman ,Kuki-Chin-Naga,Myanmar
Chin_Falam [cfm],22.9,93.67,#EAEDE9,Tibeto-Burman ,Kuki-Chin-Naga,Myanmar
Chin_Tiddim [ctd],23.333,93.667,#E4D8BE,Tibeto-Burman ,Kuki-Chin-Naga,Myanmar
Chinali [cih],32.5,77.83,#EAEDE9,Indo-European ,Indo-Iranian,India
Chinantec_Chiltepec [csa],17.93,-96.17,#D2BD91,Otomanguean ,Western Otomanguean,Mexico
Chinantec_Comaltepec [cco],17.57,-96.55,#C2A56B,Otomanguean ,Western Otomanguean,Mexico
Chinantec_La-Alicia [xxx-169],17.64,-96.02,#C2A56B,Otomanguean ,Western Otomanguean,Mexico
Chinantec_Lacova [xxx-165],17.46,-95.94,#C2A56B,Otomanguean ,Western Otomanguean,Mexico
Chinantec_Lalana [cnl],17.475,-95.875,#C2A56B,Otomanguean ,Western Otomanguean,Mexico
Chinantec_Latani [tpx-2],17.38,-95.91,#D2BD91,Otomanguean ,Western Otomanguean,Mexico
Chinantec_Lealao [cle],17.32,-95.93,#E4D8BE,Otomanguean ,Western Otomanguean,Mexico
Chinantec_Mayultianguis [xxx-170],17.92,-96.57,#D2BD91,Otomanguean ,Western Otomanguean,Mexico
Chinantec_Ojitlan [chj],18.05,-96.4,#D2BD91,Otomanguean ,Western Otomanguean,Mexico
Chinantec_Ozumacin [chz],17.68,-96.23,#A77D2B,Otomanguean ,Western Otomanguean,Mexico
Chinantec_Palantla [cpa],17.83,-96.39,#D2BD91,Otomanguean ,Western Otomanguean,Mexico
Chinantec_Petlapa [xxx-171],17.48,-96.025,#C2A56B,Otomanguean ,Western Otomanguean,Mexico
Chinantec_Quetzalapa [xxx-166],17.34,-95.88,#D2BD91,Otomanguean ,Western Otomanguean,Mexico
Chinantec_Quiotepec [chq],17.6,-96.58,#C2A56B,Otomanguean ,Western Otomanguean,Mexico
Chinantec_Rio-Chiquito [xxx-168],17.6,-95.97,#C2A56B,Otomanguean ,Western Otomanguean,Mexico
Chinantec_Sochiapam [cso],17.825,-96.67,#D2BD91,Otomanguean ,Western Otomanguean,Mexico
Chinantec_Temextitlan [cco-2],17.59,-96.55,#E4D8BE,Otomanguean ,Western Otomanguean,Mexico
Chinantec_Teotalcingo [xxx-167],17.42,-95.95,#C2A56B,Otomanguean ,Western Otomanguean,Mexico
Chinantec_Tepetotutla [cnt],17.26,-96.11,#D2BD91,Otomanguean ,Western Otomanguean,Mexico
Chinantec_Tlacoatzintepec [ctl],17.86,-96.6,#D2BD91,Otomanguean ,Western Otomanguean,Mexico
Chinantec_Usila [cuc],17.89,-96.52,#EAEDE9,Otomanguean ,Western Otomanguean,Mexico
Chinantec_Valle_Nacional [cvn],17.77,-96.3,#D2BD91,Otomanguean ,Western Otomanguean,Mexico
Chinantec_Yolox [xty],17.61,-96.57,#C2A56B,Otomanguean ,Western Otomanguean,Mexico
Chindamba [ndj],-8.4,36.03,#EAEDE9,Niger-Kongo ,Atlantic-Congo,Tanzania
Chinook [chh],46,-124,#619EBD,Chinook ,Lower Chinook,USA
ChiNyanja [nya],-15,35,#EAEDE9,Niger-Kongo ,Atlantic-Congo,Malawi
Chioggiotto [ita-22],44.22,12.28,#D2BD91,Indo-European ,Romance,Italy
Chipaya [cap],-19,-68,#EAEDE9,Uru-Chipaya ,,Bolivia
Chiquimulilla [xin-2],14.08,-90.38,#E4D8BE,Xinca ,,Guatemala
Chiquitano [cax],-17.5,-62,#E4D8BE,Chiquitano ,,Bolivia
Chiricahua [apm],33.5,-108,#B3D1DF,Dene-Yeniseic ,Na-Dene,USA
Chiriguano_Chané [gui-3],-17.793,-63.18,#E4D8BE,Tupian ,Tupi-Guarani,Bolivia
Chiru [cdf],24.99,93.5,#E4D8BE,Tibeto-Burman ,Kuki-Chin-Naga,India
Chitimacha [ctm],29.67,-91,#EAEDE9,Totozoquean-Chitimacha ,Chitimacha,USA
Chitoniya_Tharu [the],27.58,84.41,#B3D1DF,Indo-European ,Indo-Iranian,Nepal
Chittagong [ben-2],22.37,91.8,#D2BD91,Indo-European ,Indo-Iranian,Bangladesh
Chiwere [iow-2],40.05,-95.52,#EAEDE9,Siouan ,Western Siouan,USA
Chöcangacakha [cgk],27.53,91.14,#D2BD91,Tibeto-Burman ,Bodic,Bhutan
Chöcangacakha-2 [cgk-2],27.55,90.92,#D2BD91,Tibeto-Burman ,Bodic,Bhutan
Chochenyo [cst],37.65,-121.91,#EAEDE9,Yok-Utian ,Utian,USA
Chocho [coz],17.67,-97.33,#EAEDE9,Otomanguean ,Eastern Otomanguean,Mexico
Choctaw [cho],32.25,-88.5,#619EBD,Muskogean ,Western Muskogean,USA
Chokobo [cbo],10.35,8.85,#E4D8BE,Niger-Kongo ,Atlantic-Congo,Nigeria
Chokri [nri],26.67,93.75,#E4D8BE,Tibeto-Burman ,Kuki-Chin-Naga,India
Chokri-2 [nri-2],25.7,94.3,#E4D8BE,Tibeto-Burman ,Kuki-Chin-Naga,India
Chokwe [cjk],-9.702,22.876,#D2BD91,Niger-Kongo ,Atlantic-Congo,Democratic Republic of the Congo
Cholon [cht],-8,-77.5,#EAEDE9,Cholon ,,Peru
Chomo [cfg],8.87,10.82,#E4D8BE,Niger-Kongo ,Atlantic-Congo,Nigeria
Chong [cog-2],12.91,102.01,#B49149,Austroasiatic ,Pearic,Thailand
Chongming [wuu-32],31.67,121.5,#A77D2B,Tibeto-Burman ,Sinitic,China
Chongqing [cmn-58],29.55,106.6,#D2BD91,Tibeto-Burman ,Sinitic,China
Chongyang [gan-3],29.55,114.17,#C2A56B,Tibeto-Burman ,Sinitic,China
Chono [xxx-39],-46,-75,#EAEDE9,Chonan ,Chonan Proper,Chile
Chontal [chd],18.17,-92.58,#E4D8BE,Mayan ,Core Mayan,Mexico
Chontal [clo],16.3,-95.5,#E4D8BE,Tequistlatecan ,,Mexico
Chonyi [coh],-3.8,39.76,#EAEDE9,Niger-Kongo ,Atlantic-Congo,Kenya
Chopi [cce],-24.718,34.744,#EAEDE9,Niger-Kongo ,Atlantic-Congo,Mozambique
Chori [cry],9.59,8.06,#D2BD91,Niger-Kongo ,Atlantic-Congo,Nigeria
Chorote [crq],-22,-63,#EAEDE9,Matacoan ,Mataguayo II,Argentina
Chorti [caa],14.8,-89.3,#EAEDE9,Mayan ,Core Mayan,Guatemala
Chrau [crw],10.667,107.5,#C2A56B,Austroasiatic ,Bahnaric,Vietnam
Chru [cje],11.774,108.575,#C2A56B,Malayo-Polynesian,Malayo-Sumbawan,Vietnam
Chuave [cjv],-6.168,145.119,#EAEDE9,Trans New Guinea ,Chimbu-Wahgi,Papua New Guinea
Chuj [cac],16,-91.5,#EAEDE9,Mayan ,Core Mayan,Mexico
Chuj_Ixtatán [cnm],15.833,-91.483,#EAEDE9,Mayan ,Core Mayan,Guatemala
Chukchansi [yok-4],36.99,-119.64,#EAEDE9,Yok-Utian ,Yokuts,USA
Chukchi [ckt],67,-173,#E4D8BE,Chukotko-Kamchatkan ,Main Chukotko-Kamchatkan,Russia
Chulym [clw],54.32,89.55,#8C5603,Turkic ,North-east Turkic,Russia
Chumash [boi],34.5,-120.25,#E4D8BE,Chumashan ,South Chumashan,USA
Chumash_Barbareño [boi-2],34.46,-119.7,#E4D8BE,Chumashan ,South Chumashan,USA
Chumash_Cruzeño [veo-4],34.05,-119.86,#E4D8BE,Chumashan ,South Chumashan,USA
Chumash_Ineseño [inz],34.61,-120.09,#E4D8BE,Chumashan ,South Chumashan,USA
Chumash_Obispeño [veo-3],35.29,-120.67,#E4D8BE,Chumashan ,North Chumashan,USA
Chumash_Purisimeño [veo-5],34.69,-120.43,#E4D8BE,Chumashan ,South Chumashan,USA
Chumash_Ventureño [veo-6],34.22,-118.72,#E4D8BE,Chumashan ,South Chumashan,USA
Chumash_Ventureño-Mitsqanaqan [veo-2],34.28,-119.23,#E4D8BE,Chumashan ,South Chumashan,USA
Chumburung [ncu],8.15,-0.28,#B49149,Niger-Kongo ,Atlantic-Congo,Ghana
Chung [scq],14.004,99.55,#B49149,Austroasiatic ,Pearic,Laos
Chungcheong_Korean [kor-4],35.83,127.15,#B49149,Korean ,,Korea
Chuukese [chk],7.333,151.75,#B49149,Oceanic,Micronesian,USA Federated States of Micronesia
Chuvash [chv],55.5,47.5,#B49149,Turkic ,Oghur,Russia
Chuwabu [chw],-17.34,37.12,#EAEDE9,Niger-Kongo ,Atlantic-Congo,Mozambique
Chuxnabán_Mixe [pxm],17,-96,#D2BD91,Totozoquean-Chitimacha ,Totozoquean,Mexico
Ciacia [cia],-5.75,122.75,#EAEDE9,Malayo-Polynesian,Celebic,Indonesia-Sulawesi
Cicipu [awc],10.911,5.703,#E4D8BE,Niger-Kongo ,Atlantic-Congo,Nigeria
CiLuba [lua],-6,22,#EAEDE9,Niger-Kongo ,Atlantic-Congo,Democratic Republic of the Congo
Cimbrian [cim],45.62,11.13,#A77D2B,Indo-European ,Germanic,Italy
Citak [tml],-5.509,139.218,#D2BD91,Trans New Guinea ,Asmat-Kamoro,Indonesia-Papua
Citumbuka [tum],-11,33.5,#EAEDE9,Niger-Kongo ,Atlantic-Congo,Malawi
Coahuilteco [xcw],28,-100,#EAEDE9,Coahuilteco ,,USA
Cocama-Cocamilla [cod],-5,-74.3,#EAEDE9,Tupian ,Tupi-Guarani,Peru
Cochimi [coj],27.28,-112.89,#EAEDE9,Yuman-Cochimi ,Cochimi,Mexico
Coconucan [cca],2.55,-76.65,#EAEDE9,Barbacoan ,Northern Barbacoan,Colombia
Cocopa [coc],32.5,-115,#B3D1DF,Yuman-Cochimi ,Yuman,USA
Coeur d'Alene [crd],47.33,-117,#EAEDE9,Salish ,Interior Salish,USA
Cofan [con],0.25,-77,#EAEDE9,Kofan ,,Ecuador
Cog-rtse_rGyalrong-2 [jya-4],31.5,102,#D2BD91,Tibeto-Burman ,Na-Qiangic,China
Cognino [ita-11],45.61,7.36,#B49149,Indo-European ,Romance,Italy
Cogtse Gyarong [jya],32.1,100.6,#E4D8BE,Tibeto-Burman ,Na-Qiangic,China
Col [liw],-3.3,102.86,#E4D8BE,Malayo-Polynesian,Malayo-Sumbawan,Indonesia-Sumatra
Colac [xxx-73],-38.33,143.5,#EAEDE9,Pama-Nyungan ,Kulinic,Australia
Colloquial_Tamil [tam-7],9.23,78.12,#EAEDE9,Dravidian ,South Dravidian,India
Columbian [col-2],48.22,-118.45,#619EBD,Salish ,Interior Salish,USA
Comacchiese [ita-30],44.7,12.18,#B49149,Indo-European ,Romance,Italy
Comanche [com],33.5,-101.5,#E4D8BE,Uto-Aztecan ,Numic,USA
Comecrudo [xxx-133],26.09,-98.28,#619EBD,Coahuiltecan ,,Mexico
Comorian [wlc],-12.17,44.25,#EAEDE9,Niger-Kongo ,Atlantic-Congo,Comoros
Comox [coo],49.75,-125,#B3D1DF,Salish ,Central Salish,Canada
Cone [adx-4],34.58,103.5,#996912,Tibeto-Burman ,Bodic,China
Congjiang [kmc],25.752,108.91,#B49149,Tai-Kadai ,Kam-Tai,China
Coos [csz],43.5,-124.17,#EAEDE9,Coos ,,USA
Cora [crn],23.333,-99,#EAEDE9,Uto-Aztecan ,Corachol,Mexico
Cora_Ixcatan [crn-2],20.88,-103.35,#E4D8BE,Uto-Aztecan ,Corachol,Mexico
Cornish [cor],50.5,-4.5,#B49149,Indo-European ,Celtic,Britain
Corsican [cos],42.1,9.5,#EAEDE9,Indo-European ,Romance,France
Cosao [xxx-137],21.62,101.567,#A77D2B,Tibeto-Burman ,Lolo-Burmese,China
Cotabato_Manobo_Kalamansig [mta],6.421,124.29,#E4D8BE,Malayo-Polynesian,Philippines,Philippines
Cowlitz [cow],46.5,-123.17,#619EBD,Salish ,Tsamosan,USA
Cree_East [crl],50.42,-73.87,#B3D1DF,Algic ,Algonquian,Canada
Cree_Moose [crm],51.33,-80.5,#B3D1DF,Algic ,Algonquian,Canada
Cree_Plains [crk],54,-116,#B3D1DF,Algic ,Algonquian,Canada
Cree_Swampy [csw],54.5,-84,#B3D1DF,Algic ,Algonquian,Canada
Cree_Woods [cwd],57.5,-100.5,#B3D1DF,Algic ,Algonquian,Canada
Creek [mus],30.41,-85.2,#619EBD,Muskogean ,Creek,USA
Cremonese [lmo-7],45.13,10.03,#B49149,Indo-European ,Romance,Italy
Croatian [hrv],45.5,17.3,#EAEDE9,Indo-European ,Balto-Slavic,Croatia
Cross_River_Mbembe [mfn],6.17,8.24,#D2BD91,Niger-Kongo ,Atlantic-Congo,Nigeria
Crow [cro],45.5,-108,#EAEDE9,Siouan ,Western Siouan,USA
Cua [cua],15.167,108.667,#8C5603,Austroasiatic ,Bahnaric,Vietnam
Cubeo [cub],1.33,-70.5,#E4D8BE,Tucanoan ,Central Tucanoan ,Colombia
Cuiba [cui],6.5,-70.5,#D2BD91,Guahiban ,Central Guahiban,Colombia
Cuicatec [xtu],17.98,-96.72,#EAEDE9,Otomanguean ,Eastern Otomanguean,Mexico
Cuitlatec [qpb],18.1,-100.34,#E4D8BE,Cuitlatec ,,Mexico
Cup'ik [esu-2],61.525,-165.65,#619EBD,Eskimo-Aleut ,Eskimo,USA-Alaska
Cupeño [cup],33.17,-116.5,#B3D1DF,Uto-Aztecan ,North Uto-Aztecan,USA
Cuquila Mixtec [mie],17.2,-97.755,#EAEDE9,Otomanguean ,Eastern Otomanguean,Mexico
Cuvok [cuv],10.7,14,#095D91,Afro-Asiatic ,Chadic,Cameroon
Czech [ces],50,14.5,#EAEDE9,Indo-European ,Balto-Slavic,Czech Republic
Da'a [kzf],-1.356,119.549,#EAEDE9,Malayo-Polynesian,Celebic,Indonesia-Sulawesi
Daakaka [bpa],-16.269,167.964,#C2A56B,Oceanic,Southern Oceanic,Vanuatu
Daakie [ptv],-16.32,168.04,#C2A56B,Oceanic,Southern Oceanic,Vanuatu
Daats'íin [xxx-153],12.6,35.8,#C2A56B,Nilo-Saharan ,Gumuz,Ethiopia
Daba [dbq],10.1,13.8,#E4D8BE,Afro-Asiatic ,Chadic,Cameroon
Dabu [hak-22],24.35,116.7,#C2A56B,Tibeto-Burman ,Sinitic,China
Dadibi [mps],-6.55,144.58,#EAEDE9,Papuan Gulf ,Tua River,Papua New Guinea
Dadua [gal-2],-8.35,125.838,#EAEDE9,Malayo-Polynesian,Timoric,Timor leste
Dafang [cmn-39],27.29,105.66,#EAEDE9,Tibeto-Burman ,Sinitic,China
Daga [dgz],-10,149.25,#EAEDE9,Southeast Papuan ,Dagan,Papua New Guinea
Dagaare [dga],11.5,-2.5,#D2BD91,Niger-Kongo ,Atlantic-Congo,Burkina Faso
Dagbani [dag],9.58,-0.5,#EAEDE9,Niger-Kongo ,Atlantic-Congo,Ghana
Dagur [dta],48,124,#D2BD91,Mongolic ,Core Mongolic,China
Dahalik [dlk],15.75,40.25,#E4D8BE,Afro-Asiatic ,Semitic,Eritrea
Dahalo [dal],-2.217,40.483,#EAEDE9,Afro-Asiatic ,Cushitic,Kenya
Dai [dij],-7.5,129.5,#EAEDE9,Malayo-Polynesian,Southeast Maluku,Indonesia-Maluku-south
Dai_Jinping [khb-2],22.78,103.225,#B49149,Tai-Kadai ,Kam-Tai,China
Daju_Dar-Fur [daj],12.25,25.25,#E4D8BE,Nilo-Saharan ,Dajuic,Sudan
Dakelh [crx],53.5,-125,#E4D8BE,Dene-Yeniseic ,Na-Dene,Canada
Dakota [dak],43.1,-98.4,#EAEDE9,Siouan ,Western Siouan,USA
Dakpa [dka],27.38,91.5,#D2BD91,Tibeto-Burman ,Bodic,Bhutan
Dalabon [ngk],-14.25,134,#E4D8BE,Macro-Gunwinygu ,Gunwingyuan proper,Australia
Dalat [mel-9],2.74,111.94,#B3D1DF,Malayo-Polynesian,Malayo-Sumbawan,Malaysia-Borneo
Dalian [cmn-4],38.91,121.61,#D2BD91,Tibeto-Burman ,Sinitic,China
Dalmatian [dlm],45.35,14.5,#EAEDE9,Indo-European ,Romance,Croatia
Damal [uhn],-4,137.5,#EAEDE9,Trans New Guinea ,Western Trans New Guinea,Indonesia-Papua
Damal_Wa [uhn-2],-4.185,137.275,#EAEDE9,Trans New Guinea ,Western Trans New Guinea,Indonesia-Papua
Damana [mbp],10.9,-73.6,#E4D8BE,Chibchan ,Core Chibchan,Colombia
Damar_East [dmr],-7.25,128.52,#EAEDE9,Malayo-Polynesian,Southeast Maluku,Indonesia-Maluku-south
Damar_West [drn],-7,128.5,#EAEDE9,Malayo-Polynesian,West Damar,Indonesia-Maluku-south
Dameli [dml],35.375,71.693,#B3D1DF,Indo-European ,Indo-Iranian,Pakistan
Dami [dad],-5.315,145.613,#EAEDE9,Oceanic,Western Oceanic,Papua New Guinea
Damin [xxx-7],-16.4,139.35,#B3D1DF,Tangkic ,Lardil,Australia
Dampelas [dms],0.2,120,#EAEDE9,Malayo-Polynesian,Celebic,Indonesia-Sulawesi
Damu [adi-13],27.63,94.35,#B49149,Tibeto-Burman ,Macro-Tani,India
Dan [dnj],7.5,-8,#B49149,Mande ,Eastern Mande,Côte d'Ivoire
Dana [lgn-2],9.27,33.71,#D2BD91,Nilo-Saharan ,Koman,Somalia
Danau [dnu],22.333,99.333,#B49149,Austroasiatic ,Khasi-Palaung,Myanmar
Dandami_Maria [daq],19.1,82.06,#EAEDE9,Dravidian ,South-Central Dravidian ,India
Danezaa [bea],57,-120,#D2BD91,Dene-Yeniseic ,Na-Dene,Canada
Dangaléat_Western [daa],12.17,18.33,#D2BD91,Afro-Asiatic ,Chadic,Chad
Danggaura_Tharu [thl],28.1,82.3,#E4D8BE,Indo-European ,Indo-Iranian,Nepal
Dangla [daa-2],12.15,18.25,#D2BD91,Afro-Asiatic ,Chadic,Chad
Dani [dni],-4,138.917,#D2BD91,Trans New Guinea ,Western Trans New Guinea,Indonesia-Papua
Dani_Aikhe [dni-3],-3.95,138.97,#D2BD91,Trans New Guinea ,Western Trans New Guinea,Indonesia-Papua
Dani_Bele [dni-2],-3.93,138.73,#D2BD91,Trans New Guinea ,Western Trans New Guinea,Indonesia-Papua
Dani_Gorge [dnt],-4.33,139.13,#D2BD91,Trans New Guinea ,Western Trans New Guinea,Indonesia-Papua
Dani_Hablifoeri [dni-4],-3.640848,138.759428,#D2BD91,Trans New Guinea ,Western Trans New Guinea,Indonesia-Papua
