name,latitude,longitude,color,family,subgroup,country
!Xoon [nmn],-24,21.5,#1992C0,Tuu,Tuu,S Africa
’Weenhayek [mtp],-21.99,-63.6,#5853AF,Matacoan,Mataguayo II,SE South America
||Ana [gnk],-22.2,22.4,#1B8E7B,Khoe,Khoe,S Africa
||Ani [hnh],-19.3,22.5,#258D98,Khoe,Khoe,S Africa
||Gana [gnk-2],-19,22.5,#1FA973,Khoe,Khoe,S Africa
||Xekwi [xeg],-23,22,#3464BA,Tuu,Tuu,S Africa
|Gwi [gwj],-22.435,21.654,#1B939F,Khoe,Khoe,S Africa
|Xam [xam],-30.34,21.82,#37979F,Tuu,Tuu,S Africa
A-Hmao [hmd],25.75,106.08,#39A0FC,Hmong-Mien,Hmongic,Southeast Asia-mainland
A'iwa [ash],-2,-74.5,#765A5A,A'iwa,A'iwa,NE South America
A'jië [aji],-21.342,165.459,#A48DAB,Austronesian,Southern Oceanic,Oceania
Aari [aiw],6,36.6,#2A8293,Afro-Asiatic,South Omotic,Greater Abyssinia
Aashing [adi-10],28.99,94.9,#B08F77,Tibeto-Burman,Macro-Tani,Indic
Abanyom [abm],6.499,8.647,#66CA92,Niger-Kongo,Ekoid,African Savannah
Abar [mij-3],6.59,10.26,#43B1AA,Niger-Kongo,Beboid,African Savannah
Abau [aau],-4,141.167,#72AE46,Sepik,Abau,N Coast New Guinea
Abawiri [flh],-3.05,139.21,#39B447,Lakes Plains,Eastern Lakes Plains,Interior New Guinea
Abaza [abq],44.34,41.67,#3509CA,Northwest Caucasus,Abaza-Abkhaz,Greater Mesopotamia
Abduyi [pes-5],29.7,52.07,#566B5B,Indo-European,Indo-Iranian,Greater Mesopotamia
Abé [aba],5.6,-4.38,#44AF84,Niger-Kongo,Kwa,African Savannah
Abelam [abt-2],-3.83,143.17,#C77C7E,Ndu,Nuclear Ndu,N Coast New Guinea
Abellen [abp],15.41,120.2,#A78255,Austronesian,Philippines,Southeast Asia-Island
Abenaki_Western [abe],44,-72.25,#757C4F,Algic,Algonquian,E North America
Aberdeenshire_English [sco-4],57.3,-2,#417D76,Indo-European,Germanic,Europe
Abidji [abi],5.66,-4.58,#49B281,Niger-Kongo,Kwa,African Savannah
Abinomn [bsa],-3,138.8,#727E49,Abinomn,Abinomn,Interior New Guinea
Abipon [axb],-26,-61,#9F695D,Guaicuruan,Southern Guaicuruan,SE South America
Abkhaz [abk],43,41.03,#4117C7,Northwest Caucasus,Abaza-Abkhaz,Greater Mesopotamia
Abkhaz_Bzyp [ady-14],43.32,40.41,#3914D4,Northwest Caucasus,Abaza-Abkhaz,Greater Mesopotamia
Abkhaz_Sadz [ady-13],43.33,40.22,#4011CC,Northwest Caucasus,Abaza-Abkhaz,Greater Mesopotamia
Abron [abr],8.03,-2.8,#3DC565,Niger-Kongo,Kwa,African Savannah
Abruzzo [nap],42.66,13.7,#6B8CAD,Indo-European,Romance,Europe
Abua [abn],4.8,6.654167,#47BA9E,Niger-Kongo,Cross River,African Savannah
Abuan [abn-2],4.83,6.61,#47B5A2,Niger-Kongo,Cross River,African Savannah
Abui [abz],-8.417,124.6,#7DA350,Timor-Alor-Pantar,Alor,Southeast Asia-Island
Abujh_Maria [mrr-2],18.75,80.68,#B8706C,Dravidian,South-Central Dravidian,Indic
Abun [kgr],-0.833,132,#47B772,West Papuan,Birds Head,N Coast New Guinea
Abure [abu],5.22,-3.64,#57C088,Niger-Kongo,Kwa,African Savannah
Acatec [agu-2],15.7,-91.617,#50457C,Mayan,Core Mayan,Mesoamerica
Acatepec Me'paa [tpx],17.1,-99.06,#23B0A5,Otomanguean,Tlapanec-Manguean,Mesoamerica
Aceh_Lhokseumawe [ace-7],5.19,97.14,#71A5B9,Austronesian,Aceh,Southeast Asia-Island
Aceh_Pidie [ace-2],5.38,95.96,#73A6B6,Austronesian,Aceh,Southeast Asia-Island
Acehnese [ace],5.333,96.167,#67A6B0,Austronesian,Aceh,Southeast Asia-Island
Acehnese_Northeast [ace-6],4.62,97.62,#5EA6AD,Austronesian,Aceh,Southeast Asia-Island
Acehnese_South [ace-4],4.1,96.23,#5FA8AD,Austronesian,Aceh,Southeast Asia-Island
Acehnese_Southwest [ace-3],5.05,95.34,#5FA8AB,Austronesian,Aceh,Southeast Asia-Island
Acehnese_West [ace-5],5.47,95.26,#5DAAAC,Austronesian,Aceh,Southeast Asia-Island
Achagua [aca],4.002,-72.814,#7E665D,Arawak,Northern Maipuran,Andean
Achang_Liangchong [acn ],29.46,103.7,#30BCD5,Tibeto-Burman,Burmish,Southeast Asia-mainland
Achang_Lianghe [acn-2],24.8,98.3,#46ACD0,Tibeto-Burman,Burmish,Southeast Asia-mainland
Achang_Longchuan [can-2],24.25,97.833,#46A1E2,Tibeto-Burman,Burmish,Southeast Asia-mainland
Achang_Luxi [can-3],24.527,103.764,#3EB7B2,Tibeto-Burman,Burmish,Southeast Asia-mainland
Aćharêtâʹ [phl-2],35.4,71.75,#5496BB,Indo-European,Indo-Iranian,Indic
Aché [guq],-25.25,-55.17,#809053,Tupian,Tupi-Guarani,SE South America
Achi [acr],15.25,-90.5,#635368,Mayan,Core Mayan,Mesoamerica
Achuar [acu],-3,-76,#976C59,Jivaroan,Shuaric,Andean
Achumawi [acv],41.5,-121,#4753AA,Palaihnihan,Palaihnihan,Basin and Plains
Acipa [acp],10.71,6.01,#188EA8,Niger-Kongo,Kainji,African Savannah
Acoma [kjq-2],34.92,-107.58,#3C74C6,Keresan,Western Keresan,Basin and Plains
Acooli [ach],3.293,32.871,#8DADAA,Nilo-Saharan,Luo-Burun,S Africa
Adamawa Fulfulde [fub],8.9,15.84,#4EA996,Niger-Kongo,North-Central Atlantic,African Savannah
Adang [adn],-8.163,124.456,#848B4D,Timor-Alor-Pantar,Alor,Southeast Asia-Island
Adangme [ada],5.8,0.33,#45BB99,Niger-Kongo,Kwa,African Savannah
Adim [yay],5.81,8.03,#3C9073,Niger-Kongo,Cross River,African Savannah
Adun [mfn-2],6.16,8.23,#4EA996,Niger-Kongo,Cross River,African Savannah
Adyghe [ady],44.1,39.08,#3417BA,Northwest Caucasus,Circassian,Greater Mesopotamia
Adyghe_Abzakh [ady-12],44.7,38.9,#2F19C0,Northwest Caucasus,Circassian,Greater Mesopotamia
Adyghe_Besleney [ady-6],44.7,40.75,#3213C1,Northwest Caucasus,Circassian,Greater Mesopotamia
Adyghe_Black Sea Shapsugh [ady-2],44.375,38.4,#290BD9,Northwest Caucasus,Circassian,Greater Mesopotamia
Adyghe_Bzhedug [ady-7],45,39.3,#2B15D1,Northwest Caucasus,Circassian,Greater Mesopotamia
Adyghe_Cherkess [ady-10],44.25,42.05,#3314BC,Northwest Caucasus,Circassian,Greater Mesopotamia
Adyghe_Hakuchi [ady-9],44.88,38,#3314BC,Northwest Caucasus,Circassian,Greater Mesopotamia
Adyghe_Natukai [ady-4],44.4,38.35,#310CCB,Northwest Caucasus,Circassian,Greater Mesopotamia
Adyghe_Shapsugh [ady-3],44.3,39,#2A0FD5,Northwest Caucasus,Circassian,Greater Mesopotamia
Adyghe_Temirgoy [ady-11],45.125,39.83,#3416BB,Northwest Caucasus,Circassian,Greater Mesopotamia
Adyghe_Uzunyayla [ady-5],44.25,38.77,#3514C0,Northwest Caucasus,Circassian,Greater Mesopotamia
Adynyamathanha [adt],-31,139.5,#EF78A8,Pama-Nyungan,Thura-Yura,S Australia
Adyukru [adj],5.38,-4.53,#71CA9B,Niger-Kongo,Kwa,African Savannah
Adzera [azr],-6.417,146.25,#8B8C5C,Austronesian,North New Guinea,N Coast New Guinea
Aeka [aez],-8.601,147.994,#70A556,Trans New Guinea,Binanderean,S New Guinea
Afar [aar],11.85,42,#857650,Afro-Asiatic,East Cushitic,Greater Abyssinia
Afitti [aft-2],12.44,31,#85BB8B,Nilo-Saharan,Nyimang,African Savannah
Afrikaans [afr],-33.9,18.5,#74A56B,Indo-European,Germanic,S Africa
Afshar [azj-2],37.475,57.33,#5A738D,Turkic,Common Turkic,Greater Mesopotamia
Aftari_Komisenian [sqo-2],35.6,53.11,#5D6958,Indo-European,Indo-Iranian,Greater Mesopotamia
Agabag [mvv-3],3.965,117.095,#B4936F,Austronesian,North Borneo,Southeast Asia-Island
Agarabi [agd],-6.25,145.917,#87B24D,Trans New Guinea,Kainantu,N Coast New Guinea
Agatu [agc],7.98,7.72,#56A6AA,Niger-Kongo,Idomoid,African Savannah
Aghem [agq],6.39,10.12,#35C0BE,Niger-Kongo,Grassfields,African Savannah
Aghu [ahh],-6.333,140,#599D45,Trans New Guinea,Awyu-Dumut,S New Guinea
Aghu-Tharrnggala [gtu],-13.73,142.43,#D090AA,Pama-Nyungan,Paman,N Australia
Aghul_Huppuq’ [agx-6],41.836,47.6602,#2F4D8E,Nakh-Daghestanian,Lezgic,Greater Mesopotamia
Aglla [idu-3],6.8,7.95,#5B98C3,Niger-Kongo,Idomoid,African Savannah
Agöb [kit],-9.09,142.53,#AA9E7F,South New Guinea,East Morehead,S New Guinea
Agta [agt],17.967,121.833,#868958,Austronesian,Philippines,Southeast Asia-Island
Aguaruna [agr],-5.25,-78,#8E694C,Jivaroan,Aguaruna,Andean
Aguatec [agu],15.4,-91.4,#4B4F7A,Mayan,Core Mayan,Mesoamerica
Agul [agx],41.78,47.59,#334B85,Nakh-Daghestanian,Lezgic,Greater Mesopotamia
Agul_Burkixan [agx-2],41.78,47.6,#364398,Nakh-Daghestanian,Lezgic,Greater Mesopotamia
Agul_Burshag [agx-3],41.86,47.62,#3A3D99,Nakh-Daghestanian,Lezgic,Greater Mesopotamia
Agul_Fite [agx-4],41.79,47.59,#3543A1,Nakh-Daghestanian,Lezgic,Greater Mesopotamia
Agul_Richa [agx-5],41.78,47.61,#3239A3,Nakh-Daghestanian,Lezgic,Greater Mesopotamia
Agusan [mbb-2],8.68,125.79,#A08656,Austronesian,Philippines,Southeast Asia-Island
Agusan_Manobo [msm],8.63,125.74,#9F895A,Austronesian,Philippines,Southeast Asia-Island
Agutaynen [agn],11.15,120.95,#B77662,Austronesian,Philippines,Southeast Asia-Island
Agwamin [wmi],-16.986,143.001,#E49187,Pama-Nyungan,Paman,N Australia
Ahamb [ahb],-16.507,167.703,#73A582,Austronesian,Southern Oceanic,Oceania
Ahan [ahn],7.44,6.01,#47AE95,Niger-Kongo,Ayere-Ahan,African Savannah
Ahanta [aha],4.85,-1.95,#49A79C,Niger-Kongo,Kwa,African Savannah
Ahi [yix],24.4,103.4,#27A8BD,Tibeto-Burman,Central Loloish,Southeast Asia-mainland
Ahom [aho],25,95,#44C692,Tai-Kadai,Southwestern Tai P,Indic
Ahtna [aht],62,-145,#31697F,Dene-Yeniseic,Athapaskan,Alaska-Oregon
Ai-cham_Diwo [aih],25.8,107,#33BAC1,Tai-Kadai,Mak-Ai-Cham,Southeast Asia-mainland
Aidian_Mian [mji],24.48,109.74,#37BDCB,Hmong-Mien,Hmongic,Southeast Asia-mainland
Aikaná [tba],-12.1,-60.6,#6D8939,Aikaná,Aikaná,NE South America
Aikaná_Masacá [tba-2],-12.7,-60.8,#9FA564,Aikaná,Aikaná,NE South America
Aimaq [aiq],35.28,59.18,#525F62,Indo-European,Indo-Iranian,Greater Mesopotamia
Ainu [ain],42.4,142.5,#73914C,Ainu,Ainu,N Coast Asia
Ainu_Kuril [ain-2],46.5,151.5,#8C7B46,Ainu,Ainu,N Coast Asia
Ainu_Sakhalin [ain-3],47.975,142.2,#799245,Ainu,Ainu,N Coast Asia
Ainu_Saru [ain-4],42.88,142.4,#8C7B46,Ainu,Ainu,N Coast Asia
Air Tamajeq_Tayart [thz],16.92,7.67,#4F4FAE,Afro-Asiatic,Berber,African Savannah
Airoran [air],-1.7,138.15,#837848,Tor-Kwerba,Nuclear Kwerba,N Coast New Guinea
Aisi [mmq],-5.35,145.15,#9D9552,Trans New Guinea,Madang,N Coast New Guinea
Ait_Seghrouchen [tzm-3],33,-5,#5B2F83,Afro-Asiatic,Berber,N Africa
Aita_Rotokas [roo-2],-6,155.08,#A39543,North Bougainville,Rotokas,Oceania
Aiton [aio-2],24,94,#51CF9D,Tai-Kadai,Shan Tai,Indic
Aitutaki [rar-2],-18.872,-159.782,#A48D44,Austronesian,Central Pacific,Oceania
Aiwoo [nfl],-10.5,166.5,#8386A0,Austronesian,Te Motu,Oceania
Aizi [ahp],5.25,-4.5,#4BB692,Niger-Kongo,Kru,African Savannah
Aja [ajg],7.06,1.66,#4C95BB,Niger-Kongo,Gbe,African Savannah
Ajagbe [ajg-2],7.08,1.64,#5D8096,Niger-Kongo,Gbe,African Savannah
Ajami [pes-8],29.44,48.33,#525470,Indo-European,Indo-Iranian,Greater Mesopotamia
Ajumbu [muc-2],6.55,10.27,#3BBCB4,Niger-Kongo,Beboid,African Savannah
Aka [axk],3.46,15.73,#26BD86,Ubangian,Ubangian,African Savannah
Aka [hru-2],27.2,92.9,#377AAD,Tibeto-Burman,Hrusish,Indic
Akabea [abj-2],12.38,92.78,#D69095,Andaman,Andaman,Southeast Asia-mainland
Akan [aka],6.5,-1.25,#2D9A7B,Niger-Kongo,Kwa,African Savannah
Akaselem [aks],8.89,1.37,#5CC795,Niger-Kongo,Gur,African Savannah
Akawaio [ake],6,-59.5,#8C8A47,Cariban,Venezuelan,NE South America
Ake [aik],8.6,8.76,#36BF8E,Niger-Kongo,Plateau,African Savannah
Akei [tsr],-15.49,166.75,#967E4A,Austronesian,Southern Oceanic,Oceania
Akha [ahk],20.3,99.6,#32B377,Tibeto-Burman,Hani-Jino,Southeast Asia-mainland
Akha_Akhe [ahk-8],21.916,100.465,#32B6B8,Tibeto-Burman,Hani-Jino,Southeast Asia-mainland
Akha_Buli [ahk-4],21.2,101.15,#36B8AF,Tibeto-Burman,Hani-Jino,Southeast Asia-mainland
Akha_Chicho [ahk-2],20.92,101.4,#37BCBE,Tibeto-Burman,Hani-Jino,Southeast Asia-mainland
Akha_Senchai [ahk-3],26.9,99,#2CB1A8,Tibeto-Burman,Hani-Jino,Southeast Asia-mainland
Akhvakh [akv],42.379,46.384,#1C0FC3,Nakh-Daghestanian,Avar-Andi,Greater Mesopotamia
Akie [oki],-5.43,37.19,#76CAA1,Nilo-Saharan,Kalenjin,S Africa
Aklanon [akl],11.58,122.33,#947A59,Austronesian,Philippines,Southeast Asia-Island
Akosse [bss],5.05,9.8,#35B98F,Niger-Kongo,Zone A10,African Savannah
Akoye [miw-2],-7.645,145.65,#60BA4D,Trans New Guinea,Angan,S New Guinea
Akpes [ibe],7.5,5.96,#40AA84,Niger-Kongo,Akpes,African Savannah
Akuntsu [aqz],-12.74,-60.8,#B0884E,Tupian,Tupari,NE South America
Akurio [ako],3.0132,-55.6434,#A18646,Cariban,Guianan Carib,NE South America
Akwa [akw],-0.005,15.612,#3AC68B,Niger-Kongo,Zone C20,S Africa
Akweya [akf],7.33,8.02,#7797CA,Niger-Kongo,Idomoid,African Savannah
Akye-Gnan [ati-2],5.48,-4.09,#16C694,Niger-Kongo,Kwa,African Savannah
Alaaba [alw],7.31,38.09,#487071,Afro-Asiatic,East Cushitic,Greater Abyssinia
Alaala [nrz],-9,146.667,#9D9854,Austronesian,Papuan Tip,S New Guinea
Alaba-K'abeena [alw-2],7.39,38.17,#457E7B,Afro-Asiatic,East Cushitic,Greater Abyssinia
Alabama [akz],32.7,-86.1,#66804F,Muskogean,Muskogean,E North America
Alacalufe_Central [alc-2],-53.528,-70.9573,#7C6545,Alaculufan,Alaculufan,SE South America
Alacalufe_Southern [alc-3],-55.2,-69.4,#7F6252,Alaculufan,Alaculufan,SE South America
Alagwa [wbj],-4.64,35.72,#653BA6,Afro-Asiatic,South Cushitic,S Africa
Alamblak [amp],-4.667,143.25,#767D47,Sepik,Sepik Hill,N Coast New Guinea
Alangan-Mangyan [alj],13.1,121.02,#A38256,Austronesian,Philippines,Southeast Asia-Island
Alas_Batak [btz],2.64,98,#8F9968,Austronesian,Batak-Barrier Islands,Southeast Asia-Island
Alawa [alh],-15.75,134.333,#EA84A0,Macro-Gunwinygu,Alawa,N Australia
Albanian_Cham [als-4],39.6,20.8,#567BA4,Indo-European,Albanian,Europe
Albanian_Gheg [aln-2],42.43,20.73,#428B8A,Indo-European,Albanian,Europe
Albanian_Gheg_Kosovo [aln],42.58,21,#4F6A6D,Indo-European,Albanian,Europe
Albanian_Lab [als-5],40.17,19.83,#5085A5,Indo-European,Albanian,Europe
Albanian_Mandritsa [aln-5],41.38,26.13,#5788A6,Indo-European,Albanian,Europe
Albanian_Tosk [als],40.5,20,#4C84AF,Indo-European,Albanian,Europe
Albanian_Upper_Reka [aln-4],41.72,20.57,#4B7698,Indo-European,Albanian,Europe
Albanian_Vaccarizzo [als-6],39.58,16.43,#5A70B9,Indo-European,Albanian,Europe
Albese [ita-14],44.7,8.04,#6DB09B,Indo-European,Romance,Europe
Ale [gwd],5.38,37.27,#565467,Afro-Asiatic,East Cushitic,Greater Abyssinia
Alekano [gah-2],-6,145.4,#599A4F,Trans New Guinea,Goroka,Interior New Guinea
Aleut [ale],54,-166,#6E4FA9,Eskimo-Aleut,Aleut,Alaska-Oregon
Aleut_Atkan [ale-2],52,-174,#6C45A2,Eskimo-Aleut,Aleut,Alaska-Oregon
Aleut_Attuan [ale-3],52.85,172.9,#6D47A7,Eskimo-Aleut,Aleut,Alaska-Oregon
Aleut_Eastern [ale-4],54.75,-164,#6E44A3,Eskimo-Aleut,Aleut,Alaska-Oregon
Aleut_Unangas [ale-5],55.3,166,#AE4F92,Eskimo-Aleut,Aleut,Alaska-Oregon
Algherese [cat-3],40.55,8.32,#808EA5,Indo-European,Romance,Europe
Algonquin [alq],46,-82,#607747,Algic,Algonquian,E North America
Ali [ykm],-3.17,142.25,#BC8666,Austronesian,North New Guinea,N Coast New Guinea
Alladian [ald],5.17,-4.33,#37A78E,Niger-Kongo,Kwa,African Savannah
Allentiac [qbt],-32,-66,#856762,Huarpe,Huarpe,SE South America
Alngith [aid],-12.5,142.17,#C97FAD,Pama-Nyungan,Paman,N Australia
Alo-Teqel [tql-2],-13.8,167.47,#A08362,Austronesian,Southern Oceanic,Oceania
Alor [aol],-8.245,124.412,#8A8558,Austronesian,Bima-Lembata,Southeast Asia-Island
Alsatian [gsw-2],48.32,7.44,#4B9190,Indo-European,Germanic,Europe
Alsea [aes],44.67,-123.93,#3C2EB6,Alsean,Alsean,Alaska-Oregon
Altai [alt],51,87,#616C99,Turkic,Common Turkic,Inner Asia
Altai_Kumandy [atv],51.3,87.7,#679668,Turkic,Common Turkic,Inner Asia
Alto Perené [prq-2],-10.945,-75.255,#8B6D57,Arawak,Southern Maipuran,NE South America
Alumbis_Murut [mvv],4.799,115.496,#A8855A,Austronesian,North Borneo,Southeast Asia-Island
Alune [alp],-3.167,128.333,#817E44,Austronesian,Central Maluku,Southeast Asia-Island
Alur [alz],2.5,31.25,#53B2A8,Nilo-Saharan,Luo-Burun,S Africa
Alutiiq [ems],58.015,-152.765,#693BA4,Eskimo-Aleut,Eskimo,Alaska-Oregon
Alyawarr [aly],-24.6,134.5,#EC76BB,Pama-Nyungan,Arandic,S Australia
Alyutor [alr],61,165,#C25B88,Chukotko-Kamchatkan,Chukotian,N Coast Asia
Ama [amm],-4.168,141.671,#58AE57,Left May,Left May,N Coast New Guinea
Amahai_Soahuku [amq],-3.332,128.949,#A6814E,Austronesian,Central Maluku,Southeast Asia-Island
Amahuaca [amc],-10.8,-73.5,#5A7652,Panoan,Pano Nawa,NE South America
Amaimon [ali],-5.193,145.325,#A1865A,Trans New Guinea,Madang,N Coast New Guinea
Amam [wer],-7.85,146.95,#A18E49,Trans New Guinea,Goilala,S New Guinea
Amami_Ryukyu [ams],28,129,#3EA08D,Japonic,Ryukyuan,N Coast Asia
Amanab [amn],-3.5,141.167,#909D52,Trans New Guinea,Border,N Coast New Guinea
Amanuban [aoz-2],-9.82,124.47,#83833F,Austronesian,Southeast Maluku,Southeast Asia-Island
Amanutun [aoz-4],-9.69,124.83,#877C4E,Austronesian,Southeast Maluku,Southeast Asia-Island
Amara [aie],-5.533,148.667,#AE9C5E,Austronesian,North New Guinea,N Coast New Guinea
Amarakaeri [amr-2],-12.6938,-70.3235,#8E884F,Harakmbet,Harakmbet,NE South America
Amarasi [aaz],-10.08,124.33,#827B46,Austronesian,Southeast Maluku,Southeast Asia-Island
Amba_Nembao [utp-2],-11.27,166.48,#7A895E,Austronesian,Te Motu,Oceania
Ambae_West [omb],-15.5,167.75,#9A8159,Austronesian,Southern Oceanic,Oceania
Ambai [amk],-1.917,136.533,#818642,Austronesian,South Halmahera-West New Guinea,N Coast New Guinea
Ambel [xmt-2],-0.05,130.7,#7BA25C,Austronesian,South Halmahera-West New Guinea,N Coast New Guinea
Ambelau [mhs-4],-3.89,127.205,#75A863,Austronesian,Central Maluku,Southeast Asia-Island
Ambele [ael],5.94,9.62,#42BE9D,Niger-Kongo,Grassfields,African Savannah
Amblong [alm],-15.497,166.926,#88864C,Austronesian,Southern Oceanic,Oceania
Ambonese Malay [abs],-3.7,128.2,#B0876F,Austronesian,Malayic,Southeast Asia-Island
Ambrym_Southeast [tvk-2],-16.33,168.08,#818756,Austronesian,Southern Oceanic,Oceania
Ambulas [abt],-3.75,143.083,#A99A69,Ndu,Nuclear Ndu,N Coast New Guinea
Amdo [adx],36,94,#607ABB,Tibeto-Burman,Tibetan,Inner Asia
Ameland [frs-3],53.45,5.77,#4D9D69,Indo-European,Germanic,Europe
Amele_Haija [aey],-5.25,145.75,#748040,Trans New Guinea,Madang,N Coast New Guinea
Amele_Huar [aey-3],-5.287,145.718,#878444,Trans New Guinea,Madang,N Coast New Guinea
Amele_Jagahala [aey-2],-5.264,145.642,#7F8241,Trans New Guinea,Madang,N Coast New Guinea
Amfo'an [aoz-3],-9.45,123.9,#747545,Austronesian,Southeast Maluku,Southeast Asia-Island
Amharic [amh],10,38,#506978,Afro-Asiatic,Ethiopian,Greater Abyssinia
Ami [amy],-14,130,#E08873,Western Daly,Western Daly,N Australia
Amis [ami],23.333,121.333,#965C5F,Austronesian,East Formosan,Southeast Asia-Island
Amo [amo],10.33,8.67,#43AD8B,Niger-Kongo,Kainji,African Savannah
Amonap / Apalakiri / Matipu [mzo],-12.05,-53.4,#8E7E5E,Cariban,Nahukwa,NE South America
Amoy [nan],24.5,118,#24C168,Tibeto-Burman,Min,Southeast Asia-mainland
Ampale [apz],-6.753,146.107,#5BB676,Trans New Guinea,Angan,Interior New Guinea
Ampibabo [law-2],-0.46,120.06,#B48761,Austronesian,Celebic,Southeast Asia-Island
Amu [swh-9],-2.27,40.9,#6673A5,Niger-Kongo,Zone G40,S Africa
Amuesha [ame],-10,-73,#8050A8,Arawak,Western Maipuran,NE South America
Amundava [adw],-10.9942,-63.0642,#968A49,Tupian,Tupi-Guarani,NE South America
Amurdak [amg],-12.022,132.892,#FC7CA2,Iwaidjan,Amurdak,N Australia
Amuzgo [amu],16.83,-98,#34B8AB,Otomanguean,Amuzgoan,Mesoamerica
Amuzgo_Huixtepec [amu-2],16.5,-98.1,#4A9564,Otomanguean,Amuzgoan,Mesoamerica
Amuzgo_San_Pedro [azg],16.85,-98,#4BA962,Otomanguean,Amuzgoan,Mesoamerica
Amuzgo_Xochistlahuaca [amu-3],16.79,-98.24,#44ABAA,Otomanguean,Amuzgoan,Mesoamerica
Amwi [aml],25.209,92.068,#42B890,Austroasiatic,Khasian,Indic
Anaguta [nar],9.964,8.731,#57A39D,Niger-Kongo,Kainji,African Savannah
Anakalang [akg],-9.67,119.67,#A39469,Austronesian,Bima-Lembata,Southeast Asia-Island
Anal [anm],24.33,93.99,#599DB9,Tibeto-Burman,Kuki-Chin,Indic
Anamuxra [imi],-4.667,145,#777349,Trans New Guinea,Madang,N Coast New Guinea
Andalusian [spa-4],37.5,-3.6,#778E51,Indo-European,Romance,Europe
Andi [ani],42.79,46.27,#2E559B,Nakh-Daghestanian,Avar-Andi,Greater Mesopotamia
Andi_Tad-Magitil [ani-2],42.75,46.25,#2B5795,Nakh-Daghestanian,Avar-Andi,Greater Mesopotamia
Andoa [anb],-2.9,-76.4051,#814874,Zaparoan,Zaparoan,Andean
Andoké [ano],0,-72,#4D9F42,Andoké,Andoké,NE South America
Anejom [aty],-20.25,169.833,#82799E,Austronesian,Southern Oceanic,Oceania
Anem [anz],-5.667,149,#9FA665,Anem,Anem,N Coast New Guinea
Aneme_Wake [aby],-9.733,148.52,#7E8F31,Southeast Papuan,Mailu-Yareban,S New Guinea
Anfillo [myo],8.57,34.65,#5F695E,Afro-Asiatic,North Omotic,Greater Abyssinia
Anfu [gan-22],27.38,114.62,#33CFB2,Tibeto-Burman,Gan,Southeast Asia-mainland
Angaatiha [agm],-7.22,146.25,#B99D61,Trans New Guinea,Angan,Interior New Guinea
Angal [age],-6,143.6,#7E8D52,Trans New Guinea,Engan,Interior New Guinea
Angal_Heneng [akh],-6.13,143.42,#849847,Trans New Guinea,Engan,Interior New Guinea
Angali [pes-2],29.75,50.96,#4C587C,Indo-European,Indo-Iranian,Greater Mesopotamia
Angami [njm],25.667,94.5,#5B89CD,Tibeto-Burman,Angami-Ao,Indic
Angami_Khonoma [njm-4],25.65,94.03,#5A8BCF,Tibeto-Burman,Angami-Ao,Indic
Angami_Khonoma-Tongime [njm-2],25.63,93.99,#5191C1,Tibeto-Burman,Angami-Ao,Indic
Angami_Kohima [njm-5],25.67,94.11,#55A1DA,Tibeto-Burman,Angami-Ao,Indic
Angami_Kohima-Tongime [njm-6],26.99,95.51,#56A4D8,Tibeto-Burman,Angami-Ao,Indic
Angas [anc],9.75,8.75,#3B9FA4,Afro-Asiatic,West Chadic,African Savannah
Anggor [agg],-3.667,141.167,#75904E,Trans New Guinea,Border,N Coast New Guinea
Anggreso [kwe-2],-2.17,138.25,#917949,Tor-Kwerba,Nuclear Kwerba,N Coast New Guinea
Angika [anp],26,85.53,#9588CE,Indo-European,Indo-Iranian,Indic
Angkamuthi [avm],-11.5,142.25,#CC829C,Pama-Nyungan,Paman,N Australia
Angkola_Batak [akb],1.518,99.531,#B18A67,Austronesian,Batak-Barrier Islands,Southeast Asia-Island
Anguthimri [awg],-12.333,141.833,#AC97B6,Pama-Nyungan,Paman,N Australia
Ani_Phowa [ypn],23.6,103.3,#198EBB,Tibeto-Burman,Central Loloish,Southeast Asia-mainland
Anib [kni],9.55,8.6,#2ABC91,Niger-Kongo,Plateau,African Savannah
Anii [blo],9.003,1.669,#53BDAE,Niger-Kongo,Kwa,African Savannah
Anindilyagwa [aoi],-14,136.5,#E372BA,Macro-Gunwinygu,East Arnhem,N Australia
Anindilyagwa_East [aoi-2],-13.86,136.81,#D87DBB,Macro-Gunwinygu,East Arnhem,N Australia
Aniwa [fut-2],-19.256,169.6,#938C40,Austronesian,Central Pacific,Oceania
Anjam [boj],-5.441,145.737,#B39078,Trans New Guinea,Madang,N Coast New Guinea
Anji [wuu-6],30.65,119.69,#30C3C6,Tibeto-Burman,Wu,Southeast Asia-mainland
Ankave [aak],-7.137,145.744,#A38B49,Trans New Guinea,Angan,Interior New Guinea
Anlong [pcc-6],25.1,105.44,#48A3C7,Tai-Kadai,Northern Tai,Southeast Asia-mainland
Anmatyerr_East [amx],-22.256,131.5,#F784AD,Pama-Nyungan,Arandic,S Australia
Anmatyerr_West [amx-2],-21,135,#FF72A1,Pama-Nyungan,Arandic,S Australia
Anong [nun],27.2,98.8,#4FA1DA,Tibeto-Burman,Nungish,Southeast Asia-mainland
Ansus [and],-1.73,135.806,#8C8941,Austronesian,South Halmahera-West New Guinea,N Coast New Guinea
Anta [tci-3],-8.65,141.52,#728559,South New Guinea,Tonda,S New Guinea
Antakarinya [ant],-27.11,134.85,#FB7F91,Pama-Nyungan,Wati,S Australia
Antakirinya [ant-2],-27.13,134.83,#F67D94,Pama-Nyungan,Wati,S Australia
Antekerrepenhe [adg],-22.52,137.34,#E87EBD,Pama-Nyungan,Arandic,S Australia
Antioquian [xxx-114],7,-73,#828745,Chibchan,Southern Magdalenic Chibchan,Andean
Antwerps [nld-2],51.22,4.4,#4C938A,Indo-European,Germanic,Europe
Añú [pbg],11,-71.62,#8C8848,Arawak,Northern Maipuran,Andean
Anuak [anu],7.18,34.097,#B2B589,Nilo-Saharan,Luo-Burun,African Savannah
Anufo [cko],10.218,0.33,#60C686,Niger-Kongo,Kwa,African Savannah
Anus [auq],-2.13,139.51,#8A944B,Austronesian,North New Guinea,N Coast New Guinea
Anuta [aud],-11.611,169.85,#99913D,Austronesian,Central Pacific,Oceania
Anyi [gan-19],28.84,115.6,#3DC6AE,Tibeto-Burman,Gan,Southeast Asia-mainland
Anyin [any],5.9,-2.9,#49A355,Niger-Kongo,Kwa,African Savannah
Anywa [anu-2],7.3,33,#AEBA9E,Nilo-Saharan,Luo-Burun,African Savannah
Aoheng [pni],1.025,114.175,#A09A5B,Austronesian,North Borneo,Southeast Asia-Island
Aore [aor],-15.577,167.181,#9D8E5C,Austronesian,Southern Oceanic,Oceania
Apache_Western [apw],33.9,-109.55,#216185,Dene-Yeniseic,Athapaskan,Basin and Plains
Apalachee [xap],30.04,-84.17,#876A4B,Muskogean,Muskogean,E North America
Apalai [apy],0,-54,#807F41,Cariban,Apalai,NE South America
Apali [ena],-5.088,145.017,#7F7D57,Trans New Guinea,Madang,N Coast New Guinea
Apatani [apt],27.4,93.8,#5DC19D,Tibeto-Burman,Macro-Tani,Indic
Apiaká [api],-7.9484,-57.7365,#9A8F49,Tupian,Tupi-Guarani,NE South America
Apinaye [apn],-6.25,-48,#72B369,Macro-Je,Je,NE South America
Apma [app],-15.775,168.158,#838A5C,Austronesian,Southern Oceanic,Oceania
Apma_Suru Kavian [app-2],-15.61,168.14,#838A64,Austronesian,Southern Oceanic,Oceania
Apurinã [apu],-7.26,-64.8,#8A7F49,Arawak,Southern Maipuran,NE South America
Apurinã-2 [apu-2],-5.63,-63.17,#8C7850,Arawak,Southern Maipuran,NE South America
Aputai [apx],-7.888,126.505,#8A7E49,Austronesian,Southeast Maluku,Southeast Asia-Island
Arabana [ard],-28,137,#F97AA8,Pama-Nyungan,Karnic,S Australia
Arabela [arl],-2,-75.17,#7B7F49,Zaparoan,Zaparoan,NE South America
Arabic [arb],29.5,42.5,#612B80,Afro-Asiatic,Arabic,Greater Mesopotamia
Arabic_Abéché [ayl-4],13.83,20.83,#6646AD,Afro-Asiatic,Arabic,African Savannah
Arabic_Abha [acw-2],18.22,42.51,#4B436E,Afro-Asiatic,Arabic,Greater Mesopotamia
Arabic_Afghanistan [acm-3],36.7,67.12,#6B4B62,Afro-Asiatic,Arabic,Inner Asia
Arabic_Algerian [arq],36.7,3.1,#9C4C6A,Afro-Asiatic,Arabic,N Africa
Arabic_Andalusian [xaa],35.767,-5.8,#563290,Afro-Asiatic,Arabic,Europe
Arabic_Attuwair [acw-3],29.9,40.1,#5B329F,Afro-Asiatic,Arabic,Greater Mesopotamia
Arabic_Baghdad [acm-4],33.33,44.38,#5D386A,Afro-Asiatic,Arabic,Greater Mesopotamia
Arabic_Baghdad-Christian [acm-9],33.34,44.37,#50338E,Afro-Asiatic,Arabic,Greater Mesopotamia
Arabic_Baghdad-Jewish [acm-8],33.33,44.39,#4F3290,Afro-Asiatic,Arabic,Greater Mesopotamia
Arabic_Baghdad-Muslim [acm-7],33.32,44.4,#463498,Afro-Asiatic,Arabic,Greater Mesopotamia
Arabic_Bareqi [acw-9],18.93,41.94,#613074,Afro-Asiatic,Arabic,Greater Mesopotamia
Arabic_Bareqi-2 [acw-7],19,43,#534564,Afro-Asiatic,Arabic,Greater Mesopotamia
Arabic_Basra [acm],30.5,47.825,#4C3095,Afro-Asiatic,Arabic,Greater Mesopotamia
Arabic_Bedouin_Sinai_Ǧbāliyyah [avl-2],28.557,33.943,#454173,Afro-Asiatic,Arabic,N Africa
Arabic_Bedouin_Sinai_Mzēnah [avl],28.135,34.1,#453E74,Afro-Asiatic,Arabic,N Africa
Arabic_Bedouin_Sinai_Taṛābīn [avl-3],31,34.2,#47446F,Afro-Asiatic,Arabic,N Africa
Arabic_Bukhara [auz],39.76,64.42,#64446B,Afro-Asiatic,Arabic,Inner Asia
Arabic_Chad [shu-3],14,19,#635A70,Afro-Asiatic,Arabic,African Savannah
Arabic_Chowa [shu-4],12.5,14.5,#645A65,Afro-Asiatic,Arabic,African Savannah
Arabic_Coastal-Dhofari [acx],20.7,58.2,#4B4568,Afro-Asiatic,Arabic,Greater Mesopotamia
Arabic_Cypriot [acy],34.343,33.011,#54596A,Afro-Asiatic,Arabic,Greater Mesopotamia
Arabic_Egyptian [arz],30,30,#545461,Afro-Asiatic,Arabic,N Africa
Arabic_Faifa [jye-3],17.25,43.1,#4E3C80,Afro-Asiatic,Arabic,Greater Mesopotamia
Arabic_Fezzan [ayl-2],26.33,13.43,#69269D,Afro-Asiatic,Arabic,N Africa
Arabic_Gulf [afb],24,54,#47417F,Afro-Asiatic,Arabic,Greater Mesopotamia
Arabic_Hadhrami_coast [jye-5],14.95,50.34,#643D69,Afro-Asiatic,Arabic,Greater Mesopotamia
Arabic_Hadhrami_wadi [jye-6],16.05,49,#5F3A6C,Afro-Asiatic,Arabic,Greater Mesopotamia
Arabic_Harb [acw],25.81,42.87,#374A86,Afro-Asiatic,Arabic,Greater Mesopotamia
Arabic_Hassaniya [mey],16.6,-7.25,#673798,Afro-Asiatic,Arabic,African Savannah
Arabic_Hejazi [acw-5],21.543,41.173,#464D6A,Afro-Asiatic,Arabic,Greater Mesopotamia
Arabic_Hejazi_Al'Ula [acw-6],26.627,37.917,#494F66,Afro-Asiatic,Arabic,Greater Mesopotamia
Arabic_Hejazi_Badr [acw-10],23.78,38.79,#525064,Afro-Asiatic,Arabic,Greater Mesopotamia
Arabic_Ilbahariyya [arz-3],28.35,28.93,#5A386E,Afro-Asiatic,Arabic,N Africa
Arabic_Jijel [ary-3],36.821,5.75,#9F4D68,Afro-Asiatic,Arabic,N Africa
Arabic_Jordanian [ajp-5],32,36,#3D4873,Afro-Asiatic,Arabic,Greater Mesopotamia
Arabic_Judeo-Tunisian [ajt],33.87,10.85,#543E95,Afro-Asiatic,Arabic,N Africa
Arabic_Khawetna [arb-3],36.42,41.225,#573294,Afro-Asiatic,Arabic,Greater Mesopotamia
Arabic_Khuzestan [acm-2],31.33,48.69,#493E77,Afro-Asiatic,Arabic,Greater Mesopotamia
Arabic_Kuwaiti [afb-5],29.5,47.75,#444377,Afro-Asiatic,Arabic,Greater Mesopotamia
Arabic_Lebanese [apc-2],33.883,35.502,#85774D,Afro-Asiatic,Arabic,Greater Mesopotamia
Arabic_Levantine_al-Karak [ajp-10],31.2,35.7,#4C5067,Afro-Asiatic,Arabic,Greater Mesopotamia
Arabic_Levantine_Amman [ajp-9],31.9,35.9,#4C5067,Afro-Asiatic,Arabic,Greater Mesopotamia
Arabic_Levantine_Homs [ajp-7],34.7,36.7,#505064,Afro-Asiatic,Arabic,Greater Mesopotamia
Arabic_Levantine_Jerusalem [ajp-8],31.8,35.2,#55595C,Afro-Asiatic,Arabic,Greater Mesopotamia
Arabic_Levantine_Northern_coast [ajp-11],34.9,35.9,#61585B,Afro-Asiatic,Arabic,Greater Mesopotamia
Arabic_Levantine_Northern_inland [ajp-12],33.1,35.7,#575361,Afro-Asiatic,Arabic,Greater Mesopotamia
Arabic_Levantine_Outer-south [ajp-14],31.3,34.6,#68535E,Afro-Asiatic,Arabic,Greater Mesopotamia
Arabic_Levantine_Southern [ajp-13],31.7,34.9,#65426A,Afro-Asiatic,Arabic,Greater Mesopotamia
Arabic_Libyan [ayl],32,20.25,#3E4778,Afro-Asiatic,Arabic,N Africa
Arabic_Libyan_Western [ayl-3],32.5,13,#533972,Afro-Asiatic,Arabic,N Africa
Arabic_Mardin [apc-3],37.363,40.91,#46427D,Afro-Asiatic,Arabic,Greater Mesopotamia
Arabic_Mauritanian [ary-2],20.92,-11.62,#9C5AA5,Afro-Asiatic,Arabic,African Savannah
Arabic_Mesopotamian [acm-5],33,44,#54356E,Afro-Asiatic,Arabic,Greater Mesopotamia
Arabic_Moroccan [ary],34,-7,#662985,Afro-Asiatic,Arabic,N Africa
Arabic_Muscat [acx-2],23.63,58.55,#473A77,Afro-Asiatic,Arabic,Greater Mesopotamia
Arabic_Najdi [acw-4],23,45.5,#45416E,Afro-Asiatic,Arabic,Greater Mesopotamia
Arabic_Negev [ajp-15],31.386,34.758,#4F2F80,Afro-Asiatic,Arabic,Greater Mesopotamia
Arabic_Omani [acx-3],23.589,58.556,#435071,Afro-Asiatic,Arabic,Greater Mesopotamia
Arabic_Omani_Shawawi [acx-4],22.92,57.79,#54446D,Afro-Asiatic,Arabic,Greater Mesopotamia
Arabic_Oran [arq-2],35.7,-0.63,#533680,Afro-Asiatic,Arabic,N Africa
Arabic_Palestinian_Urban [ajp-3],31.52,34.45,#50546C,Afro-Asiatic,Arabic,Greater Mesopotamia
Arabic_Qatari [afb-3],25.3,51.52,#563B87,Afro-Asiatic,Arabic,Greater Mesopotamia
Arabic_Qifti [arz-2],26,32.82,#55467A,Afro-Asiatic,Arabic,N Africa
Arabic_Sa'idi [aec],25,32.75,#743B63,Afro-Asiatic,Arabic,N Africa
Arabic_Sason [arb-2],38.333,41.42,#54498A,Afro-Asiatic,Arabic,Greater Mesopotamia
Arabic_Saudi [ars],24.48,40,#4E4766,Afro-Asiatic,Arabic,Greater Mesopotamia
Arabic_Shabwani [acw-8],17.48,47.12,#5F2A7C,Afro-Asiatic,Arabic,Greater Mesopotamia
Arabic_Sudanese [apd-2],15.5,32.56,#36587D,Afro-Asiatic,Arabic,African Savannah
Arabic_Syrian [apc],33,37,#514295,Afro-Asiatic,Arabic,Greater Mesopotamia
Arabic_Ta'izzi_Adeni [acq],11.502,43,#79267C,Afro-Asiatic,Arabic,Greater Abyssinia
Arabic_Tillo [arb-4],37.95,42.013,#533AA7,Afro-Asiatic,Arabic,Greater Mesopotamia
Arabic_Traras-Msirda [ary-4],35.18,-1.65,#9C5362,Afro-Asiatic,Arabic,N Africa
Arabic_Tunisian [aeb],36,10,#493C97,Afro-Asiatic,Arabic,N Africa
Arabic_Tunisian_Sahel_Female [aeb-2],35.83,10.63,#4D3084,Afro-Asiatic,Arabic,N Africa
Arabic_Wadi Mousa [ajp-2],30.32,35.48,#57525E,Afro-Asiatic,Arabic,Greater Mesopotamia
Arabic_Yemeni [jye-2],14,47,#6E2A70,Afro-Asiatic,Arabic,Greater Mesopotamia
Arabic_Yemeni_Hadhrami [ayh],16.67,49.5,#683868,Afro-Asiatic,Arabic,Greater Mesopotamia
Arabic_Yemeni_Tihamiyya [arb-6],13.083,43.833,#7E2C6D,Afro-Asiatic,Arabic,Greater Mesopotamia
Arabic_Yemeni_Zabidi [acq-2],14.2,43.317,#643172,Afro-Asiatic,Arabic,Greater Mesopotamia
Arabic; North Israel Bedouin [ajp-4],32.83,35.33,#3E3EA2,Afro-Asiatic,Arabic,Greater Mesopotamia
Aragonese [arg],41,-1,#9B7361,Indo-European,Romance,Europe
Aragusuku [mvi-3],24.22,123.93,#4BC975,Japonic,Ryukyuan,N Coast Asia
Araki [akr],-15.629,166.957,#A9835A,Austronesian,Southern Oceanic,Oceania
Arakmbut [hug],-13.27,-71.21,#A4974B,Harakmbet,Harakmbet,NE South America
Aralle-Tabulahan [atq],-2.756,119.203,#9B8D4E,Austronesian,Greater South Sulawesi,Southeast Asia-Island
Arammba [stk],-8.25,141.5,#49A574,South New Guinea,Tonda,S New Guinea
Arandai [jbj],-2.17,133,#85804B,Trans New Guinea,South Birds Head,N Coast New Guinea
Aranese [oci-4],42.7,0.795,#4B798B,Indo-European,Romance,Europe
Araona [aro],-12.333,-67.75,#70714E,Tacanan,Tacanan,NE South America
Arapaho [arp],39.565,-105.345,#5A7F3D,Algic,Algonquian,Basin and Plains
Arapesh_Muhiang [aoj],-3.564,142.9,#766A52,Torricelli,Kombio-Arapesh,N Coast New Guinea
Arara_do_Acre [adc],-8.841,-72.315,#737746,Panoan,Pano Nawa,NE South America
Arara_do_Mato_Grosso [axg],-9.5,-60,#699B66,Arara_do_Mato_Grosso,Arara_do_Mato_Grosso,NE South America
Arara_do_Para [aap-2],-4.24,-53.34,#C09157,Cariban,Pekodian,NE South America
Arára_Pará [aap],-4.2422,-53.3745,#C18B58,Cariban,Pekodian,NE South America
Araucanian lg [arn-2],-43,-73.5,#BD8399,Araucanian,Araucanian,Andean
Arawak [arw],5.64,-56.92,#878A49,Arawak,Northern Maipuran,NE South America
Araweté [awt],-4.142017,-52.416914,#8F8243,Tupian,Tupi-Guarani,NE South America
Arbanasi [aln-3],44.11,15.23,#409380,Indo-European,Albanian,Europe
Arbëresh [als-2],37.995,13.283,#4B67B2,Indo-European,Albanian,Europe
Arbëresh Kundisa [als-10],37.73,13.18,#5660A7,Indo-European,Albanian,Europe
Arbëresh_Pianese [als-8],37.8,12.8,#5B66AA,Indo-European,Albanian,Europe
Arbore [arv],4.92,36.8,#438B82,Afro-Asiatic,East Cushitic,Greater Abyssinia
Archi [aqc],42.07,46.86,#2A2EB1,Nakh-Daghestanian,Lezgic,Greater Mesopotamia
Arctic Bay_Inuit [ikt],73.036,-85.15,#976252,Eskimo-Aleut,Eskimo,E North America
Are [mwc],-9.67,150,#8A7D48,Austronesian,Papuan Tip,S New Guinea
Are'are [alu],-9.342,161.203,#928440,Austronesian,Southeast Solomonic,Oceania
Arem [aem],18.15,105.5,#39B9BD,Austroasiatic,Vietic,Southeast Asia-mainland
Argobba [agj],10.66,39.76,#466479,Afro-Asiatic,Ethiopian,Greater Abyssinia
Arguni [agf],-2.667,132.5,#A2A784,Austronesian,South Halmahera-West New Guinea,N Coast New Guinea
Ari [aac],-7.916,142.34,#89903F,Papuan Gulf,Gogodala-Suki,S New Guinea
Aribwatsa [laz],-6.667,146.917,#8B815B,Austronesian,North New Guinea,N Coast New Guinea
Aribwaungg [ylu],-6.592,146.874,#498178,Austronesian,North New Guinea,N Coast New Guinea
Arifama-Miniafia [aai],-9.142,149.279,#83873A,Austronesian,Papuan Tip,S New Guinea
Arikapu [ark],-13,-62.5,#7F8D4A,Macro-Je,Jabutí,NE South America
Arikara [ari],40,-97,#74723C,Caddoan,Northern Caddoan,Basin and Plains
Aringa [luc],3,31,#41C1A1,Nilo-Saharan,Moru-Madi,S Africa
Aritinngithigh [rrt],-13,141.67,#D88893,Pama-Nyungan,Paman,N Australia
Arizona Tewa [tew],35.8,-110.4,#3B9869,Kiowa-Tanoan,Tewa,Basin and Plains
Armenian [hye],40,45,#425B78,Indo-European,Armenian,Greater Mesopotamia
Armenian_Agulis [hye-3],38.95,45.98,#3C5B78,Indo-European,Armenian,Greater Mesopotamia
Armenian_Aslanberg [hyw-7],41.2,30.5,#436963,Indo-European,Armenian,Greater Mesopotamia
Armenian_Karabakh [hye-2],39.76,46.75,#336092,Indo-European,Armenian,Greater Mesopotamia
Armenian_Karin [hye-5],40.79,43.85,#406271,Indo-European,Armenian,Greater Mesopotamia
Armenian_Kharpert [hyw-6],38.67,39.22,#3C5B78,Indo-European,Armenian,Greater Mesopotamia
Armenian_Khodorjur [hyw-3],40.73,41.2,#376871,Indo-European,Armenian,Greater Mesopotamia
Armenian_Malatya [hyw-5],38.35,38.3,#3D7364,Indo-European,Armenian,Greater Mesopotamia
Armenian_Sebastia [hyw-4],39.75,37.02,#3B6573,Indo-European,Armenian,Greater Mesopotamia
Armenian_Van [hyw-8],38.49,43.38,#495A6C,Indo-European,Armenian,Greater Mesopotamia
Armenian_Western [hyw],40,40,#3B7566,Indo-European,Armenian,Greater Mesopotamia
Armenian_Yerevan [hye-4],40.18,44.52,#3B616F,Indo-European,Armenian,Greater Mesopotamia
Aromanian [rup],42,23,#456768,Indo-European,Romance,Europe
Aromanian-2 [rup-2],39.77,21.1,#54769A,Indo-European,Romance,Europe
Arop-Lokep [apr],-5.333,147.083,#9E9858,Austronesian,North New Guinea,N Coast New Guinea
Arosi [aia],-10.333,161.5,#948553,Austronesian,Southeast Solomonic,Oceania
Arpitan [frp-3],45.17,5.72,#5C949E,Indo-European,Romance,Europe
Arrernte_Central [are],-22.85,133.7,#F16EB3,Pama-Nyungan,Arandic,S Australia
Arrernte_Eastern [are-2],-23.292,134.445,#EA83BA,Pama-Nyungan,Arandic,S Australia
Arrernte_Mparntwe [aer],-24,136,#EB7AB6,Pama-Nyungan,Arandic,S Australia
Arrernte_Pertame [xxx-59],-24.5,132,#F082BA,Pama-Nyungan,Arandic,S Australia
Arta [atz],16.42,121.66,#A08060,Austronesian,Philippines,Southeast Asia-Island
Arutani [atx],4.06,-62.88,#887A44,Arutani–Sape,Sape,NE South America
Arvanitika [als-3],38.42,23.08,#517FAA,Indo-European,Albanian,Europe
As [asz],-0.722,131.787,#868A4D,Austronesian,South Halmahera-West New Guinea,N Coast New Guinea
Asaro_Upper [aso],-5.967,145.292,#5A8F53,Trans New Guinea,Goroka,Interior New Guinea
Asharon [acz],10.8,30.3,#97ABA4,Talodi-Heiban,Talodi,African Savannah
Ashe [ahs],9.37,7.39,#46B893,Niger-Kongo,Plateau,African Savannah
Asheninka_Apurucayali [cpc],-10.018,-74.793,#966956,Arawak,Southern Maipuran,NE South America
Ashéninka_Perené [prq],-10.8734,-75.245,#8E6A59,Arawak,Southern Maipuran,NE South America
Ashéninka_Pichis [cpu],-9.9833,-74.9833,#9A5B74,Arawak,Southern Maipuran,NE South America
Ashéninka_Ucayali-Yurúa [cpb],-10.1619,-74.0234,#6B4C73,Arawak,Southern Maipuran,NE South America
Ashkun [ask],34.84,70.37,#B97791,Indo-European,Indo-Iranian,Indic
Asho [csh-4],22.91,93.68,#4CAEBF,Tibeto-Burman,Kuki-Chin,Indic
Ashuku [nza-2],6.98,10.71,#3AC287,Niger-Kongo,Jukkunoid,African Savannah
Ashuslay [cag-2],-23.5,-60.5,#455A85,Matacoan,Mataguayo I,SE South America
Asi [bno-2],12.95,122.08,#B07A55,Austronesian,Philippines,Southeast Asia-Island
Asienara [asi],-3.75,133.33,#828342,Trans New Guinea,Asmat-Kamoro,N Coast New Guinea
Asilulu [asl],-3.67,127.95,#967D43,Austronesian,Central Maluku,Southeast Asia-Island
Asmat [asc],-5.3,138.3,#86873E,Trans New Guinea,Asmat-Kamoro,S New Guinea
Asmat_North [nks],-5,138.5,#93843E,Trans New Guinea,Asmat-Kamoro,S New Guinea
Assamese [asm],26.5,93,#58A589,Indo-European,Indo-Iranian,Indic
Assamese_Dudhnoi [asm-10],26,90.8,#5F9692,Indo-European,Indo-Iranian,Indic
Assiniboine [asb],49,-100,#3D6056,Siouan,Mississippi Valley Siouan,Basin and Plains
Asturian [ast],43.33,-6,#A17269,Indo-European,Romance,Europe
Asu [aum],10.08,5.42,#3CAF7E,Niger-Kongo,Ebira-Nupoid,African Savannah
Asumboa [aua],-11.296,166.496,#AF8180,Austronesian,Te Motu,Oceania
Asur [asr-2],21.57,83.46,#9F7DA0,Austroasiatic,Munda,Indic
Asuri [asr],23.04,84.54,#A6726A,Austroasiatic,Munda,Indic
Asurini [asu],-3.3,-49.3,#8B7C52,Tupian,Tupi-Guarani,NE South America
Asuriní_Tocantins [asu-2],-3.3,-50,#8C8640,Tupian,Tupi-Guarani,NE South America
Asuriní_Xingú [asn],-4.13,-52.32,#887C54,Tupian,Tupi-Guarani,NE South America
Ata [ata],-5.667,151,#928449,Ata,Ata,N Coast New Guinea
Ata_Manobo [atd],7.845,125.506,#A28853,Austronesian,Philippines,Southeast Asia-Island
Atacameño [kuz],-23,-69,#514571,Atacameño,Atacameño,Andean
Atadei [slp-3],-8.46,123.555,#A99862,Austronesian,Bima-Lembata,Southeast Asia-Island
Atakapa [aqp],30,-93,#756B60,Atakapa,Atakapa,E North America
Atamanu [jal],-3.396,129.313,#998C55,Austronesian,Central Maluku,Southeast Asia-Island
Atampaya [amz],-11.33,142.5,#CC8399,Pama-Nyungan,Paman,N Australia
Atayal [tay],24.5,121,#765272,Austronesian,Atayalic,Southeast Asia-Island
Atchin [upv],-16,167.333,#459586,Austronesian,Southern Oceanic,Oceania
Ateso [teo],1.915,33.955,#56AE98,Nilo-Saharan,Teso,S Africa
Athpare [aph],26.75,87.33,#76928A,Tibeto-Burman,Eastern Kiranti,Indic
Atikamekw [atj],48,-74,#8E7441,Algic,Algonquian,E North America
Atong [aot],25.5,90.5,#998D77,Tibeto-Burman,Bodo-Garo,Indic
Atsawaka [atc],-14.17,-69.5,#717749,Panoan,Pano Nawa,NE South America
Atsi [atb-2],28,93.5,#4BA0C0,Tibeto-Burman,Central Loloish,Indic
Atsugewi [atw],40.75,-121,#623693,Palaihnihan,Palaihnihan,Basin and Plains
Atta_Pamplona-1 [att-2],18.46,121.341,#A67D4C,Austronesian,Northern Luzon,Southeast Asia-Island
Atta_Pamplona-2 [att],18.458,121.342,#B3715B,Austronesian,Northern Luzon,Southeast Asia-Island
Attie [ati],6,-3.82,#1EBD9A,Niger-Kongo,Kwa,African Savannah
Au [avt],-3.5,142.083,#8D7E47,Torricelli,Wapei,N Coast New Guinea
Auhelawa [kud],-10.284,151.02,#756A51,Austronesian,Papuan Tip,S New Guinea
Aujila [auj],29.23,21.18,#473F76,Afro-Asiatic,Berber,N Africa
Aulua [aul],-16.33,167.694,#86849F,Austronesian,Southern Oceanic,Oceania
Aurland [nno-6],60.87,7.23,#44B1AB,Indo-European,Germanic,Europe
Ausaimia [css-3],36.37,-121.15,#7F6753,Yok-Utian,Costanoan,California
Austral [aut],-23.377,-149.498,#838A43,Austronesian,Central Pacific,Oceania
Auyana [auy],-6.523,145.708,#6CA44C,Trans New Guinea,Kainantu,Interior New Guinea
Auye [auu],-3.495,136.002,#79A945,Trans New Guinea,Wissel Lakes,Interior New Guinea
Avá-Canoeiro [avv],-13.166403,-47.928611,#B78D56,Tupian,Tupi-Guarani,NE South America
Avar [ava],42.54,46.7,#3A3C85,Nakh-Daghestanian,Avar-Andi,Greater Mesopotamia
Avatime [avn],6.85,0.44,#27A5A2,Niger-Kongo,Kwa,African Savannah
Avava [tmb],-16.224,167.523,#988673,Austronesian,Southern Oceanic,Oceania
Aveteian [dix],-16.443,167.43,#A69775,Austronesian,Southern Oceanic,Oceania
Avikam [avi],5.16,-5.25,#30A650,Niger-Kongo,Kwa,African Savannah
Avok [xxx-61],-16.53,167.7,#4E99A0,Austronesian,Southern Oceanic,Oceania
Avok_Maxbaxo [xxx-110],-16.496,167.665,#6984A0,Austronesian,Southern Oceanic,Oceania
Avokaya [avu],5,30.2,#42C3A7,Nilo-Saharan,Moru-Madi,African Savannah
Awa [awb],-6.75,145.667,#73B54C,Trans New Guinea,Kainantu,Interior New Guinea
Awa Pit [kwi],0.75,-78.5,#50647D,Barbacoan,Northern Barbacoan,Andean
Awabakal [awk],-33.05,151.55,#E1816D,Pama-Nyungan,Yuin-Kuri,S Australia
Awad Bing [bcu],-5.584,146.349,#9A8855,Austronesian,North New Guinea,N Coast New Guinea
Awadhi [awa],27.5,81.5,#806BB8,Indo-European,Indo-Iranian,Indic
Awajún [agr-2],-4.795,-78.29,#827344,Jivaroan,Aguaruna,Andean
Awak [awo],9.86,11.33,#3BC8A8,Niger-Kongo,Gur,African Savannah
Awar [aya],-4,144.625,#5AA269,Lower Sepik-Ramu,Ramu,N Coast New Guinea
Awara [awx],-6.094,146.441,#767C5D,Trans New Guinea,Finisterre-Huon,N Coast New Guinea
Awbono [awh],-5.119,139.201,#718344,Bayono-Awbono,Bayono-Awbono,Interior New Guinea
Aweer [orm-4],-1.717,40.967,#BE8D78,Afro-Asiatic,East Cushitic,S Africa
Awera [awr],-2.677,136.242,#988D37,Lakes Plains,Western Lakes Plains,N Coast New Guinea
Awetí [awe],-12.926,-54.277,#B9905D,Tupian,Aweti,NE South America
Awiakay [afp],-4.672,143.712,#C0936E,Arafundi,Arafundi,N Coast New Guinea
Awin [awi],-5.833,142.5,#6EA95D,Trans New Guinea,Awin-Pa,Interior New Guinea
Awing [azo],5.88,10.24,#59A559,Niger-Kongo,Grassfields,African Savannah
Awiya [som-2],10.851,36.892,#4EA2B3,Afro-Asiatic,Central Cushitic,Greater Abyssinia
Awngi [awn],10.83,36.67,#447BB0,Afro-Asiatic,Central Cushitic,Greater Abyssinia
Awngthim [gwm],-12.54,141.98,#AC89AF,Pama-Nyungan,Paman,N Australia
Awtuw [kmn],-3.5,141.917,#CB9F64,Sepik,Ram,N Coast New Guinea
Awu Alaya [typ-2],-14.83,143.32,#B693A3,Pama-Nyungan,Paman,N Australia
Awutu [afu],5.42,-0.6,#52B3AA,Niger-Kongo,Kwa,African Savannah
Awyi [auw],-3,140.75,#86904F,Trans New Guinea,Border,N Coast New Guinea
Axi [yix-2],24.4,103.44,#2F9FB9,Tibeto-Burman,Central Loloish,Southeast Asia-mainland
Axininca [cpc-2],-9,-75,#844D73,Arawak,Southern Maipuran,NE South America
Ayapathu [ayd-2],-14.29,143.11,#E38E7D,Pama-Nyungan,Paman,N Australia
Ayautla Mazatec [vmy],18.1,-96.6,#1CD6BD,Otomanguean,Mazatecan,Mesoamerica
Ayere [aye],7.52,6.02,#47AE95,Niger-Kongo,Ayere-Ahan,African Savannah
Ayerrerenge [axe],-22.5,137.36,#F781A4,Pama-Nyungan,Arandic,S Australia
Aymara [ayr],-16,-69.5,#994183,Aymaran,Aymaran,Andean
Aymara_Carangas [ayr-3],-18.45,-67.45,#A34E96,Aymaran,Aymaran,Andean
Aymara_Chile [ayc],-19.15,-69.4,#9956A3,Aymaran,Aymaran,Andean
Aymara_Muylaq' [ayr-2],-16.675,-70.712,#A04489,Aymaran,Aymaran,Andean
Äynu [aib],38.069,76.227,#566B6F,Turkic,Common Turkic,Inner Asia
Ayoré [ayo],-20.5,-59.25,#AB8A74,Zamucoan,Zamucoan,SE South America
Ayu [ayu],9.26,8.6,#3CC295,Niger-Kongo,Plateau,African Savannah
Azerbaijani [azj],40.5,48.5,#457772,Turkic,Common Turkic,Greater Mesopotamia
Azerbaijani_Tabriz [azj-3],38.07,46.3,#4A7563,Turkic,Common Turkic,Greater Mesopotamia
Azeri [azb],40.67,47.75,#417073,Turkic,Common Turkic,Greater Mesopotamia
Azha [aza],23.37,104.25,#28A7BA,Tibeto-Burman,Central Loloish,Southeast Asia-mainland
Azhe [yiz],24.2,103.6,#349BC3,Tibeto-Burman,Central Loloish,Southeast Asia-mainland
B'lit_Manobo [mta],6.39,124.23,#918D52,Austronesian,Philippines,Southeast Asia-Island
Ba:ngingi_Sama [sse],6.133,121.805,#AA8869,Austronesian,Barito,Southeast Asia-Island
Baagandji [drl],-32,142.533,#F979A5,Pama-Nyungan,Yarli-Baagandji,S Australia
Baale [koe],5,36,#51AF99,Nilo-Saharan,Surmic,African Savannah
Baangi [bqx],10.81,5.73,#1F8D8D,Niger-Kongo,Kainji,African Savannah
Baarin [mon-2],43.53,118.67,#739069,Mongolic,Mongolic,Inner Asia
Baatonum [bba-2],9.63,3,#58A65C,Niger-Kongo,Gur,African Savannah
Baba [bbw],6.11,10.52,#57A79A,Niger-Kongo,Grassfields,African Savannah
Babale [tmv-2],3.3,20.87,#30C185,Niger-Kongo,Zone C30,S Africa
Babanki [bbk],6.104,10.311,#2BAEA6,Niger-Kongo,Grassfields,African Savannah
Babar_North [bcd],-7.83,129.58,#8D8E42,Austronesian,Southeast Maluku,Southeast Asia-Island
Babar_Southeast [vbb],-7.92,129.67,#807A4E,Austronesian,Southeast Maluku,Southeast Asia-Island
Babatana [baa],-7.397,157.37,#7E8F5B,Austronesian,Meso-Melanesian,Oceania
Babine-Witsuwit'en [bcr],55,-127,#254E9D,Dene-Yeniseic,Athapaskan,Alaska-Oregon
Babungo [bav],6.12,10.42,#2AD1A2,Niger-Kongo,Grassfields,African Savannah
Babuza [bzg-2],24,120.58,#7D7C4F,Austronesian,Western Plains,Southeast Asia-Island
Baca [baf],4.36,11.03,#4BC690,Niger-Kongo,Mbam-Bubi-Jarawan,African Savannah
Bacan Malay [btj],-0.62,127.49,#868A6E,Austronesian,Malayic,Southeast Asia-Island
Bachamal [wdj-2],-13.17,130.17,#E684AB,Wagaydyic,Wagaydyic,N Australia
Bada [bhz],-1.793,120.313,#789B64,Austronesian,Celebic,Southeast Asia-Island
Badaga [bfq],11.31,76.6,#C47B97,Dravidian,South Dravidian,Indic
Bade [bde],12.79,10.66,#3B85B3,Afro-Asiatic,West Chadic,African Savannah
Bade-2 [bde-2],12,12,#4D5B87,Afro-Asiatic,West Chadic,African Savannah
Badeng [xkl-3],3.17,115.22,#969463,Austronesian,North Borneo,Southeast Asia-Island
Badimaya [bia],-27.667,119,#F77CA6,Pama-Nyungan,Kardu,S Australia
Badjala [xby],-25.084,152.529,#E08A7E,Pama-Nyungan,Waka-Kabic,S Australia
Badjiri [jbi],-28.79,145.47,#EE7DAC,Pama-Nyungan,Karnic,S Australia
Badyara [pbp],11.633,-13.4,#9B9590,Niger-Kongo,North-Central Atlantic,African Savannah
Baelelea [bvc],-8.453,160.66,#937B5F,Austronesian,Southeast Solomonic,Oceania
Baenggu [bvd],-8.506,160.706,#99815A,Austronesian,Southeast Solomonic,Oceania
Baetora [btr],-15.258,168.166,#7F804D,Austronesian,Southern Oceanic,Oceania
Bafang [cmn-76],35.6,103.217,#31B3B6,Tibeto-Burman,North Sinitic,Inner Asia
Bafanji [bfj-2],5.84,10.46,#3CADA5,Niger-Kongo,Grassfields,African Savannah
Bafia [ksf-2],4.73,11.1,#3FB2AA,Niger-Kongo,Zone A70,African Savannah
Bafo [bwt],6.351,10.229,#38C289,Niger-Kongo,Zone A10,African Savannah
Bafut [bfd],6.083,10.0999,#3294AA,Niger-Kongo,Grassfields,African Savannah
Baga tshi-Tem [bsp-2],10.65,-14.51,#4A9076,Niger-Kongo,Mel,African Savannah
Baga_Koga [bgo],10.13,-13.95,#7DB191,Niger-Kongo,North-Central Atlantic,African Savannah
Baga_Mboteni [bcg],10.83,-14.55,#959E6F,Niger-Kongo,North-Central Atlantic,African Savannah
Baga_Sitemu [bsp],10.48,-14.48,#8B9B68,Niger-Kongo,Mel,African Savannah
Bagheli [bfy],24.35,81.43,#777CB9,Indo-European,Indo-Iranian,Indic
Bagirmi [bmi],10.202,17,#94ADB5,Nilo-Saharan,Sara-Bongo-Bagirmi,African Savannah
Bagri [bgq],29.6,74.3,#789CC4,Indo-European,Indo-Iranian,Indic
Baguiro_Zangba [bmi-2],7.29,18.82,#5CC2B0,Nilo-Saharan,Sara-Bongo-Bagirmi,African Savannah
Bagulal [kva],42.56,46.17,#45438A,Nakh-Daghestanian,Avar-Andi,Greater Mesopotamia
Bagusa [bqb],-1.905,137.932,#8C7548,Tor-Kwerba,Nuclear Kwerba,N Coast New Guinea
Baharnah [afb-4],26.03,50.55,#5C4561,Afro-Asiatic,Arabic,Greater Mesopotamia
Bahau [bhv],0.06,115.65,#8A7F5B,Austronesian,North Borneo,Southeast Asia-Island
Bahinemo [bjh],-4.435,142.726,#788846,Sepik,Sepik Hill,N Coast New Guinea
Bahing [bhj],27.27,86.56,#53ACA2,Tibeto-Burman,Northwestern Kiranti,Indic
Bahnar [bdq],14,108.5,#A579A0,Austroasiatic,Bahnaric,Southeast Asia-mainland
Bahonsuai [bsu],-2.23,121.71,#7D9050,Austronesian,Celebic,Southeast Asia-Island
Bai [bca],25.61,100.27,#2EB5C2,Tibeto-Burman,Bai,Southeast Asia-mainland
Bai_Bijiang [bca-11],26.12,98.87,#2DADCB,Tibeto-Burman,Bai,Southeast Asia-mainland
Bai_Dashi [bca-18],26.81,99.89,#27B9C9,Tibeto-Burman,Bai,Southeast Asia-mainland
Bai_Ega [bca-15],23.66,101.9,#2DB7BF,Tibeto-Burman,Bai,Southeast Asia-mainland
Bai_Enqi [bca-14],27.475,99.13,#30ACC6,Tibeto-Burman,Bai,Southeast Asia-mainland
Bai_Eryuan [bca-3],26.12,99.95,#2CC2C6,Tibeto-Burman,Bai,Southeast Asia-mainland
Bai_Gongxing [bca-13],27.09,99.17,#29AFD2,Tibeto-Burman,Bai,Southeast Asia-mainland
Bai_Heqing [bca-4],26.56,100.18,#24C4BF,Tibeto-Burman,Bai,Southeast Asia-mainland
Bai_Jinman [bca-16],26.42,99.14,#34ABC9,Tibeto-Burman,Bai,Southeast Asia-mainland
Bai_Jinxing [bca-17],25.6,100.24,#2CC4BE,Tibeto-Burman,Bai,Southeast Asia-mainland
Bai_Lanping [bca-5],26.45,99.42,#28C8B9,Tibeto-Burman,Bai,Southeast Asia-mainland
Bai_Luobenzhuo [bca-6],26.42,98.89,#30B4DB,Tibeto-Burman,Bai,Southeast Asia-mainland
Bai_Mazhelong [bca-20],24.17,104.2,#38C2C3,Tibeto-Burman,Bai,Southeast Asia-mainland
Bai_Qiliqiao [bca-7],25.65,100.18,#2AC9B8,Tibeto-Burman,Bai,Southeast Asia-mainland
Bai_Tuoluo [bca-12],27.1,99.17,#24A9C2,Tibeto-Burman,Bai,Southeast Asia-mainland
Bai_Xiangyun [bca-8],25.48,100.55,#29C9B7,Tibeto-Burman,Bai,Southeast Asia-mainland
Bai_Xishan [bca-2],25.53,100.45,#29C8D6,Tibeto-Burman,Bai,Southeast Asia-mainland
Bai_Yunlong [bca-9],25.88,99.37,#2DC8C3,Tibeto-Burman,Bai,Southeast Asia-mainland
Bai_Zhoucheng [bca-10],24.48,101.34,#31CABD,Tibeto-Burman,Bai,Southeast Asia-mainland
Bai_Zhoucheng [bca-19],26.63,100.54,#33C7C2,Tibeto-Burman,Bai,Southeast Asia-mainland
Baikeno [bkx],-9.3,124.32,#7D7744,Austronesian,Southeast Maluku,Southeast Asia-Island
Baima [bqh],30.32,107.34,#2BB5CD,Tibeto-Burman,Bodic,Southeast Asia-mainland
Bainapi [dby],-7.904,142.715,#878F43,Papuan Gulf,Strickland,S New Guinea
Baining [gcc-2],-4.6,152,#799158,Baining,Baining,N Coast New Guinea
Baiso [bsw-3],6.45,37.77,#467189,Afro-Asiatic,East Cushitic,Greater Abyssinia
Baixinghua [csp],23.6,107.1,#36C3C1,Tibeto-Burman,Pinghua,Southeast Asia-mainland
Bajau_Semporna [ssb],4.5,118.5,#848B5D,Austronesian,Barito,Southeast Asia-Island
Bajau_Sulawesi [bdl-2],-3.75,122.5,#929162,Austronesian,Barito,Southeast Asia-Island
Bajo_Kangean [bdl],-7.17,115.82,#979A9A,Austronesian,Barito,Southeast Asia-Island
Bajuni [swh-2],-1,42.04,#7681AA,Niger-Kongo,Zone G40,S Africa
Baka [bdh],4.8,31.6,#56B3BE,Nilo-Saharan,Sara-Bongo-Bagirmi,African Savannah
Baka [bkc],2.16,13.78,#34C493,Ubangian,Ubangian,African Savannah
Bakairí [bkq],-14,-55,#6C854E,Cariban,Pekodian,NE South America
Bakairí_East [bkq-2],-14.43,-54.025,#778149,Cariban,Pekodian,NE South America
Bakairí_West [bkq-3],-14.7302,-56.2479,#7A824C,Cariban,Pekodian,NE South America
Bakaka [bqz],4.8,9.8,#55B47B,Niger-Kongo,Zone A10,African Savannah
Bakhtiari [ldd],31.92,50.86,#655A5E,Indo-European,Indo-Iranian,Greater Mesopotamia
Baki [bki],-16.717,168.138,#B77F86,Austronesian,Southern Oceanic,Oceania
Bakoko [bkh],4.2,9.67,#39C59E,Niger-Kongo,Zone A50,African Savannah
Bakole [kme],4.44,8.97,#53ACA6,Niger-Kongo,Zone A20,African Savannah
Bakumpai [bkr],-1.988,114.7,#A78864,Austronesian,Barito,Southeast Asia-Island
Balaesang [bls],-0.06,119.69,#A68A57,Austronesian,Celebic,Southeast Asia-Island
Balami [new-4],27.801,85.25,#8891B9,Tibeto-Burman,Newaric,Indic
Balangao [blw],17.167,120.333,#938B56,Austronesian,Northern Luzon,Southeast Asia-Island
Balanta [ble],12,-15,#4CBA83,Niger-Kongo,North-Central Atlantic,African Savannah
Balantak [blz],-0.82,123.431,#B79063,Austronesian,Celebic,Southeast Asia-Island
Balante_Sofa [bjt],12.54,-15.67,#66B384,Niger-Kongo,North-Central Atlantic,African Savannah
Balawaia [snc-2],-9.98,147.865,#7E7544,Austronesian,Papuan Tip,S New Guinea
Balearic [cat-2],39.5,3,#748FA5,Indo-European,Romance,Europe
Balendru [led],1.968,30.485,#37A4B1,Nilo-Saharan,Lenduic,S Africa
Bali-Vitu [wiv],-4.733,149.283,#A08A55,Austronesian,Meso-Melanesian,N Coast New Guinea
Balinese [ban],-8.583,115.25,#B3A58A,Austronesian,Malayo-Sumbawan,Southeast Asia-Island
Balingian [mel-6],2.92,112.53,#B27C72,Austronesian,North Borneo,Southeast Asia-Island
Balochi [bgp-2],27,63.5,#6F5B8C,Indo-European,Indo-Iranian,Indic
Balochi_Turkmenistan [bgp-3],37.3,62.4,#706F6B,Indo-European,Indo-Iranian,Inner Asia
Balong [bwt-2],4.53,9.52,#66C57D,Niger-Kongo,Zone A10,African Savannah
Balti [bft],35.2,76,#755FB9,Tibeto-Burman,Tibetan,Indic
Baluchi [bgp],27.2,60.68,#55517F,Indo-European,Indo-Iranian,Indic
Balui Liko [ree-3],1.92,114.52,#978864,Austronesian,North Borneo,Southeast Asia-Island
Bam [bmc],-3.61,144.82,#B69666,Austronesian,North New Guinea,N Coast New Guinea
Bamata [lol-22],-0.9,20.95,#47C992,Niger-Kongo,Zone C30,S Africa
Bambalang [bmo],5.86,10.55,#3898B3,Niger-Kongo,Grassfields,African Savannah
Bambara [bam],12.5,-7.5,#4AAE8C,Mande,Western Mande,African Savannah
Bambara_South-east [bam-2],12.48,-6.18,#4CB29E,Mande,Western Mande,African Savannah
Bamenyam [bce],5.77,10.33,#4CAE9B,Niger-Kongo,Grassfields,African Savannah
Bamu [bcf],-8,143.833,#908740,Kiwaian,Kiwaian,S New Guinea
Bamun [bax],5.726,10.904,#34C1BA,Niger-Kongo,Grassfields,African Savannah
Bamunka [bvm],6,10.51,#3EA78C,Niger-Kongo,Grassfields,African Savannah
Bana [bcw],10.42,13.58,#3F5EB2,Afro-Asiatic,Biu-Mandara,African Savannah
Banam Bay [vrt-2],-16.41,167.78,#6B9D61,Austronesian,Southern Oceanic,Oceania
Banda [bnd],-5.25,133.17,#A09960,Austronesian,Central Maluku,Southeast Asia-Island
Banda [bpd],2,22,#2BB59B,Ubangian,Ubangian,African Savannah
Banda_Ndele [bfl],8.03,23.9,#2CB199,Ubangian,Ubangian,African Savannah
Bandi [bza],7.74,-10.17,#32B990,Mande,Western Mande,African Savannah
Bandiaal [bqj-2],13.02,-15.32,#A4A56A,Niger-Kongo,North-Central Atlantic,African Savannah
Bandjalang [bdy],-28.74,153.01,#DB806E,Pama-Nyungan,Yugambeh-Bundjalung,S Australia
Bandjalang-2 [bdy-4],-28.39,152.61,#DB826D,Pama-Nyungan,Yugambeh-Bundjalung,S Australia
Bandjalang-Gidabal [bdy-2],-28.25,152,#DB856E,Pama-Nyungan,Yugambeh-Bundjalung,S Australia
Bandjigali [bjd],-30.08,143.28,#FA7BA4,Pama-Nyungan,Yarli-Baagandji,S Australia
Banggai [bgz],-1.42,123.17,#A39668,Austronesian,Celebic,Southeast Asia-Island
Banggime [dbb],14.78,-3.76,#56D590,Banggime,Banggime,African Savannah
Bangla Rahri Upobhasa [ben-11],23.24,87.86,#807AA2,Indo-European,Indo-Iranian,Indic
Bangla_Mymensingh [ben-10],24.75,90.4,#73805B,Indo-European,Indo-Iranian,Indic
Bangolan [bgj],6.05,10.45,#52A558,Niger-Kongo,Grassfields,African Savannah
Bangru [hru-3],27.9,93.35,#90B27B,Tibeto-Burman,Hrusish,Indic
Bangubangu [bnx],-4.689,27.693,#4EAC65,Niger-Kongo,Zone D20,S Africa
Baniwa_Central [bwi],1.4091,-68.1358,#C17E68,Arawak,Northern Maipuran,NE South America
Baniwa_do_Içana [bwi-2],2.18,-67.77,#BC7A9B,Arawak,Northern Maipuran,NE South America
Baniwa_Rio_Negro [bwi-3],0.053,-67.43,#6E8A5F,Arawak,Northern Maipuran,NE South America
Baniwa_Siusi [bwi-4],2.19,-67.76,#B574AD,Arawak,Northern Maipuran,NE South America
Banjar [bjn],0.75,115.79,#C67B75,Austronesian,Malayic,Southeast Asia-Island
Banjari [lmn-2],16.5,77.455,#AE7FA5,Indo-European,Indo-Iranian,Indic
Bankan Tey Dogon [dbw],15.06,-2.92,#64C8AB,Dogon,Dogon,African Savannah
Bankariya [cdm-2],27.5,85,#8580C3,Tibeto-Burman,Chepang,Indic
Bankon [abb],4.37,9.64,#57AEB4,Niger-Kongo,Zone A40,African Savannah
Banoni [bcm],-6.417,155.25,#927B58,Austronesian,Meso-Melanesian,Oceania
Bantang [pho-5],21.75,102.25,#34B8A9,Tibeto-Burman,Hani-Jino,Southeast Asia-mainland
Bantawa [bap],27.2,87.1,#808EA9,Tibeto-Burman,Central Kiranti,Indic
Banten [sun-2],-6.35,106.1,#AA8F81,Austronesian,Sundanese,Southeast Asia-Island
Bantik [bnq],1.564,124.859,#9D8B54,Austronesian,Philippines,Southeast Asia-Island
Bantoanon [bno],12.784,122.049,#AE7858,Austronesian,Philippines,Southeast Asia-Island
Banyaduq [byd],0.5,110,#BD8E83,Austronesian,Land Dayak,Southeast Asia-Island
Banyum [bab],11.497,-16.5,#89AC7A,Niger-Kongo,North-Central Atlantic,African Savannah
Banyun [bcb-2],12.75,-16.3,#99AE79,Niger-Kongo,North-Central Atlantic,African Savannah
Baoan [peh],35.05,102.1,#6A66B5,Mongolic,Mongolic,Inner Asia
Baoan [yue-24],22.55,113.9,#48C9A4,Tibeto-Burman,Yue,Southeast Asia-mainland
Baoan_Dahejia [peh-2],35.72,102.88,#6F6B9B,Mongolic,Mongolic,Inner Asia
Baoan_Dongxiang [peh-5],35.6,103.22,#6567A8,Mongolic,Mongolic,Inner Asia
Baoan_Kangjia [peh-4],35.04,101.25,#4E6E9A,Mongolic,Mongolic,Inner Asia
Baoan_Ñantoq [peh-3],35.41,102.08,#6966A1,Mongolic,Mongolic,Inner Asia
Baojing [hsn-28],28.71,109.65,#3DBAAC,Tibeto-Burman,Xiang,Southeast Asia-mainland
Bará [bao],0.1,-70.45,#7E882E,Tucanoan,East Tucanoan,NE South America
Baraba [tat-3],55.333,78.333,#4F7C83,Turkic,Common Turkic,Inner Asia
Barai [bbb],-9.417,148,#768644,Southeast Papuan,Koiarian,S New Guinea
Barain_Giliya [bva-2],12.08,18.58,#9EB783,Afro-Asiatic,East Chadic,African Savannah
Barain_Jalking [bva-3],12.22,18.8,#9BBA7F,Afro-Asiatic,East Chadic,African Savannah
Barain_Jalkiya [bva],12.18,18.68,#97BB7F,Afro-Asiatic,East Chadic,African Savannah
Barain_Komiya [bva-4],12.17,18.75,#9AB67B,Afro-Asiatic,East Chadic,African Savannah
Baram [brd],27.95,85,#8C949B,Tibeto-Burman,Western Himalayan,Indic
Barang-barang [lji],-6.4,120.5,#B08E8A,Austronesian,Celebic,Southeast Asia-Island
Barapa Barapa [rbp],-35.95,144.32,#D795AE,Pama-Nyungan,Kulinic,S Australia
Barapasi [brp],-2.247,136.995,#5F9D4D,Geelvink Bay,Geelvink Bay,N Coast New Guinea
Barasano [bsn],-0.25,-70.75,#679534,Tucanoan,East Tucanoan,NE South America
Bardi [bcj],-16.58,122.92,#F77B98,Nyulnyul,Bardic,N Australia
Baré [bae],1.6,-66.8,#735391,Arawak,Northern Maipuran,NE South America
Bareke [mpr],-8.543,158.113,#82805A,Austronesian,Meso-Melanesian,Oceania
Barese [ita-47],41.1,16.9,#539B8A,Indo-European,Romance,Europe
Bargam [mlp],-4.87,145.76,#859660,Trans New Guinea,Madang,N Coast New Guinea
Bari [bfa],3.8,31,#5591B5,Nilo-Saharan,Barian,African Savannah
Barí [mot],9,-73.5,#76A148,Chibchan,Southern Magdalenic Chibchan,Andean
Bariai [bch],-5.497,148.63,#A29256,Austronesian,North New Guinea,N Coast New Guinea
Bariba [bba],10.217,2.667,#4FC768,Niger-Kongo,Savannas,African Savannah
Bariji [bjc],-9.211,148.401,#828442,Southeast Papuan,Mailu-Yareban,S New Guinea
Barman Thar [xxx-115],25.899,89.899,#649562,Tibeto-Burman,Bodo-Garo,Indic
Barok [bjk],-3.48,152.19,#948A53,Austronesian,Meso-Melanesian,N Coast New Guinea
Barranbinya [zmu-2],-30.1,145.93,#ED74B0,Pama-Nyungan,Muruwari,S Australia
Barranquenho [por-3],38.13,-6.975,#63935A,Indo-European,Romance,Europe
Barrow_Point [bpt],-14.373,144.63,#D4779F,Pama-Nyungan,Paman,N Australia
Baruga [bjz],-9.328,148.734,#707F41,Trans New Guinea,Binanderean,S New Guinea
Barunggam [xxx-49],-26.25,151.25,#D78F68,Pama-Nyungan,Waka-Kabic,S Australia
Barupu [wra],-3.083,142.083,#5BE366,Skou,Eastern Skou,N Coast New Guinea
Baruya [byr],-6.917,145.833,#93BD70,Trans New Guinea,Angan,Interior New Guinea
Basà [bzw],8.03,7.06,#3BAD9F,Niger-Kongo,Kainji,African Savannah
Basaa [bas],5,10.15,#4CB5A3,Niger-Kongo,Zone A40,African Savannah
Basap [bdb-2],0.91,117.56,#9F8C55,Austronesian,Basap,Southeast Asia-Island
Basap [bdb],1.41,117.94,#8E9E96,Austronesian,Barito,Southeast Asia-Island
Basari [bsc],12.25,-13,#4289BC,Niger-Kongo,North-Central Atlantic,African Savannah
Basay [byq-2],25,121.86,#B2666F,Austronesian,East Formosan,Southeast Asia-Island
Basay_Trobriawan [byq],25,122,#877F49,Austronesian,East Formosan,Southeast Asia-Island
Basel [gsw-4],47.56,7.59,#3F7A97,Indo-European,Germanic,Europe
Bashkardi [bsg-2],32,53,#526E5C,Indo-European,Indo-Iranian,Greater Mesopotamia
Bashkarik [gwc-3],35.358,72.137,#7A70B4,Indo-European,Indo-Iranian,Indic
Bashkir [bak],53,58,#4F7F83,Turkic,Common Turkic,Inner Asia
Basila [ade],8.17,0.62,#61C2AD,Niger-Kongo,Kwa,African Savannah
Basketo [bst],6.384,36.651,#49538C,Afro-Asiatic,Omotic,Greater Abyssinia
Basque [eus],42.82,-1.95,#8C749B,Basque,Basque,Europe
Basque_Arbizu [eus-4],42.9,-2,#758D99,Basque,Basque,Europe
Basque_Baztan [eus-10],43.2,1.47,#8D7EAD,Basque,Basque,Europe
Basque_Baztan [eus-9],43.2,-1.5,#799296,Basque,Basque,Europe
Basque_Gernika [eus-3],43.3,-2.7,#769D8F,Basque,Basque,Europe
Basque_Lekeitio [eus-2],43.365,-2.51,#637F6E,Basque,Basque,Europe
Basque_Navarro [bqe],43.17,-1.24,#578898,Basque,Basque,Europe
Basque_Ondarroa [eus-7],43.3,-2.4,#84A683,Basque,Basque,Europe
Bassa [bsq],7.26,-7.22,#2CB79F,Niger-Kongo,Kru,African Savannah
Basseri [pes-7],29.61,52.54,#5B665D,Indo-European,Indo-Iranian,Greater Mesopotamia
Bassossi [bsi],5.24,9.52,#5EBE88,Niger-Kongo,Zone A10,African Savannah
Bata [bta],9.7,12.5,#46B275,Afro-Asiatic,Biu-Mandara,African Savannah
Batak_Dairi [btd],2.546,98.3,#A48560,Austronesian,Batak-Barrier Islands,Southeast Asia-Island
Batak_Karo [btx],3,98.167,#89A56E,Austronesian,Batak-Barrier Islands,Southeast Asia-Island
Batak_Palawan [bya],10.115,119.214,#B67C64,Austronesian,Philippines,Southeast Asia-Island
Batang [khg-8],30.57,98.97,#31A7D5,Tibeto-Burman,Tibetan,Inner Asia
Batanga [bnm],2.09,9.75,#61C996,Niger-Kongo,Zone A30,S Africa
Bateg [btq],5,102.5,#A89270,Austroasiatic,Aslian,Southeast Asia-mainland
Bathari [bhm],17.6,56,#3F5565,Afro-Asiatic,Modern South Arabian,Greater Mesopotamia
Bati [btc],4.26,11.06,#41B18C,Niger-Kongo,Mbam-Bubi-Jarawan,African Savannah
Batsbi [bbl-2],42.05,45.31,#334287,Nakh-Daghestanian,Nakh,Greater Mesopotamia
Batuley [bay],-5.8,134.75,#90874F,Austronesian,Southeast Maluku,Southeast Asia-Island
Bau [bbd],-5.213,145.556,#778342,Trans New Guinea,Madang,N Coast New Guinea
Baukan_Murut [bnb],5.273,116.519,#B7865D,Austronesian,North Borneo,Southeast Asia-Island
Baule [bci],7.5,-5,#39C08B,Niger-Kongo,Kwa,African Savannah
Baure [brg],-15,-64,#7D7345,Arawak,Southern Maipuran,NE South America
Bauro [bxa],-10.647,161.858,#858155,Austronesian,Southeast Solomonic,Oceania
Bauzi [bvz],-2.5,137.667,#73844A,Geelvink Bay,Geelvink Bay,Interior New Guinea
Bavarian [bar-2],46.73,12.28,#378D9C,Indo-European,Germanic,Europe
Bawm [bgr],22.5,92.25,#5CA0B2,Tibeto-Burman,Kuki-Chin,Indic
Bayan [duq-2],-0.85,115.39,#AB8D68,Austronesian,Barito,Southeast Asia-Island
Bayso [bsw],6.28,37.76,#525472,Afro-Asiatic,East Cushitic,Greater Abyssinia
Bayso-2 [bsw-2],6.456,37.745,#5D5075,Afro-Asiatic,East Cushitic,Greater Abyssinia
Bayungu [bxj],-23.3,113.7,#FA7BA4,Pama-Nyungan,Kanyara-Mantharta,S Australia
Bduul [ajp-6],30.33,35.44,#543E86,Afro-Asiatic,Arabic,Greater Mesopotamia
Beary [xxx-108],12.605,75.01,#B79473,Dravidian,South Dravidian,Indic
Bebeli [bek],-5.63,150.32,#878E50,Austronesian,North New Guinea,N Coast New Guinea
Bedamini [beo],-6.321,142.489,#7E8D37,Trans New Guinea,Bosavi,Interior New Guinea
Bedayuh [bth],1.01,110.51,#B4927F,Austronesian,Land Dayak,Southeast Asia-Island
Bedik [tnr],12.75,-12.467,#44C09C,Niger-Kongo,North-Central Atlantic,African Savannah
Bediondo [bjv],10.203,17,#42B67D,Nilo-Saharan,Sara-Bongo-Bagirmi,African Savannah
Befang [bby-2],6.28,10.04,#2E989E,Niger-Kongo,Grassfields,African Savannah
Begak [dbj],5.25,118.833,#A08D7F,Austronesian,North Borneo,Southeast Asia-Island
Beihai [yue-6],21.47,109.1,#37C0A5,Tibeto-Burman,Yue,Southeast Asia-mainland
Beihai_Baihua [yue-55],21.48,109.12,#3EB4A9,Tibeto-Burman,Yue,Southeast Asia-mainland
Beihai_Haibian [yue-59],21.52,109.66,#3EB3A0,Tibeto-Burman,Yue,Southeast Asia-mainland
Beihai_Lianzhou [yue-57],21.66,109.2,#43AEA4,Tibeto-Burman,Yue,Southeast Asia-mainland
Beihai_Tieshangang [yue-56],21.6,109.45,#3EB4A9,Tibeto-Burman,Yue,Southeast Asia-mainland
Beihai_Wa [yue-58],21.455,109.32,#3FB1A1,Tibeto-Burman,Yue,Southeast Asia-mainland
Beja [bej],18,36,#4D8F8F,Afro-Asiatic,North Cushitic,Greater Abyssinia
Bekati [bei],0.975,109.425,#9F8F4F,Austronesian,Land Dayak,Southeast Asia-Island
Beketan [bkn-3],1.3,114.9,#9F7D67,Austronesian,North Borneo,Southeast Asia-Island
Bekwarra [bkv],6.74,8.86,#64B19F,Niger-Kongo,Bendic,African Savannah
Bekwil [bkw],1.72,14.65,#4A9091,Niger-Kongo,Zone A90,African Savannah
Bela [bxd-2],24.33,98.4,#39AFA9,Tibeto-Burman,Burmish,Southeast Asia-mainland
Belait [beg],4.382,114.462,#B47F81,Austronesian,North Borneo,Southeast Asia-Island
Belanda Boor [bxb],6.5,28,#7BC7B0,Nilo-Saharan,Luo-Burun,African Savannah
Belarussian [bel],54,27,#555CBC,Indo-European,Slavic,Inner Asia
Belep [yly],-19.75,163.67,#C19990,Austronesian,Southern Oceanic,Oceania
Belhare [byw],27,87.25,#91828C,Tibeto-Burman,Eastern Kiranti,Indic
Beli [blm],6.75,29.75,#5FD1B2,Nilo-Saharan,Sara-Bongo-Bagirmi,African Savannah
Bella Coola [blc],52.5,-126.67,#4E1F92,Salish,Bella Coola,Alaska-Oregon
Bellona [mnv-2],-11.296,159.79,#77873C,Austronesian,Central Pacific,Oceania
Belneng [glb],9.15,9.51,#33BD9E,Afro-Asiatic,West Chadic,African Savannah
Bemal [bmh],-5.234,145.475,#7B814A,Trans New Guinea,Madang,N Coast New Guinea
Bemba [bem],-11,31,#3EB28B,Niger-Kongo,Zone M40,S Africa
Bembe [bmb],-4,14,#38B068,Niger-Kongo,Zone D50,S Africa
Ben Tey Dogon [dbt],14.78,-2.94,#6FC7A4,Dogon,Dogon,African Savannah
Bena [bez],-9.27,35.04,#52B684,Niger-Kongo,Zone G60,S Africa
Bena-Bena [bef],-6.114,145.567,#777D3A,Trans New Guinea,Goroka,Interior New Guinea
Bena-Yungur [yun],9.75,12.4,#3F9FAC,Niger-Kongo,Mbum-Day,African Savannah
Bench [bcq],7,35.75,#1F999E,Afro-Asiatic,Omotic,Greater Abyssinia
Bende [bdp],-6,30.5,#4ABE6B,Niger-Kongo,Zone F10,S Africa
Beng [nhb],7.83,-4.25,#4FC5A8,Mande,Eastern Mande,African Savannah
Benga [bng],1.2,9.5,#417874,Niger-Kongo,Zone A30,S Africa
Bengali [ben],22.5,90,#517C86,Indo-European,Indo-Iranian,Indic
Bengali_Barisal [ben-9],22.7,90.37,#537E5B,Indo-European,Indo-Iranian,Indic
Bengali_east [ben-6],24.4,90.28,#447E68,Indo-European,Indo-Iranian,Indic
Bengali_west [ben-7],23.4,89.45,#5D7C8C,Indo-European,Indo-Iranian,Indic
Bengni [adi-11],28.66,93.37,#6BB990,Tibeto-Burman,Macro-Tani,Indic
Benuaq [lbx-2],-1.6,115.51,#A78864,Austronesian,Barito,Southeast Asia-Island
Benyadu [byd-2],0.595,109.62,#A58F58,Austronesian,Land Dayak,Southeast Asia-Island
Beothuk [bue],48,-55,#8A7454,Beothuk,Beothuk,E North America
Bergamasco [ita-17],45.7,9.75,#5AAF7B,Indo-European,Romance,Europe
Bergensk [nno],60.39,5.33,#3BCB99,Indo-European,Germanic,Europe
Berik [bkl],-2.25,138.92,#6E4E96,Tor-Kwerba,Tor,N Coast New Guinea
Berlinerisch [deu-4],52.5,13.15,#3A9991,Indo-European,Germanic,Europe
Bernese [gsw-3],46.83,7.62,#498F95,Indo-European,Germanic,Europe
Berom [bom-2],9.67,8.81,#58B593,Niger-Kongo,Plateau,African Savannah
Berrichon [fra-17],47.08,2.38,#59B07F,Indo-European,Romance,Europe
Berta [wti],10.67,34.5,#419795,Nilo-Saharan,Berta,Greater Abyssinia
Berta_Beleje Gonfoye [wti-7],10.65,35.15,#469B9B,Nilo-Saharan,Berta,Greater Abyssinia
Berta_Fadashi [wti-5],9.75,34.73,#3C959F,Nilo-Saharan,Berta,Greater Abyssinia
Berta_Maiyu [wti-2],10.56,34.29,#3F959C,Nilo-Saharan,Berta,Greater Abyssinia
Berta_Metehara [wti-3],9.14,40,#3C959F,Nilo-Saharan,Berta,Greater Abyssinia
Berta_Undulu [wti-4],10.2,34.83,#3C959F,Nilo-Saharan,Berta,Greater Abyssinia
Berta_Wabosh [wti-6],8.9,38.65,#469B9B,Nilo-Saharan,Berta,Greater Abyssinia
Besemah [pse],-4.2,103,#B2827E,Austronesian,Malayic,Southeast Asia-Island
Beserrman [udm-2],58.02,52.15,#7482AA,Uralic,Permic,Inner Asia
Bésiro [cax-2],-16.6375,-61.9271,#7E8248,Arawak,Southern Maipuran,NE South America
Besoa [bep],-1.599,120.379,#789A61,Austronesian,Celebic,Southeast Asia-Island
Betawi [bew],-6.21,107.02,#A7A67F,Austronesian,Malayic,Southeast Asia-Island
Bete [byf],7.05,9.748,#65A462,Niger-Kongo,Jukkunoid,African Savannah
Betoi [xxx-121],7.22,-71.42,#7D7949,Betoi-Jirara,Betoi-Jirara,Andean
Betta Kurumba [xub],11.58,76.55,#C283A4,Dravidian,South Dravidian,Indic
Bewani [pgi],-3.024,141.167,#88923B,Trans New Guinea,Border,N Coast New Guinea
Bezhta [kap],42.133,46.128,#354897,Nakh-Daghestanian,Tsezic,Greater Mesopotamia
Bhadarwahi [cih-2],32.99,75.7,#807EB8,Indo-European,Indo-Iranian,Indic
Bhaderwahi [bhd-2],32.98,75.71,#5F82A4,Indo-European,Indo-Iranian,Indic
Bhaṭe-sa zib [xxx-109],34.94,72.88,#755FA8,Indo-European,Indo-Iranian,Indic
Bhatibari [ben-4],26.48,89.54,#997FA5,Indo-European,Indo-Iranian,Indic
Bhele [bhy-2],0.25,28.67,#47B575,Niger-Kongo,Zone S40,S Africa
Bhili [bhb],22,73,#8B77C2,Indo-European,Indo-Iranian,Indic
Bhili_Ahiri [bhb-7],26.135,77.32,#9477C2,Indo-European,Indo-Iranian,Indic
Bhili_Chodri [cdi],20.88,73.53,#9076B9,Indo-European,Indo-Iranian,Indic
Bhili_Dang [bhb-2],20.76,73.69,#887CC5,Indo-European,Indo-Iranian,Indic
Bhili_Dehawali [vas],21.36,73.87,#9876BC,Indo-European,Indo-Iranian,Indic
Bhili_Dhar [bhb-6],22.6,75.3,#A57EA0,Indo-European,Indo-Iranian,Indic
Bhili_Kotra [gra],23.1,77.49,#9A7AC2,Indo-European,Indo-Iranian,Indic
Bhili_Magri [bhb-4],23.2,74.45,#9084B0,Indo-European,Indo-Iranian,Indic
Bhili_Mahikantha [bhb-3],24.17,72.44,#9277C2,Indo-European,Indo-Iranian,Indic
Bhili_Mahikantha [bhb-8],23.83,72.5,#8681C4,Indo-European,Indo-Iranian,Indic
Bhili_Mawchi [mke],21.57,74,#9477C2,Indo-European,Indo-Iranian,Indic
Bhili_Panchali [bhb-11],20.5,76.15,#957AC0,Indo-European,Indo-Iranian,Indic
Bhili_Rajpipla [bhb-9],21.87,73.5,#8479BA,Indo-European,Indo-Iranian,Indic
Bhili_Rani [bhb-10],25.37,73.3,#9876BC,Indo-European,Indo-Iranian,Indic
Bhili_Ratlam [bhb-5],23.33,75.04,#AE809D,Indo-European,Indo-Iranian,Indic
Bhoi-Khasi [kha-5],25.9,91.88,#AF848E,Austroasiatic,Khasian,Indic
Bhojpuri [bho],26.8,85.3,#907ABE,Indo-European,Indo-Iranian,Indic
Bhojpuri_Nagpuria [bho-3],23.36,85.33,#927CBC,Indo-European,Indo-Iranian,Indic
Bhojpuri_Northern [bho-2],26.76,83.37,#927CBC,Indo-European,Indo-Iranian,Indic
Bhojpuri_Western [bho-4],25.32,83.01,#947BBD,Indo-European,Indo-Iranian,Indic
Bhumij [muw],21.333,86.5,#AD82B2,Austroasiatic,Munda,Indic
Biafada [bif],11.47,-15.13,#5FACB3,Niger-Kongo,North-Central Atlantic,African Savannah
Biage [bdf],-9.158,147.664,#79883C,Southeast Papuan,Koiarian,S New Guinea
Biak [bhw],-1.14,136,#838943,Austronesian,South Halmahera-West New Guinea,N Coast New Guinea
Biak-west [bhw-2],-0.835,135.59,#69AC4A,Austronesian,South Halmahera-West New Guinea,N Coast New Guinea
Biaka [axk-2],3.65,17.27,#4EA961,Niger-Kongo,Zone D50,S Africa
Biali [beh-2],11.03,1.09,#60A955,Niger-Kongo,Gur,African Savannah
Bian_Marind [bpv],-7.222,140.548,#47955C,Anim,Marind-Yaqay,S New Guinea
Biangai [big],-7.33,146.75,#9D8452,Trans New Guinea,Goilala,Interior New Guinea
Biao [byk-3],23.9,112.2,#40C7B7,Tai-Kadai,Biaoic,Southeast Asia-mainland
Biao_Chang'an [byk],29.48,113.46,#42D3AE,Tai-Kadai,Biaoic,Southeast Asia-mainland
Biao_Dagang [byk-2],23.81,112.135,#45C4BB,Tai-Kadai,Biaoic,Southeast Asia-mainland
Biao_Yonggu [byk],23.72,112.07,#41C4B4,Tai-Kadai,Biaoic,Southeast Asia-mainland
Biaomin Yao [bmt],23.6,111.75,#4ABBD0,Hmong-Mien,Mienic,Southeast Asia-mainland
Biatah [bth-2],1.264,110.32,#A0995E,Austronesian,Land Dayak,Southeast Asia-Island
Bidiya [bid],11.92,18.81,#70A09F,Afro-Asiatic,East Chadic,African Savannah
Bidjara [bym],-24.5,146.592,#EA8187,Pama-Nyungan,Greater Maric,S Australia
Bierebo [bnk],-16.667,168.131,#7A6F91,Austronesian,Southern Oceanic,Oceania
Bieria [brj],-16.807,168.194,#8C9154,Austronesian,Southern Oceanic,Oceania
Bifang [bby-3],6.28,10.03,#3A81CD,Niger-Kongo,Grassfields,African Savannah
Bih [rad],12.48,108.025,#78A7A9,Austronesian,Nuclear Chamic,Southeast Asia-mainland
Bijago [bjg],11.28,-15.83,#6CB99E,Niger-Kongo,Central Atlantic,African Savannah
Bijago_Orango [bjg-2],11.034,-16.146,#A7A689,Niger-Kongo,Central Atlantic,African Savannah
Bikele [biw-2],3.67,12.85,#51BE92,Niger-Kongo,Zone A90,African Savannah
Bikol [bcl],13.333,123.5,#A07D58,Austronesian,Philippines,Southeast Asia-Island
Bikol_Iriga [bcl-3],13.39,123.33,#B47E5B,Austronesian,Philippines,Southeast Asia-Island
Bikol_Naga [bcl-4],13.62,123.17,#A48458,Austronesian,Philippines,Southeast Asia-Island
Biksi [yet],-4.013,140.494,#99A062,Yetfa-Biksi,Yetfa-Biksi,Interior New Guinea
Bila [bip],1.17,28.76,#34C892,Niger-Kongo,Zone D30,S Africa
Bilba [bpz],-10.67,123.34,#968E4B,Austronesian,Southeast Maluku,Southeast Asia-Island
Bilbil [brz],-5.26,145.76,#AA8956,Austronesian,North New Guinea,N Coast New Guinea
Biliau [bcu-2],-5.65,146.3,#A08657,Austronesian,North New Guinea,N Coast New Guinea
Bilin [byn],15.9,38.3,#7881A6,Afro-Asiatic,Central Cushitic,Greater Abyssinia
Bilinara [nbj],-16,131.667,#F37A95,Pama-Nyungan,Ngumbin-Yapa,N Australia
Biloxi [bll],32.25,-90,#448B4D,Siouan,Ohio Valley Siouan,E North America
Bilua [blb],-7.75,156.667,#A0925F,Solomons East Papuan,Solomons East Papuan,Oceania
Bima [bhp],-8.545,118.677,#539272,Austronesian,Bima-Lembata,Southeast Asia-Island
Bima_Kolo [bhp-3],-8.32,118.76,#5B8170,Austronesian,Bima-Lembata,Southeast Asia-Island
Bimin [bhl],-5.43,141.942,#729E4C,Trans New Guinea,Ok,Interior New Guinea
Bimoba [bim],10.46,0.06,#61C1A0,Niger-Kongo,Gur,African Savannah
Bina [bmn],-10.249,149.683,#95843C,Austronesian,Papuan Tip,S New Guinea
Binandere [bhg],-8.167,147.917,#6D994B,Trans New Guinea,Binanderean,S New Guinea
Binbinga [wmb-2],-16.17,135,#F3779B,Mirndi,Ngurlun,N Australia
Bine [bon],-9.05,142.884,#A59D66,Eastern Trans Fly,Eastern Trans Fly,S New Guinea
Bini_Edo [bin],6.42,5.83,#32AE70,Niger-Kongo,Edoid,African Savannah
Bini-2 [bin-2],6.41,5.7,#48A579,Niger-Kongo,Edoid,African Savannah
Binigura [pnv],-22.488,116.506,#FA7DA2,Pama-Nyungan,Kanyara-Mantharta,S Australia
Bininj Gun-Wok [gup],-12.5,133.75,#E17CA2,Macro-Gunwinygu,Gunwingyuan proper,N Australia
Bintan Orang Laut [zlm-14],1.077,104.5,#93AE7B,Austronesian,Malayic,Southeast Asia-Island
Bintauna [bne],0.75,123.49,#7B8763,Austronesian,Philippines,Southeast Asia-Island
Bintulu [bny],3.83,113.67,#A08975,Austronesian,North Borneo,Southeast Asia-Island
Binukid [bkd],8.3,125,#A87A59,Austronesian,Philippines,Southeast Asia-Island
Binumarien [bjr],-6.25,146.08,#68AB4E,Trans New Guinea,Kainantu,N Coast New Guinea
Binyang [cmn-54],23.22,108.82,#3BBBA5,Tibeto-Burman,North Sinitic,Southeast Asia-mainland
Bipi [biq],-2.109,146.4,#9B8376,Austronesian,Admiralties,N Coast New Guinea
Bira [brf-2],1.6,30.13,#22BCA2,Niger-Kongo,Zone D30,S Africa
Bira [brf],1.5,30.03,#39A69F,Niger-Kongo,,S Africa
Birao [brr],-9.746,160.515,#91825E,Austronesian,Southeast Solomonic,Oceania
Birgid [btf],13,27,#52AE91,Afro-Asiatic,East Chadic,African Savannah
Biri [bvi],7.55,6.233,#51A6B8,Ubangian,Ubangian,African Savannah
Biri [bzr],-20.5,146.5,#F37E89,Pama-Nyungan,Greater Maric,S Australia
Birifor [biv],9.29,-2.73,#409EA1,Niger-Kongo,Gur,African Savannah
Biritai [bqq],-3,137.6,#4FBC25,Lakes Plains,Tariku,Interior New Guinea
Birom [bom],9.67,8.83,#36B06F,Niger-Kongo,Plateau,African Savannah
Birriya [xpa-2],-24.5,143.5,#F97CA1,Pama-Nyungan,Pirriya-Kungkari,S Australia
Bisa [bib],11.783,0.366,#6CC287,Mande,Eastern Mande,African Savannah
Bisayah_Sarawak [bsb],5.33,115.5,#9A9B6B,Austronesian,North Borneo,Southeast Asia-Island
Bishnupriya [bpy],24.8,93.12,#A7795A,Indo-European,Indo-Iranian,Indic
Bisiacco [vec-2],45.95,12.45,#679B87,Indo-European,Romance,Europe
Bissa [bib-2],10.43,-1.67,#79C074,Mande,Eastern Mande,African Savannah
Bisu [bii],19.75,100,#659DC3,Tibeto-Burman,Hani-Jino,Southeast Asia-mainland
Bitur [mcc],-8.52,142.71,#8A8644,Anim,Tirio,S New Guinea
Biya [mij-6],6.615,10.18,#3BC4B3,Niger-Kongo,Beboid,African Savannah
Biyo [byo],22.51,101.65,#33B88F,Tibeto-Burman,Southern Loloish,Southeast Asia-mainland
Bizkaian [eus-6],43.25,-2.98,#A85E7C,Basque,Basque,Europe
Bjokapakha [tsj-3],26.965,91.05,#7993C6,Tibeto-Burman,East Bodish,Indic
Bjokapakha-2 [tsj-4],26.965,91.045,#68A4A9,Tibeto-Burman,East Bodish,Indic
Blablanga [blp],-8.17,159.42,#8574A9,Austronesian,Meso-Melanesian,Oceania
Blablanga_Ghove [blp-2],-8.33,159.5,#7770B0,Austronesian,Meso-Melanesian,Oceania
Black Lahu [lhu-4],20.355,99.77,#2DB8B6,Tibeto-Burman,Central Loloish,Southeast Asia-mainland
Black Lahu_Huey Tat [lhu-6],19.29,99.01,#29B0AC,Tibeto-Burman,Central Loloish,Southeast Asia-mainland
Black Lahu_Menglangba [lhu-7],22.56,99.93,#28ACB4,Tibeto-Burman,Central Loloish,Southeast Asia-mainland
Black_Tai [blt-2],19.75,105,#2ABC9E,Tai-Kadai,Black Tai,Southeast Asia-mainland
Blackfoot [bla],50,-112.67,#8D6F3F,Algic,Algonquian,Basin and Plains
Blagar [beu],-8.33,124.25,#898F5A,Timor-Alor-Pantar,Alor,Southeast Asia-Island
Blang [blr],23.3,100,#54BBAC,Austroasiatic,Palaungic,Southeast Asia-mainland
Boano [bzl],0.51,120.99,#AA835D,Austronesian,Celebic,Southeast Asia-Island
Boano [bzn],-2.96,127.95,#878527,Austronesian,Central Maluku,Southeast Asia-Island
Boazi [kvg],-7,141.25,#42975A,Anim,Boazi,S New Guinea
Boazi_Kuni [kvg-2],-6.913,141.326,#3E9E5B,Anim,Boazi,S New Guinea
Bobangi [bni],-0.1,17.7,#3DA76A,Niger-Kongo,Zone C30,S Africa
Bobangi-2 [bni-3],0.05,17.75,#44CB85,Niger-Kongo,Zone C30,S Africa
Bobo_Madare_North [bbo-2],12.42,-4.48,#77C197,Mande,Western Mande,African Savannah
Bobo_Madare_South [bwq],11.54,-4.26,#5BC471,Mande,Western Mande,African Savannah
Bobo_Tansila [bbo-3],12.43,-4.38,#56B4A2,Mande,Western Mande,African Savannah
Bobo-Fing [bbo],11.83,-4.42,#49CD9D,Mande,Western Mande,African Savannah
Bobongko [bgb],-0.5,121.75,#AC8763,Austronesian,Celebic,Southeast Asia-Island
Bobot [bty],-3.33,130.17,#838341,Austronesian,Central Maluku,Southeast Asia-Island
Bocota [sab],9.34,-82.24,#84B655,Chibchan,Isthmic Chibchan,Mesoamerica
Bogaya [boq],-5.621,142.231,#71864B,Trans New Guinea,Duna-Bogaya,Interior New Guinea
Bohemian [ces-3],50,13,#694D8D,Indo-European,Slavic,Europe
Boholano [ceb-2],9.9,124.2,#BB6D69,Austronesian,Philippines,Southeast Asia-Island
Bohutu [bxh],-10.5,150.33,#594B71,Austronesian,Papuan Tip,S New Guinea
Boiken [bzf],-3.525,143.415,#758857,Ndu,Boiken,N Coast New Guinea
Bokala [lin-2],4.57,19.02,#39C78E,Niger-Kongo,Zone C30,S Africa
Bokar [adi-2],29,94.35,#8CB986,Tibeto-Burman,Macro-Tani,Indic
Boko [bkp],10.52,3.72,#3CA763,Mande,Eastern Mande,African Savannah
Bokyi [bky],6.1,9.06,#44B6A1,Niger-Kongo,Bendic,African Savannah
Bola [bnp],-5.5,150,#A78D50,Austronesian,Meso-Melanesian,N Coast New Guinea
Bola [bxd-3],24.45,98.6,#34B5A3,Tibeto-Burman,Burmish,Southeast Asia-mainland
Bolaang-Mongondow [mog],0.55,124,#AE8565,Austronesian,Philippines,Southeast Asia-Island
Bolano [bzl-2],0.52,121,#B58768,Austronesian,Celebic,Southeast Asia-Island
Bole [bol],11.007,10.747,#399F97,Afro-Asiatic,West Chadic,African Savannah
Bolgo [bvo-2],10.9,18.81,#5BCB88,Niger-Kongo,Mbum-Day,African Savannah
Bolgo_Dugag [bvo],10.79,18.61,#70CE84,Niger-Kongo,Mbum-Day,African Savannah
Bolinao [smk],16.341,119.893,#A78955,Austronesian,Philippines,Southeast Asia-Island
Bologna [ita-4],44.51,11.35,#6BA18E,Indo-European,Romance,Europe
Boloki [bkt],0.7,18.3,#37C88A,Niger-Kongo,Zone C30,S Africa
Bolongo [lol-24],-2.2,20.7,#3DC49D,Niger-Kongo,Zone C30,S Africa
Bolyu [ply],24.78,105.35,#37ABB8,Austroasiatic,Mangic,Southeast Asia-mainland
Bom [bmf],9.28,-11.6,#5CA18D,Niger-Kongo,Mel,African Savannah
Boma [boh],2.5,15.6,#3AAEA1,Niger-Kongo,Zone B80,African Savannah
Bomitaba [zmx],1.701,17.371,#37B180,Niger-Kongo,Zone D50,S Africa
Bomitaba-2 [zmx-2],1.7,17.37,#4DA44E,Niger-Kongo,Zone D50,S Africa
Bonan [peh-6],35.7,103,#5D74AC,Mongolic,Mongolic,Inner Asia
Bonda [bfw-2],19,82.75,#C97D8E,Austroasiatic,Munda,Indic
Bondei [bou],-5.082,38.432,#6B825B,Niger-Kongo,Zone G20,S Africa
Bonerate [bna],-7.38,121.79,#6F8C56,Austronesian,Celebic,Southeast Asia-Island
Bongaigaon [asm-4],26.48,90.56,#62BB81,Indo-European,Indo-Iranian,Indic
Bonggi [bdg],7.3,117.2,#979655,Austronesian,North Borneo,Southeast Asia-Island
Bonggo [bpg],-2.28,139.6,#928D49,Austronesian,North New Guinea,N Coast New Guinea
Bongili [bui-2],0.37,16.61,#54A865,Niger-Kongo,Zone D50,S Africa
Bongili [bui],1.61,16.05,#68BF6A,Niger-Kongo,Zone D50,S Africa
Bongo [bot],7.5,28,#50BB9C,Nilo-Saharan,Sara-Bongo-Bagirmi,African Savannah
Boni [bob],0.5,43,#736890,Afro-Asiatic,East Cushitic,Greater Abyssinia
Bonifacino [lij-3],41.39,9.16,#4C889A,Indo-European,Romance,Europe
Bontoc_Guinaang [bnc-2],17.08,120.9,#AB8355,Austronesian,Northern Luzon,Southeast Asia-Island
Bontok [bnc],17.083,120.917,#AA8452,Austronesian,Northern Luzon,Southeast Asia-Island
Bor [bvf],5.605,27.472,#ACA1A8,Afro-Asiatic,East Chadic,African Savannah
Bora [boa],-2.25,-71.75,#6C7154,Boran,Bora,NE South America
Bori [adi-5],28.2,94.6,#89BD7B,Tibeto-Burman,Macro-Tani,Indic
Bormiese [ita-16],46.47,10.375,#469C8C,Indo-European,Romance,Europe
Bornholmsk [scy],55,15,#429C74,Indo-European,Germanic,Europe
Boro [brx],26.75,92,#61CA79,Tibeto-Burman,Bodo-Garo,Indic
Boro-Shinasha [bwo],10.66,35.34,#68B966,Afro-Asiatic,North Omotic,Greater Abyssinia
Borong Kosorong [ksr],-6.534,147.502,#9E915E,Trans New Guinea,Finisterre-Huon,N Coast New Guinea
Boróro [bor],-15,-52,#988C47,Macro-Je,Bororo,NE South America
Bororo-2 [bor-2],-16.6,-55.2,#9F8D4A,Macro-Je,Bororo,NE South America
Boruca [brn],9.001,-83.325,#56A581,Chibchan,Isthmic Chibchan,Mesoamerica
Bosaka-Nkole [lol-17],-0.8,22.25,#4FCC89,Niger-Kongo,Zone C30,S Africa
Bosanga [lol-21],-0.25,20.5,#4ACA91,Niger-Kongo,Zone C30,S Africa
Bosavi [bco-2],-6.425,142.765,#768B47,Trans New Guinea,Bosavi,Interior New Guinea
Bosnian [bos],44,18,#635794,Indo-European,Slavic,Europe
Botin_Samban [kbx-2],-4.33,144.17,#938955,ApMa,ApMa,N Coast New Guinea
Botlikh [bph],42.66,46.22,#41428B,Nakh-Daghestanian,Avar-Andi,Greater Mesopotamia
Bourbonnais [fra-11],46.57,3.33,#5DB47B,Indo-European,Romance,Europe
Bouyei [pcc-5],25.817,107.55,#45ACC1,Tai-Kadai,Northern Tai,Southeast Asia-mainland
Bouyei_Changshun Duncao [pcc-9],25.9,106.5,#42B0C7,Tai-Kadai,Northern Tai,Southeast Asia-mainland
Bouyei_Dushan Huanghou [pcc-11],25.4,107.6,#43BAC7,Tai-Kadai,Northern Tai,Southeast Asia-mainland
Bouyei_Guiding Houchang [pcc-13],26.4,107,#3DBCC5,Tai-Kadai,Northern Tai,Southeast Asia-mainland
Bouyei_Huishui Yashui [pcc-12],26,106.9,#42BCC5,Tai-Kadai,Northern Tai,Southeast Asia-mainland
Bouyei_Libo Fucun [pcc-10],25.3,108,#43BEBC,Tai-Kadai,Northern Tai,Southeast Asia-mainland
Bouyei_Luodian Bamao [pcc-8],25.3,106.95,#42B6C8,Tai-Kadai,Northern Tai,Southeast Asia-mainland
Bouyei_Luodian Luokun [pcc-7],25.25,106.7,#3FB7BE,Tai-Kadai,Northern Tai,Southeast Asia-mainland
Bouyei_Pingtang Sizhai [pcc-14],25.65,107.4,#43BEC7,Tai-Kadai,Northern Tai,Southeast Asia-mainland
Bouyei_Sandu Zhouqin [pcc-15],25.7,107.9,#3DB0C6,Tai-Kadai,Northern Tai,Southeast Asia-mainland
Bouyei_west [pcc-2],25.75,107.333,#54B5C6,Tai-Kadai,Northern Tai,Southeast Asia-mainland
Boyela [yel],-2.46,22.59,#48B15D,Niger-Kongo,Zone C80,S Africa
Boze [jer-2],10.2,8.96,#3AC7B2,Niger-Kongo,Kainji,African Savannah
Brabants [nld-3],50.75,4.65,#56A667,Indo-European,Germanic,Europe
Brag-g.yab [khg-2],30.65,97.55,#7295C2,Tibeto-Burman,Tibetan,Inner Asia
Brahui (Jahlawān) [brh-4],25.81,66.49,#694F6C,Dravidian,North Dravidian,Indic
Brahui [brh],29,67,#9D509D,Dravidian,North Dravidian,Indic
Brahui_Jahlawan [brh-3],25.79,66.51,#624E6E,Dravidian,North Dravidian,Indic
Brahui_Sarawan [brh-2],29,66.6,#5F526B,Dravidian,North Dravidian,Indic
Brajbhasha [bra],27.49,77.67,#807ABA,Indo-European,Indo-Iranian,Indic
Brao [brb],14,107.001,#6F91C0,Austroasiatic,Bahnaric,Southeast Asia-mainland
Brao_Krung [brb-2],13.8,107,#8A86B4,Austroasiatic,Bahnaric,Southeast Asia-mainland
Breton [bre],47.65,-2.75,#4687A1,Indo-European,Brythonic,Europe
Breton_Grand Lorient [bre-6],47.75,-3.36,#5C88C1,Indo-European,Brythonic,Europe
Breton_Kerneveg [bre-2],48,-4.1,#44839F,Indo-European,Brythonic,Europe
Breton_Leoneg [bre-3],48.6,-4.3,#4680A1,Indo-European,Brythonic,Europe
Breton_Plozevet [bre-5],47.99,-4.42,#688BAF,Indo-European,Brythonic,Europe
Breton_Tregiereg [bre-4],48.5,-3.125,#44839F,Indo-European,Brythonic,Europe
Bribri [bzd],9.5,-83,#42AD94,Chibchan,Isthmic Chibchan,Mesoamerica
Brinken [zmd],-14.05,130.08,#F17D8D,Western Daly,Western Daly,N Australia
Brokpa [sgt],27.33,92,#589EAA,Tibeto-Burman,Tibetan,Indic
Brønnøy [nob-8],65.48,12.4,#69AC9F,Indo-European,Germanic,Europe
Bru_Khok Sa-at [brv],17.25,103.75,#58AAA8,Austroasiatic,Katuic,Southeast Asia-mainland
Bru_Western [brv-2],16.75,104.75,#6CA69E,Austroasiatic,Katuic,Southeast Asia-mainland
Brugge [vls-3],51.22,3.23,#51A475,Indo-European,Germanic,Europe
Bruu [bru],17.167,104.333,#45C2A5,Austroasiatic,Katuic,Southeast Asia-mainland
Bu [jid],9.05,8.66,#2FC08C,Niger-Kongo,Plateau,African Savannah
Buamu [box],11.17,-3.5,#58B06C,Niger-Kongo,Gur,African Savannah
Buang_Central [bzh],-6.855,146.774,#716DA0,Austronesian,North New Guinea,Interior New Guinea
Bube [bvb],3.5,8.7,#32A989,Niger-Kongo,Mbam-Bubi-Jarawan,S Africa
Bubia [bbx-2],4.02,9.22,#43B486,Niger-Kongo,Zone A20,African Savannah
Budong-bundong [bdx],-2.171,119.328,#9A8551,Austronesian,Greater South Sulawesi,Southeast Asia-Island
Budu [buu],2.01,27.95,#24B3AC,Niger-Kongo,Zone D30,S Africa
Budu-2 [buu-3],2.011,27.949,#26B999,Niger-Kongo,Zone D30,S Africa
Buduma [bdm],13.6,14,#4AB07C,Afro-Asiatic,Biu-Mandara,African Savannah
Budux [bdk],41.19,48.37,#354F9B,Nakh-Daghestanian,Lezgic,Greater Mesopotamia
Bugan [bbh],23.75,105,#2CAEC4,Austroasiatic,Mangic,Southeast Asia-mainland
Bugan_Nala [bbh-2],23.487,105.15,#2BAEC3,Austroasiatic,Mangic,Southeast Asia-mainland
Bughotu [bgt],-8.478,159.808,#8A7F5A,Austronesian,Southeast Solomonic,Oceania
Bugis [bug],-4,120,#B1936D,Austronesian,Greater South Sulawesi,Southeast Asia-Island
Bugun [bgn],27.3,92.35,#4A9EA2,Tibeto-Burman,Kho-Bwa,Indic
Buhid [bku],12.574,121.25,#A98657,Austronesian,Philippines,Southeast Asia-Island
Buin [buo],-6.75,155.833,#99AA45,South Bougainville,Buin,Oceania
Buja-Yambuli [bja-2],2.5,22.5,#35BE80,Niger-Kongo,Zone C30,S Africa
Bukar_Sadong [sdo],0.97,110.66,#83A088,Austronesian,Land Dayak,Southeast Asia-Island
Bukat [bvk],1.29,113.25,#B78167,Austronesian,North Borneo,Southeast Asia-Island
Bukawa [buk],-6.732,147.359,#59A258,Austronesian,North New Guinea,N Coast New Guinea
Buket [bvk-2],0.8,112.6,#9B8F53,Austronesian,North Borneo,Southeast Asia-Island
Bukhari [bhh-2],39.79,64.45,#57645D,Indo-European,Indo-Iranian,Inner Asia
Bukit [bvu],-2.75,115.64,#C98472,Austronesian,Malayic,Southeast Asia-Island
Bukitan [bkn],2.35,114.89,#B28665,Austronesian,North Borneo,Southeast Asia-Island
Bukiyip_Arapesh [ape],-3.667,142.5,#88A368,Torricelli,Kombio-Arapesh,N Coast New Guinea
Bukusu [bxk],1.02,35,#9B8757,Niger-Kongo,Zone E30,S Africa
Bularnu [yil],-21.5,137.5,#EE7EAD,Pama-Nyungan,Warluwaric,S Australia
Bulgarian [bul],43,25,#485F75,Indo-European,Slavic,Europe
Bulgarian_Banat [bul-6],45.7,20.9,#487687,Indo-European,Slavic,Europe
Bulgarian_Boboshevo [bul-4],42.15,23,#535671,Indo-European,Slavic,Europe
Bulgarian_Erkech [bul-5],42.84,27.58,#515A6F,Indo-European,Slavic,Europe
Bulgarian_Gabare [bul-8],43.316,21.92,#545875,Indo-European,Slavic,Europe
Bulgarian_Lovec [bul-9],43.14,24.71,#4F6076,Indo-European,Slavic,Europe
Bulgarian_Moesian [bul-3],42.7,27.75,#647EA3,Indo-European,Slavic,Europe
Bulgarian_Momchilovci [bul-10],41.66,24.77,#4C616E,Indo-European,Slavic,Europe
Bulgarian_North-west [bul-7],43.6,23.18,#466175,Indo-European,Slavic,Europe
Bulgarian_Nova Nadezda [bul-11],42.02,25.72,#5A5573,Indo-European,Slavic,Europe
Buli [bzq],0.833,128.5,#A28966,Austronesian,South Halmahera-West New Guinea,Southeast Asia-Island
Bulu [bjl],-5.06,150.1,#8E8B49,Austronesian,Meso-Melanesian,N Coast New Guinea
Bulu [bum],2.917,11.15,#33A98B,Niger-Kongo,Zone A70,African Savannah
Bulungan [bdb-2],0.89,117.58,#B2946A,Austronesian,Basap,Southeast Asia-Island
Bulusu [bqr],3,116,#AF8C61,Austronesian,North Borneo,Southeast Asia-Island
Bum [bmv],6.49,10.42,#37AB7F,Niger-Kongo,Grassfields,African Savannah
Buma [tkw-2],-11.615,166.966,#B78486,Austronesian,Te Motu,Oceania
Buma [yns-2],-3.33,17.5,#43A9AD,Niger-Kongo,Zone H30,S Africa
Bumang [bvp],22.5,96.5,#2EC2B3,Austroasiatic,Palaungic,Southeast Asia-mainland
Bumbita_Arapesh [aon],-3.667,142.833,#91815D,Torricelli,Kombio-Arapesh,N Coast New Guinea
Bumthang [kjz],27.802,90.8,#6DA4BF,Tibeto-Burman,East Bodish,Indic
Bumthang_Ura [kjz-2],27.48,90.905,#3DD3DD,Tibeto-Burman,East Bodish,Indic
Bunama [bdd],-10.064,151.075,#946E5C,Austronesian,Papuan Tip,S New Guinea
Bunan [bfu],32.61,76.91,#529DB8,Tibeto-Burman,Western Himalayan,Indic
Bunaq [bfn],-9.1,125.15,#53965A,Timor-Alor-Pantar,Bunaq,Southeast Asia-Island
Bunaq_Lolotoen [bfn-2],-9.161,125.26,#519559,Timor-Alor-Pantar,Bunaq,Southeast Asia-Island
Bunaq_South [bfn-3],-9.227,125.393,#58905A,Timor-Alor-Pantar,Bunaq,Southeast Asia-Island
Bundeli [bns],23.18,79.95,#9C7CC2,Indo-European,Indo-Iranian,Indic
Bunganditj [xbg],-36.5,141,#F97BA4,Pama-Nyungan,Kulinic,S Australia
Bungku [bkz],-3,122.33,#7A945A,Austronesian,Celebic,Southeast Asia-Island
Bungku_Tulambatu [bkz-2],-3.17,122.12,#6D905C,Austronesian,Celebic,Southeast Asia-Island
Bungu [wun],-8.33,32.88,#2DC5AA,Niger-Kongo,Zone F20,S Africa
Bunoge Dogon [dgb],14.43,-3.49,#6DD09C,Dogon,Dogon,African Savannah
Bunong [cmo],12.63,107.3,#6F95B5,Austroasiatic,Bahnaric,Southeast Asia-mainland
Bunu [buh],25.5,108.7,#36B4E0,Hmong-Mien,Hmongic,Southeast Asia-mainland
Bunu_Dahua [buh-4],23.74,107.99,#23B9F8,Hmong-Mien,Hmongic,Southeast Asia-mainland
Bunu_Dongnu [bwx],23.88,108.08,#29B5F0,Hmong-Mien,Hmongic,Southeast Asia-mainland
Bunu_Nunu [bwx-2],23.799,110.178,#33B7CC,Hmong-Mien,Hmongic,Southeast Asia-mainland
Bunuba [bck],-17.75,125.75,#F880A3,Bunuban,Bunuban,N Australia
Bunun [bnn],23.5,121,#8D764B,Austronesian,Bunun,Southeast Asia-Island
Bunun_Isbukun [bnn-2],23.459,121.056,#805C65,Austronesian,Bunun,Southeast Asia-Island
Buol [blf],1,121.5,#8F8750,Austronesian,Philippines,Southeast Asia-Island
Bura [bwr],10.611,12.195,#3780AC,Afro-Asiatic,Biu-Mandara,African Savannah
Burak [bys],9.49,11.07,#3AC2B1,Niger-Kongo,Mbum-Day,African Savannah
Burarra [bvr],-12.25,134.667,#E483A2,Macro-Gunwinygu,Burarra,N Australia
Burji [bji],5.5,37.9,#645F69,Afro-Asiatic,East Cushitic,Greater Abyssinia
Burmbar [vrt],-16.372,167.749,#7D9953,Austronesian,Southern Oceanic,Oceania
Burmese [mya],20,96,#49B5D6,Tibeto-Burman,Burmish,Southeast Asia-mainland
Burmese_Arakan [rki],20.14,92.9,#4DACD0,Tibeto-Burman,Burmish,Indic
Burmese_Intha [int],20.55,96.92,#4EB2C1,Tibeto-Burman,Burmish,Southeast Asia-mainland
Burmese_Myeik [tvn],12.43,98.6,#35B4B1,Tibeto-Burman,Burmish,Southeast Asia-mainland
Burmese_Palaw [tvn-3],13.12,98.68,#3FB4B1,Tibeto-Burman,Burmish,Southeast Asia-mainland
Burmese_Tavoyan [tvn-2],14.08,98.2,#43B5DE,Tibeto-Burman,Burmish,Southeast Asia-mainland
Burmeso [bzu],-2.447,138.209,#797844,Burmeso,Burmeso,Interior New Guinea
Buru [mhs],-3.7,126.4,#A3875E,Austronesian,Central Maluku,Southeast Asia-Island
Burum [bmu],-6.484,147.311,#B0746E,Trans New Guinea,Finisterre-Huon,N Coast New Guinea
Burum_Mindik [bmu-3],-6.47,147.44,#7B5E68,Trans New Guinea,Finisterre-Huon,N Coast New Guinea
Burun [bdi-2],10.8,33.8,#AABD94,Nilo-Saharan,Luo-Burun,African Savannah
Burushaski [bsk],36.5,74.5,#606FB7,Burushaski,Burushaski,Indic
Burushaski_eastern [bsk-2],36.32,74.65,#5389C0,Burushaski,Burushaski,Indic
Burushaski_Hunza [bsk-3],36.33,74.64,#7067B5,Burushaski,Burushaski,Indic
Burushaski_Jammu-Kashmir [bsk-4],34.11,74.82,#6E79BE,Burushaski,Burushaski,Indic
Buruwai [asi-2],-3.55,133.33,#898644,Trans New Guinea,Asmat-Kamoro,N Coast New Guinea
Buryat [bxm],52,108,#758653,Mongolic,Mongolic,Inner Asia
Busa [bqp],9.67,4,#249E71,Mande,Eastern Mande,African Savannah
Busa-2 [bqp-2],9.91,4.4,#47AC52,Mande,Eastern Mande,African Savannah
Busami [bsm],-1.8,135.95,#938B41,Austronesian,South Halmahera-West New Guinea,N Coast New Guinea
Bushong [buf],-4.67,21.3,#4DCA9F,Niger-Kongo,Zone C80,S Africa
Busoa [bup],-5.62,122.616,#508E78,Austronesian,Celebic,Southeast Asia-Island
Bussa [dox-2],5.76,37.19,#6D6C57,Afro-Asiatic,East Cushitic,Greater Abyssinia
Butmas_Tur [bnr],-15.376,167.028,#A4915C,Austronesian,Southern Oceanic,Oceania
Butuanon [btw],8.87,125.42,#B0725B,Austronesian,Barito,Southeast Asia-Island
Buwal [bhs],10.5,13.86,#4074BC,Afro-Asiatic,Biu-Mandara,African Savannah
Buxing [bgk-2],21.48,101.57,#4B9EA8,Austroasiatic,Palaungic,Southeast Asia-mainland
Buyang [yha],24,104.8,#3FA6DA,Tai-Kadai,Kadaic,Southeast Asia-mainland
Buyi_Hezhang [pcc-3],27.12,104.73,#33B4C5,Tai-Kadai,Northern Tai,Southeast Asia-mainland
Buyuan_Jino [jiy],22.05,101,#38CAAE,Tibeto-Burman,Hani-Jino,Southeast Asia-mainland
Bwaidoka [bwd],-9.479,150.311,#807652,Austronesian,Papuan Tip,S New Guinea
Bwala [xxx-123],-4.45,16.2,#2EA2A3,Niger-Kongo,Zone B70,S Africa
Bwamu Laa [bwj],11.65,-3.18,#42A97F,Niger-Kongo,Gur,African Savannah
Byali [beh],11.04,1.08,#71BC87,Niger-Kongo,Gur,African Savannah
Byambe [lol-6],-0.27,21.6,#63D87F,Niger-Kongo,Zone C30,S Africa
Byansi [bee],30.17,80.5,#73A1C1,Tibeto-Burman,Western Himalayan,Indic
C'lela [dri],11.47,5.27,#4166C7,Niger-Kongo,Kainji,African Savannah
Caac [msq],-20.42,164.42,#9A87C2,Austronesian,Southern Oceanic,Oceania
Cabecar [cjp],9.91,-83.68,#51C09B,Chibchan,Isthmic Chibchan,Mesoamerica
Cabiyarí [cbb],-0.1302,-70.6927,#9B7B44,Arawak,Northern Maipuran,NE South America
Cacaopera [ccr],13.74,-88.11,#9E7648,Misumalpan,Misumalpan,Mesoamerica
Caddo [cad],33.33,-93.5,#42805C,Caddoan,Caddo,Basin and Plains
Cadorino [ita-21],46.445,12.39,#58A276,Indo-European,Romance,Europe
Cagayano [cgc-2],10.47,119.87,#A67957,Austronesian,Philippines,Southeast Asia-Island
Cagliaritano [ita-55],39.225,9.15,#4C9486,Indo-European,Romance,Europe
Cahita [opt-2],27.9,-109,#618B59,Uto-Aztecan,Cahitan,Mesoamerica
Cahuilla [chl],33.75,-117.75,#8A4595,Uto-Aztecan,North Uto-Aztecan,California
Caijia_Niujiaojing [xxx-53],27.067,104.297,#35A5CA,Tibeto-Burman,Caijia,Southeast Asia-mainland
Caijia_Xingfa [xxx-47],26.934,104.863,#37AFB9,Tibeto-Burman,Caijia,Southeast Asia-mainland
Cak [ckh],21.41,92.6,#4FA2A4,Tibeto-Burman,Jingpho-Luish,Indic
Cakchiquel [ckf],14.5,-91,#594D74,Mayan,Core Mayan,Mesoamerica
Calabrian [scn-4],38.148,16.18,#4E84AB,Indo-European,Romance,Europe
Calabrian-2 [scn-3],38.92,16.6,#6180A5,Indo-European,Romance,Europe
Callahuaya [caw],-15,-69,#8E4C93,Puquina,Puquina,Andean
Calusa [xxx-107],27.76,-82.55,#A37A5C,Tunica,Tunica,E North America
Camling [rab],27.3,86.8,#6E87B3,Tibeto-Burman,Central Kiranti,Indic
Campa [cni],-12,-74,#8C6B51,Arawak,Southern Maipuran,Andean
Campalagian [cml],-4.02,119.62,#BB8E72,Austronesian,Greater South Sulawesi,Southeast Asia-Island
Campobassano [ita-45],41.6,14.66,#5F9694,Indo-European,Romance,Europe
Camsá [kbh],1,-77,#3E8D7A,Camsá,Camsá,Andean
Camuno [lmo-7],45.943,10.28,#5AAD7E,Indo-European,Romance,Europe
Canamari [knm-2],-6.46,-68.78,#AE8A54,Katukinan,Katukinan,NE South America
Candoshi [cbu],-4.17,-77,#6B5D5C,Candoshi,Candoshi,Andean
Canela-Krahô [ram],-6.5,-45,#8BA65F,Macro-Je,Je,NE South America
Canichana [caz],-14.31,-64.94,#7E724C,Canichana-Tequiraca,Canichana-Tequiraca,NE South America
Cantabrian_East [spa-7],43.3,-3.9,#8F9563,Indo-European,Romance,Europe
Cantabrian_West [spa-8],43.3,-4.1,#909961,Indo-European,Romance,Europe
Cantonese [yue],22.333,114,#40B7A9,Tibeto-Burman,Yue,Southeast Asia-mainland
Cantonese_Bin'an_賓安 [yue-67],23.025,113.99,#39C2A9,Tibeto-Burman,Yue,Southeast Asia-mainland
Cantonese_Bin'an_賓安沙井_Shajing [yue-7],22.7,113.83,#40C5A9,Tibeto-Burman,Yue,Southeast Asia-mainland
Cantonese_Conghua-city-從化城内 [yue-60],23.55,113.6,#42CAA3,Tibeto-Burman,Yue,Southeast Asia-mainland
Cantonese_Conghua-Lütian_從化呂田 [yue-70],23.8,113.95,#32C799,Tibeto-Burman,Yue,Southeast Asia-mainland
Cantonese_Doumen_1_斗門 [yue-11],22.2,113.3,#42CDAF,Tibeto-Burman,Yue,Southeast Asia-mainland
Cantonese_Foshan_佛山 [yue-62],23.02,113.12,#41CDAB,Tibeto-Burman,Yue,Southeast Asia-mainland
Cantonese_Gaoming_高明 [yue-65],22.9,112.89,#44CFAB,Tibeto-Burman,Yue,Southeast Asia-mainland
Cantonese_Guangzhou_Xinjie_Kam Tim_新界錦田 [yue-71],22.44,114.065,#44CEAD,Tibeto-Burman,Yue,Southeast Asia-mainland
Cantonese_Huaxian_花縣 [yue-74],23.49,113.33,#3ECBAD,Tibeto-Burman,Yue,Southeast Asia-mainland
Cantonese_Jiangmen_江門 [yue-66],22.58,113.08,#49C4A7,Tibeto-Burman,Yue,Southeast Asia-mainland
Cantonese_Macau_ 澳門 [yue-72],22.15,113.56,#37CC92,Tibeto-Burman,Yue,Southeast Asia-mainland
Cantonese_Nanning [yue-15],22.817,108.317,#33B6A6,Tibeto-Burman,Yue,Southeast Asia-mainland
Cantonese_Panyu_番禺 [yue-73],22.94,113.38,#32CE9B,Tibeto-Burman,Yue,Southeast Asia-mainland
Cantonese_Sanshui_三水 [yue-64],23.16,112.9,#41CCA5,Tibeto-Burman,Yue,Southeast Asia-mainland
Cantonese_Shunde_順德 [yue-63],22.8,113.25,#43CDB3,Tibeto-Burman,Yue,Southeast Asia-mainland
Cantonese_Zengcheng_增城 [yue-61],23.29,113.83,#43C8A4,Tibeto-Burman,Yue,Southeast Asia-mainland
Cantonese_Zhongshan-Longdu_中山隆都 [yue-26],22.5,113.3,#45C6A1,Tibeto-Burman,Yue,Southeast Asia-mainland
Cantonese_Zhongshan-Nanlang-Heshui中山南良合水 [yue-8],22.4,113.5,#3CC5A2,Tibeto-Burman,Yue,Southeast Asia-mainland
Cantonese_Zhuhai_珠海 [yue-12],22.27,113.58,#45C8A0,Tibeto-Burman,Yue,Southeast Asia-mainland
Cantonese_東萖-清溪_Dongguan-Qingxi [yue-68],22.8,114.13,#34C095,Tibeto-Burman,Yue,Southeast Asia-mainland
Cantonese_東萖萖城_Dongguan-city [yue-10],23.02,113.75,#42CFAD,Tibeto-Burman,Yue,Southeast Asia-mainland
Cantonese_深圳沙頭角_Shenzhen_Shatoujie [yue-69],22.6,114.2,#34C095,Tibeto-Burman,Yue,Southeast Asia-mainland
Canzés [lmo-6],45.85,9.27,#55A29A,Indo-European,Romance,Europe
Cao Bang [zyg-2],23.18,105.41,#3FC1BD,Tai-Kadai,Daic,Southeast Asia-mainland
Caodeng_rGyalrong [jya-4],32.2,101.8,#3D94BF,Tibeto-Burman,Qiangic,Inner Asia
Capanahua [kaq],-7,-74,#558458,Panoan,Pano Nawa,NE South America
Cappadocian [cpg],38.66,34.85,#6975B2,Indo-European,Graeco-Phrygian,Greater Mesopotamia
Caquinte [cot],-11.7092,-73.9252,#9D6967,Arawak,Southern Maipuran,Andean
Car [caq],9.167,92.75,#A3A17B,Austroasiatic,Nicobar,Southeast Asia-mainland
Cara [cfd],10.13,8.75,#4CAC9F,Niger-Kongo,Plateau,African Savannah
Carapana [cbc],0.45,-71,#629635,Tucanoan,East Tucanoan,NE South America
Carib [car],7.85,-59,#789152,Cariban,Guianan Carib,NE South America
Carib_Suriname [crb-2],5.7,-55.932,#9A8D41,Arawak,Northern Maipuran,NE South America
Carib_Venezuela [crb-3],7.969,-65.67,#9D8A41,Arawak,Northern Maipuran,NE South America
Carijona [cbd],0.148,-70.708,#858C47,Cariban,Guianan Carib,NE South America
Carolinian [cal],15,146,#7581A3,Austronesian,Micronesian,Oceania
Carrarese [ita-29],44.08,10.1,#659E97,Indo-European,Romance,Europe
Cashibo-Cacataibo [cbr],-9.1,-75.5,#5A8552,Panoan,Cashibo-Cacataibo,NE South America
Cashinahua [cbs],-10.5,-71.75,#478852,Panoan,Pano Nawa,NE South America
Castagniers [frp-4],43.79,7.23,#5CA47B,Indo-European,Romance,Europe
Castellanese [sdc-2],40.913,8.71,#708CA4,Indo-European,Romance,Europe
Catalan [cat],41.4,2.02,#7D94A9,Indo-European,Romance,Europe
Catalan_Northern [cat-6],42.7,2.9,#8A8BA9,Indo-European,Romance,Europe
Catalan_Northwestern [cat-5],42.5,1.5,#888BA9,Indo-European,Romance,Europe
Catanese [ita-52],37.5,15.1,#67879A,Indo-European,Romance,Europe
Catanzarese [ita-51],38.9,16.6,#7787A0,Indo-European,Romance,Europe
Catawba [chc],34,-81,#767349,Siouan,Siouan,E North America
Cauho [pho-6],21.4,102,#42C2BE,Tibeto-Burman,Hani-Jino,Southeast Asia-mainland
Cavineña [cav],-12.25,-67.5,#9A6E63,Tacanan,Tacanan,NE South America
Cayapa [cbi],1.2,-78.75,#98608F,Barbacoan,Southern Barbacoan,Andean
Cayapo [txu-2],-7.77,-51.67,#A7B369,Macro-Je,Je,NE South America
Cayuga [cay],42.75,-76.75,#639141,Iroquoian,Northern Iroquoian,E North America
Cayuse [xcy],46.11,-117.94,#675665,Cayuse,Cayuse,Basin and Plains
Cayuvava [cyb],-12.5,-67,#6F8B4F,Cayuvava,Cayuvava,NE South America
Ce [ruk],10,8.67,#4BC7AD,Niger-Kongo,Plateau,African Savannah
Cebuano [ceb],10,124,#B96F6C,Austronesian,Philippines,Southeast Asia-Island
Cemuhi [cam],-20.833,165,#64B399,Austronesian,Southern Oceanic,Oceania
Central !Kung [nmn-3],-19.57,18.12,#4391CF,Tuu,Tuu,S Africa
Central Banda [tor],6.64,22.76,#26B49B,Ubangian,Ubangian,African Savannah
Central-Eastern Niger Fulfulde [fuq],15.09,8.43,#65A2A9,Niger-Kongo,North-Central Atlantic,African Savannah
Cerma [cme],10.249,-4.85,#95A288,Niger-Kongo,Gur,African Savannah
Ch'ol [cti],17.49,-92.47,#666F5A,Mayan,Core Mayan,Mesoamerica
Cha'palaachi [cbi-2],0.838,-78.877,#6A488F,Barbacoan,Southern Barbacoan,Andean
Chachapuya [xxx-116],-6.42,-77.92,#7B6965,Chachapoya,Chachapoya,Andean
Chacobo [cao],-12.25,-65,#76654B,Panoan,Pano Nawa,NE South America
Chadong [cdy],25.2,110.2,#3FABD7,Tai-Kadai,Maonan-Chadong,Southeast Asia-mainland
Chaga-Kiwoso [old],-3.29,37.57,#5AB095,Niger-Kongo,Zone E60,S Africa
Chaga-Ng'uni [jmc-3],-3.18,37.2,#59BE7B,Niger-Kongo,Zone E60,S Africa
Chaga-Rombo-North [rof],-3.08,37.54,#58B490,Niger-Kongo,Zone E60,S Africa
Chaga-Rombo-South [rof-2],-3.21,37.54,#62AF9B,Niger-Kongo,Zone E60,S Africa
Chaga-Siha [jmc-2],-3.36,36.92,#64BC70,Niger-Kongo,Zone E60,S Africa
Chaga-Vunjo [wun-2],-3.43,37.58,#529BAF,Niger-Kongo,Zone E60,S Africa
Chaha [sgw],8.2,38,#476E5D,Afro-Asiatic,Ethiopian,Greater Abyssinia
Chakali [cli],9.83,-1.9,#44D5AF,Niger-Kongo,Gur,African Savannah
Chakavian [hrv-2],45.17,14.85,#3FAB95,Indo-European,Slavic,Europe
Chakhar [mon-6],44.94,115.38,#818C59,Mongolic,Mongolic,Inner Asia
