name,latitude,longitude,color,family,subgroup,country
!Xoon [nmn],-24,21.5,#56003F,Tuu,Hua,Botswana
’Weenhayek [mtp],-21.99,-63.6,#6B75BE,Matacoan,Mataguayo II,Bolivia
||Ana [gnk],-22.2,22.4,#7D7262,Khoe,Khoe,Botswana
||Ani [hnh],-19.3,22.5,#6B696E,Khoe,Khoe,Botswana
||Gana [gnk-2],-19,22.5,#796E66,Khoe,Khoe,Botswana
||Xekwi [xeg],-23,22,#5A5161,Tuu,!Kwi,Botswana
|Gwi [gwj],-22.435,21.654,#625D57,Khoe,Khoe,Botswana
|Xam [xam],-30.34,21.82,#607071,Tuu,/Xam,South Africa
A'iwa [ash],-2,-74.5,#AC947C,A'iwa,,Peru
A'jië [aji],-21.342,165.459,#5B67CA,Oceanic,Southern Oceanic,New Caledonia
Aari [aiw],6,36.6,#72614F,Afro-Asiatic,Omotic,Ethiopia
Aashing [adi-10],28.99,94.9,#7B7EB1,Tibeto-Burman,Macro-Tani,India
Abanyom [abm],6.499,8.647,#5A7C50,Niger-Kongo,Atlantic-Congo,Nigeria
Abar [mij-3],6.59,10.26,#4B8895,Niger-Kongo,Atlantic-Congo,Cameroon
Abau [aau],-4,141.167,#A58A8C,Sepik,Abau,Papua New Guinea
Abawiri [flh],-3.05,139.21,#989B34,Lakes Plains,Eastern Lakes Plains,Indonesia-Papua
Abaza [abq],44.34,41.67,#7E8644,Northwest Caucasus,Abaza-Abkhaz,Russia
Abduyi [pes-4],29.7,52.07,#A0746C,Indo-European,Indo-Iranian,Iran
Abelam [abt-2],-3.83,143.17,#847889,Ndu,Nuclear Ndu,Papua New Guinea
Abellen [abp],15.41,120.2,#A485A3,Malayo-Polynesian,Philippines,Philippines
Abenaki_Western [abe],44,-72.25,#AB8B91,Algic,Algonquian,USA
Aberdeenshire_English [sco-4],57.3,-2,#7F8A8C,Indo-European,Germanic,Britain
Abidji [abi],5.66,-4.58,#686574,Niger-Kongo,Atlantic-Congo,Côte d'Ivoire
Abinomn [bsa],-3,138.8,#B18262,Abinomn,,Indonesia-Papua
Abipon [axb],-26,-61,#A78995,Guaicuruan,Southern Guaicuruan,Argentina
Abkhaz [abk],43,41.03,#7E902D,Northwest Caucasus,Abaza-Abkhaz,Abkhazia
Abkhaz_Bzyp [ady-14],43.32,40.41,#779620,Northwest Caucasus,Abaza-Abkhaz,Abkhazia
Abkhaz_Sadz [ady-13],43.33,40.22,#7D9124,Northwest Caucasus,Abaza-Abkhaz,Abkhazia
Abron [abr],8.03,-2.8,#79876A,Niger-Kongo,Atlantic-Congo,Ghana
Abruzzo [nap],42.66,13.7,#568F88,Indo-European,Romance,Italy
Abua [abn],4.8,6.654167,#516E7E,Niger-Kongo,Atlantic-Congo,Nigeria
Abui [abz],-8.417,124.6,#9D6B6B,Timor-Alor-Pantar,Alor-Pantar,Indonesia-NTT
Abujh_Maria [mrr-2],18.75,80.68,#918855,Dravidian,South-Central Dravidian,India
Abun [kgr],-0.833,132,#786F70,West Papuan,Birds Head,Indonesia-Papua
Abure [abu],5.22,-3.64,#646D8D,Niger-Kongo,Atlantic-Congo,Côte d'Ivoire
Acatec [agu-2],15.7,-91.617,#978977,Mayan,Core Mayan,Guatemala
Aceh_Lhokseumawe [ace-7],5.19,97.14,#415B97,Malayo-Polynesian,Malayo-Sumbawan,Indonesia-Sumatra
Aceh_Pidie [ace-2],5.38,95.96,#445997,Malayo-Polynesian,Malayo-Sumbawan,Indonesia-Sumatra
Acehnese [ace],5.333,96.167,#4A5799,Malayo-Polynesian,Malayo-Sumbawan,Indonesia-Sumatra
Acehnese_Northeast [ace-6],4.62,97.62,#4F6098,Malayo-Polynesian,Malayo-Sumbawan,Indonesia-Sumatra
Acehnese_South [ace-4],4.1,96.23,#4F6099,Malayo-Polynesian,Malayo-Sumbawan,Indonesia-Sumatra
Acehnese_Southwest [ace-3],5.05,95.34,#505E99,Malayo-Polynesian,Malayo-Sumbawan,Indonesia-Sumatra
Acehnese_West [ace-5],5.47,95.26,#4F5F9B,Malayo-Polynesian,Malayo-Sumbawan,Indonesia-Sumatra
Achagua [aca],4.002,-72.814,#A67780,Arawak,Northern Maipuran,Colombia
Achang_Lianghe [acn-2],24.8,98.3,#2D99AC,Tibeto-Burman,Lolo-Burmese,China
Achang_Longchuan [can-2],24.25,97.833,#1988A1,Tibeto-Burman,Lolo-Burmese,China
Achang_Luxi [can-3],24.527,103.764,#42A291,Tibeto-Burman,Lolo-Burmese,China
Aćharêtâʹ [phl-2],35.4,71.75,#4AA23F,Indo-European,Indo-Iranian,Afghanistan
Aché [guq],-25.25,-55.17,#9865A5,Tupian,Tupi-Guarani,Paraguay
Achi [acr],15.25,-90.5,#A37C83,Mayan,Core Mayan,Guatemala
Achuar [acu],-3,-76,#A88D9E,Jivaroan,Shuaric,Peru
Achumawi [acv],41.5,-121,#7984A9,Palaihnihan,,USA
Acipa [acp],10.71,6.01,#687E50,Niger-Kongo,Atlantic-Congo,Nigeria
Acoma [kjq-2],34.92,-107.58,#4D8D9A,Keresan,Western Keresan,USA
Acooli [ach],3.293,32.871,#535F6D,Nilo-Saharan,Eastern Sudanic,Uganda
Adamawa Fulfulde [fub],8.9,15.84,#566275,Niger-Kongo,Atlantic-Congo,Cameroon
Adang [adn],-8.163,124.456,#9D7C94,Timor-Alor-Pantar,Alor-Pantar,Indonesia-NTT
Adangme [ada],5.8,0.33,#567378,Niger-Kongo,Atlantic-Congo,Ghana
Adim [yay],5.81,8.03,#847070,Niger-Kongo,Atlantic-Congo,Nigeria
Adyghe [ady],44.1,39.08,#858064,Northwest Caucasus,Ubykh-Circassian,Russia
Adyghe_Abzakh [ady-12],44.7,38.9,#7F8067,Northwest Caucasus,Ubykh-Circassian,Russia
Adyghe_Besleney [ady-6],44.7,40.75,#827F5F,Northwest Caucasus,Ubykh-Circassian,Russia
Adyghe_Black Sea Shapsugh [ady-2],44.375,38.4,#75864C,Northwest Caucasus,Ubykh-Circassian,Abkhazia
Adyghe_Bzhedug [ady-7],45,39.3,#77846A,Northwest Caucasus,Ubykh-Circassian,Russia
Adyghe_Cherkess [ady-10],44.25,42.05,#858165,Northwest Caucasus,Ubykh-Circassian,Russia
Adyghe_Hakuchi [ady-9],44.88,38,#858165,Northwest Caucasus,Ubykh-Circassian,Russia
Adyghe_Natukai [ady-4],44.4,38.35,#7F8345,Northwest Caucasus,Ubykh-Circassian,Russia
Adyghe_Shapsugh [ady-3],44.3,39,#75864C,Northwest Caucasus,Ubykh-Circassian,Russia
Adyghe_Temirgoy [ady-11],45.125,39.83,#858164,Northwest Caucasus,Ubykh-Circassian,Russia
Adyghe_Uzunyayla [ady-5],44.25,38.77,#827F5E,Northwest Caucasus,Ubykh-Circassian,Russia
Adynyamathanha [adt],-31,139.5,#657C64,Pama-Nyungan,Thura-Yura,Australia
Adyukru [adj],5.38,-4.53,#517B60,Niger-Kongo,Atlantic-Congo,Ghana
Adzera [azr],-6.417,146.25,#976090,Oceanic,Western Oceanic,Papua New Guinea
Aeka [aez],-8.601,147.994,#997286,Trans New Guinea,Oro-Wharton,Papua New Guinea
Afar [aar],11.85,42,#AC7F5B,Afro-Asiatic,Cushitic,Djibouti
Afitti [aft-2],12.44,31,#69826C,Nilo-Saharan,Eastern Sudanic,Sudan
Afrikaans [afr],-33.9,18.5,#7D9F80,Indo-European,Germanic,South Africa
Afshar [azj-2],37.475,57.33,#7E9587,Turkic,Common Turkic,Iran
Agabag [mvv-3],3.965,117.095,#817EA5,Malayo-Polynesian,North Borneo,Indonesia-Kalimantan
Agarabi [agd],-6.25,145.917,#988A6E,Trans New Guinea,Morobe-Eastern Highlands,Papua New Guinea
Agatu [agc],7.98,7.72,#506B99,Niger-Kongo,Atlantic-Congo,Nigeria
Aghem [agq],6.39,10.12,#349161,Niger-Kongo,Atlantic-Congo,Cameroon
Aghu [ahh],-6.333,140,#AF7788,Trans New Guinea,Awyu-Dumut,Indonesia-Papua
Aghu-Tharrnggala [gtu],-13.73,142.43,#54748E,Pama-Nyungan,Paman,Australia
Aghul_Huppuq’ [agx-6],41.836,47.6602,#848A66,Nakh-Daghestanian,Lezgic,Russia
Aglla [idu-3],6.8,7.95,#3A6480,Niger-Kongo,Atlantic-Congo,Nigeria
Agöb [kit],-9.09,142.53,#72889A,South New Guinea,East Morehead,Papua New Guinea
Agta [agt],17.967,121.833,#9C7A8E,Malayo-Polynesian,Philippines,Philippines
Aguaruna [agr],-5.25,-78,#B88C83,Jivaroan,Aguaruna,Peru
Aguatec [agu],15.4,-91.4,#97907F,Mayan,Core Mayan,Guatemala
Agul [agx],41.78,47.59,#8C8066,Nakh-Daghestanian,Lezgic,Russia
Agul_Burkixan [agx-2],41.78,47.6,#818760,Nakh-Daghestanian,Lezgic,Russia
Agul_Burshag [agx-3],41.86,47.62,#85895A,Nakh-Daghestanian,Lezgic,Russia
Agul_Fite [agx-4],41.79,47.59,#7B836C,Nakh-Daghestanian,Lezgic,Russia
Agul_Richa [agx-5],41.78,47.61,#7F8452,Nakh-Daghestanian,Lezgic,Russia
Agusan [mbb-2],8.68,125.79,#A37D98,Malayo-Polynesian,Philippines,Philippines
Agusan_Manobo [msm],8.63,125.74,#9A8199,Malayo-Polynesian,Philippines,Philippines
Agutaynen [agn],11.15,120.95,#9D8190,Malayo-Polynesian,Philippines,Philippines
Agwamin [wmi],-16.986,143.001,#738991,Pama-Nyungan,Paman,Australia
Ahamb [ahb],-16.507,167.703,#726DB7,Oceanic,Southern Oceanic,Vanuatu
Ahan [ahn],7.44,6.01,#606C6C,Niger-Kongo,Atlantic-Congo,Nigeria
Ahanta [aha],4.85,-1.95,#616777,Niger-Kongo,Atlantic-Congo,Ghana
Ahi [yix],24.4,103.4,#3D9986,Tibeto-Burman,Lolo-Burmese,China
Ahom [aho],25,95,#58745D,Tai-Kadai,Kam-Tai,India
Ahtna [aht],62,-145,#8E7372,Dene-Yeniseic,Na-Dene,USA-Alaska
Ai-cham_Diwo [aih],25.8,107,#309290,Tai-Kadai,Kam-Tai,China
Aikaná [tba],-12.1,-60.6,#8682A0,Aikaná,,Brazil
Aikaná_Masacá [tba-2],-12.7,-60.8,#8582A0,Aikaná,,Brazil
Aimaq [aiq],35.28,59.18,#9F7D7B,Indo-European,Indo-Iranian,Iran
Ainu [ain],42.4,142.5,#A8828B,Ainu,Hokkaido-Kuril,Japan
Ainu_Kuril [ain-2],46.5,151.5,#B48A9D,Ainu,Hokkaido-Kuril,Japan
Ainu_Sakhalin [ain-3],49.07,142.03,#B0817E,Ainu,Sakhalin,Japan
Ainu_Saru [ain-4],42.88,142.4,#B48A9D,Ainu,Hokkaido-Kuril,Japan
Air Tamajeq_Tayart [thz],16.92,7.67,#737E30,Afro-Asiatic,Berber,Mauritania
Airoran [air],-1.7,138.15,#B6879E,Tor-Kwerba,West Foya Range,Indonesia-Papua
Aisi [mmq],-5.35,145.15,#9F83A9,Trans New Guinea,Madang,Papua New Guinea
Ait_Seghrouchen [tzm-2],33,-5,#968528,Afro-Asiatic,Berber,Morocco
Aita_Rotokas [roo-2],-6,155.08,#AC7AA5,North Bougainville,Rotokas,Papua New Guinea-Bougainville
Aiton [aio-2],24,94,#4A7B7B,Tai-Kadai,Kam-Tai,India
Aitutaki [rar-2],-18.872,-159.782,#AE7C97,Oceanic,Central Pacific,Cook Islands
Aiwoo [nfl],-10.5,166.5,#6B63D7,Oceanic,Te Motu,Solomons_East
Aizi [ahp],5.25,-4.5,#5F6680,Niger-Kongo,Atlantic-Congo,Côte d'Ivoire
Aja [ajg],7.06,1.66,#38805A,Niger-Kongo,Atlantic-Congo,Benin
Ajagbe [ajg-2],7.08,1.64,#6C757C,Niger-Kongo,Atlantic-Congo,Benin
Ajumbu [muc-2],6.55,10.27,#3F8A6C,Niger-Kongo,Atlantic-Congo,Cameroon
Aka [axk],3.46,15.73,#636B67,Ubangian,,Central African Republic
Aka [hru-2],27.2,92.9,#5D8282,Tibeto-Burman,Hrusish,India
Akabea [abj-2],12.38,92.78,#66747B,Andaman,,India_Andaman-Nicobars
Akan [aka],6.5,-1.25,#817463,Niger-Kongo,Atlantic-Congo,Ghana
Akaselem [aks],8.89,1.37,#576B8D,Niger-Kongo,Atlantic-Congo,Togo
Akawaio [ake],6,-59.5,#B08490,Cariban,Venezuelan,Guyana
Ake [aik],8.6,8.76,#5F7C5D,Niger-Kongo,Atlantic-Congo,Nigeria
Akei [tsr],-15.49,166.75,#B0838B,Oceanic,Southern Oceanic,Vanuatu
Akha [ahk],20.3,99.6,#705D8E,Tibeto-Burman,Lolo-Burmese,Thailand
Akha_Akhe [ahk-8],21.916,100.465,#3D8AA6,Tibeto-Burman,Lolo-Burmese,Thailand
Akha_Buli [ahk-4],21.2,101.15,#41839F,Tibeto-Burman,Lolo-Burmese,Laos
Akha_Chicho [ahk-2],20.92,101.4,#348999,Tibeto-Burman,Lolo-Burmese,Laos
Akha_Senchai [ahk-3],26.9,99,#4C8598,Tibeto-Burman,Lolo-Burmese,Myanmar
Akhvakh [akv],42.379,46.384,#856F49,Nakh-Daghestanian,Avar-Andi,Russia
Akie [oki],-5.43,37.19,#4E9477,Nilo-Saharan,Eastern Sudanic,Kenya
Aklanon [akl],11.58,122.33,#A18690,Malayo-Polynesian,Philippines,Philippines
Akosse [bss],5,9.7,#6C8470,Niger-Kongo,Atlantic-Congo,Cameroon
Akoye [miw-2],-7.645,145.65,#96957B,Trans New Guinea,Morobe-Eastern Highlands,Papua New Guinea
Akpes [ibe],7.5,5.96,#6F7267,Niger-Kongo,Atlantic-Congo,Nigeria
Akuntsu [aqz],-12.74,-60.8,#A388AE,Tupian,Tupari,Brazil
Akurio [ako],3.0132,-55.6434,#B08E9E,Cariban,Guianan Carib,Suriname
Akwa [akw],-0.005,15.612,#5D6B69,Niger-Kongo,Atlantic-Congo,Congo
Akweya [akf],7.33,8.02,#347799,Niger-Kongo,Atlantic-Congo,Nigeria
Akye-Gnan [ati-2],5.48,-4.09,#52996F,Niger-Kongo,Atlantic-Congo,Côte d'Ivoire
Alaaba [alw],7.31,38.09,#867581,Afro-Asiatic,Cushitic,Ethiopia
Alaala [nrz],-9,146.667,#997DA3,Oceanic,Western Oceanic,Papua New Guinea
Alaba-K'abeena [alw-2],7.39,38.17,#6B7C79,Afro-Asiatic,Cushitic,Ethiopia
Alabama [akz],32.7,-86.1,#AF7974,Muskogean,Alabama-Koasati,USA
Alacalufe_Central [alc-2],-53.528,-70.9573,#B5896F,Alaculufan,,Chile
Alacalufe_Southern [alc-3],-55.2,-69.4,#A88391,Alaculufan,,Chile
Alagwa [wbj],-4.64,35.72,#7D8285,Afro-Asiatic,Cushitic,Tanzania
Alamblak [amp],-4.667,143.25,#B28699,Sepik,Sepik Hill,Papua New Guinea
Alangan-Mangyan [alj],13.1,121.02,#A1819A,Malayo-Polynesian,Philippines,Philippines
Alas_Batak [btz],2.64,98,#8686AE,Malayo-Polynesian,Batak-Barrier Islands,Indonesia-Sumatra
Alawa [alh],-15.75,134.333,#66757C,Macro-Gunwinygu,Marran,Australia
Albanian_Cham [als-4],39.6,20.8,#617170,Indo-European,Albanian,Greece
Albanian_Gheg [aln-2],42.43,20.73,#6F897E,Indo-European,Albanian,Albania
Albanian_Gheg_Kosovo [aln],42.58,21,#8A875B,Indo-European,Albanian,Kosovo
Albanian_Lab [als-5],40.17,19.83,#5D7782,Indo-European,Albanian,Albania
Albanian_Mandritsa [aln-5],41.38,26.13,#5B7483,Indo-European,Albanian,Bulgaria
Albanian_Tosk [als],40.5,20,#547077,Indo-European,Albanian,Albania
Albanian_Upper_Reka [aln-4],41.72,20.57,#6C7961,Indo-European,Albanian,Montenegro
Albanian_Vaccarizzo [als-6],39.58,16.43,#54716C,Indo-European,Albanian,Italy
Albese [ita-14],44.7,8.04,#5D9F98,Indo-European,Romance,Italy
Ale [gwd],5.38,37.27,#A27F6B,Afro-Asiatic,Cushitic,Ethiopia
Alekano [gah-2],-6,145.4,#9E8861,Trans New Guinea,Morobe-Eastern Highlands,Papua New Guinea
Aleut [ale],54,-166,#767CB2,Eskimo-Aleut,Aleut,USA-Alaska
Aleut_Atkan [ale-2],52,-174,#7E7FB1,Eskimo-Aleut,Aleut,USA-Alaska
Aleut_Attuan [ale-3],52.85,172.9,#7984B0,Eskimo-Aleut,Aleut,USA-Alaska
Aleut_Eastern [ale-4],54.75,-164,#7E80B2,Eskimo-Aleut,Aleut,USA-Alaska
Aleut_Unangas [ale-5],55.3,166,#8B957C,Eskimo-Aleut,Aleut,USA-Alaska
Algherese [cat-3],40.55,8.32,#5E8B77,Indo-European,Romance,Italy-Sardinia
Algonquin [alq],46,-82,#B57F8D,Algic,Algonquian,Canada
Ali [ykm],-3.17,142.25,#9184AA,Oceanic,Western Oceanic,Papua New Guinea
Alladian [ald],5.17,-4.33,#676760,Niger-Kongo,Atlantic-Congo,Côte d'Ivoire
Allentiac [qbt],-32,-66,#9D919C,Huarpe,,Argentina
Alngith [aid],-12.5,142.17,#597087,Pama-Nyungan,Paman,Australia
Alo-Teqel [tql-2],-13.8,167.47,#8A72BC,Oceanic,Southern Oceanic,Vanuatu
Alor [aol],-8.245,124.412,#9D7996,Malayo-Polynesian,Timoric,Indonesia-NTT
Alsatian [gsw-2],48.32,7.44,#6F9684,Indo-European,Germanic,France
Alsea [aes],44.67,-123.93,#828FAA,Alsean,,USA
Altai [alt],51,87,#73889D,Turkic,Common Turkic,Russia
Altai_Kumandy [atv],51.3,87.7,#818D8D,Turkic,Common Turkic,Russia
Alumbis_Murut [mvv],4.799,115.496,#9C7DA4,Malayo-Polynesian,North Borneo,Malaysia-Borneo
Alune [alp],-3.167,128.333,#B97C94,Malayo-Polynesian,Central Maluku,Indonesia-Maluku-north
Alur [alz],2.5,31.25,#4E6774,Nilo-Saharan,Eastern Sudanic,Uganda
Alutiiq [ems],58.015,-152.765,#8895B9,Eskimo-Aleut,Eskimo,USA-Alaska
Alyawarr [aly],-24.6,134.5,#557F66,Pama-Nyungan,Arandic,Australia
Alyutor [alr],61,165,#888C83,Chukotko-Kamchatkan,Main Chukotko-Kamchatkan,Russia
Ama [amm],-4.168,141.671,#918873,Left May,,Papua New Guinea
Amahai_Soahuku [amq],-3.332,128.949,#AB8395,Malayo-Polynesian,Central Maluku,Indonesia-Maluku-north
Amahuaca [amc],-10.8,-73.5,#AC8576,Panoan,Southern Panoan,Peru
Amaimon [ali],-5.193,145.325,#9E768D,Trans New Guinea,Madang,Papua New Guinea
Amam [wer-2],-7.85,146.95,#AB7A86,Trans New Guinea,Oro-Wharton,Papua New Guinea
Amami_Ryukyu [ams],28,129,#6D89A7,Japonic,Ryukyuan,Japan-Ryukyu
Amanab [amn],-3.5,141.167,#9B8592,Trans New Guinea,Border,Papua New Guinea
Amanuban [aoz-2],-9.82,124.47,#BD7785,Malayo-Polynesian,Timoric,Indonesia-NTT
Amanutun [aoz-4],-9.69,124.83,#B37B86,Malayo-Polynesian,Timoric,Indonesia-NTT
Amara [aie],-5.533,148.667,#8A908E,Oceanic,Western Oceanic,Papua New Guinea-Bismarcks
Amarakaeri [amr-2],-12.6938,-70.3235,#A87BA5,Harakmbet,Harakmbut,Peru
Amarasi [aaz],-10.08,124.33,#B77872,Malayo-Polynesian,Timoric,Indonesia-NTT
Amba_Nembao [utp-2],-11.27,166.48,#896DB1,Oceanic,Te Motu,Solomons_East
Ambae_West [omb],-15.5,167.75,#976693,Oceanic,Southern Oceanic,Vanuatu
Ambai [amk],-1.917,136.533,#B6838D,Malayo-Polynesian,Eastern Malayo-Polynesian,Indonesia-Papua
Ambel [xmt-2],-0.05,130.7,#927D63,Malayo-Polynesian,Eastern Malayo-Polynesian,Indonesia-Papua
Ambelau [mhs-4],-3.89,127.205,#7E917A,Malayo-Polynesian,Central Maluku,Indonesia-Maluku-north
Ambele [ael],5.94,9.62,#526094,Niger-Kongo,Atlantic-Congo,Cameroon
Amblong [alm],-15.497,166.926,#AA6F8B,Oceanic,Southern Oceanic,Vanuatu
Ambonese Malay [abs],-3.7,128.2,#7F85A8,Malayo-Polynesian,Malayo-Sumbawan,Indonesia-Maluku-north
Ambrym_Southeast [tvk-2],-16.33,168.08,#96819A,Oceanic,Southern Oceanic,Vanuatu
Ambulas [abt],-3.75,143.083,#8369AA,Ndu,Nuclear Ndu,Papua New Guinea
Amdo [adx],36,94,#489094,Tibeto-Burman,Bodic,China
Ameland [frs-3],53.45,5.77,#7C8D93,Indo-European,Germanic,Netherlands
Amele_Haija [aey],-5.25,145.75,#BA7F74,Trans New Guinea,Madang,Papua New Guinea
Amele_Huar [aey-3],-5.287,145.718,#B27474,Trans New Guinea,Madang,Papua New Guinea
Amele_Jagahala [aey-2],-5.264,145.642,#B87782,Trans New Guinea,Madang,Papua New Guinea
Amfo'an [aoz-3],-9.45,123.9,#BB7985,Malayo-Polynesian,Timoric,Indonesia-NTT
Amharic [amh],10,38,#877D7D,Afro-Asiatic,Semitic,Ethiopia
Ami [amy],-14,130,#878697,Western Daly,Maranunggu-Ame-Manda,Australia
Amis [ami],23.333,121.333,#A98A86,Austronesian,East Formosan,Taiwan
Amo [amo],10.33,8.67,#67688A,Niger-Kongo,Atlantic-Congo,Nigeria
Amonap / Apalakiri / Matipu [mzo],-12.05,-53.4,#9681B0,Cariban,Nahukwa,Brazil
Amoy [nan],24.5,118,#7A9F55,Tibeto-Burman,Sinitic,China
Ampale [apz],-6.753,146.107,#758D94,Trans New Guinea,Morobe-Eastern Highlands,Papua New Guinea
Ampibabo [law-2],-0.46,120.06,#94749C,Malayo-Polynesian,Celebic,Indonesia-Sulawesi
Amu [swh-9],-2.27,40.9,#606372,Niger-Kongo,Atlantic-Congo,Tanzania
Amuesha [ame],-10,-73,#74605C,Arawak,Western Maipuran,Peru
Amundava [adw],-10.9942,-63.0642,#A679A6,Tupian,Tupi-Guarani,Brazil
Amurdak [amg],-12.022,132.892,#69826F,Iwaidjan,Amurdak,Australia
Amuzgo [amu],16.83,-98,#516149,Otomanguean,Eastern Otomanguean,Mexico
Amuzgo_Huixtepec [amu-2],16.5,-98.1,#928476,Otomanguean,Eastern Otomanguean,Mexico
Amuzgo_San_Pedro [azg],16.85,-98,#8B7882,Otomanguean,Eastern Otomanguean,Mexico
Amuzgo_Xochistlahuaca [amu-3],16.79,-98.24,#508760,Otomanguean,Eastern Otomanguean,Mexico
Amwi [aml],25.209,92.068,#616F73,Austroasiatic,Khasi-Palaung,India
Anaguta [nar],9.964,8.731,#5E6A6D,Niger-Kongo,Atlantic-Congo,Nigeria
Anakalang [akg],-9.67,119.67,#876EA1,Malayo-Polynesian,Flores-Sawu-Sumba,Indonesia-NTT
Anal [anm],24.33,93.99,#44788A,Tibeto-Burman,Kuki-Chin-Naga,India
Anamuxra [imi],-4.667,145,#B47899,Trans New Guinea,Madang,Papua New Guinea
Andalusian [spa-4],37.5,-3.6,#9C8C65,Indo-European,Romance,Spain
Andi [ani],42.79,46.27,#7E6E63,Nakh-Daghestanian,Avar-Andi,Russia
Andi_Tad-Magitil [ani-2],42.75,46.25,#817569,Nakh-Daghestanian,Avar-Andi,Russia
Andoa [anb],-2.9,-76.4051,#94888C,Zaparoan,Iquito-Arabela,Peru
Andoké [ano],0,-72,#A97B72,Andoké,,Colombia
Anejom [aty],-20.25,169.833,#6E85AB,Oceanic,Southern Oceanic,Vanuatu
Anem [anz],-5.667,149,#8391A1,Anem,,Papua New Guinea-Bismarcks
Aneme_Wake [aby],-9.733,148.52,#C17B83,Southeast Papuan,Owen Stanley Ranges,Papua New Guinea
Anfillo [myo],8.57,34.65,#997E79,Afro-Asiatic,Omotic,Ethiopia
Anfu [gan-21],27.38,114.62,#3DB38A,Tibeto-Burman,Sinitic,China
Angaatiha [agm],-7.22,146.25,#8F89B0,Trans New Guinea,Morobe-Eastern Highlands,Papua New Guinea
Angal [age],-6,143.6,#9D6B96,Trans New Guinea,Engan,Papua New Guinea
Angal_Heneng [akh],-6.13,143.42,#A46C91,Trans New Guinea,Engan,Papua New Guinea
Angali [pes-2],29.75,50.96,#8A7D77,Indo-European,Indo-Iranian,Iran
Angami [njm],25.667,94.5,#2E7579,Tibeto-Burman,Kuki-Chin-Naga,India
Angas [anc],9.75,8.75,#587D66,Afro-Asiatic,Chadic,Nigeria
Anggor [agg],-3.667,141.167,#9E7693,Trans New Guinea,Border,Papua New Guinea
Anggreso [kwe-2],-2.17,138.25,#B4889A,Tor-Kwerba,West Foya Range,Indonesia-Papua
Angkamuthi [avm],-11.5,142.25,#667185,Pama-Nyungan,Paman,Australia
Angkola_Batak [akb],1.518,99.531,#8B779F,Malayo-Polynesian,Batak-Barrier Islands,Indonesia-Sumatra
Anguthimri [awg],-12.333,141.833,#487089,Pama-Nyungan,Paman,Australia
Ani_Phowa [ypn],23.6,103.3,#478F89,Tibeto-Burman,Lolo-Burmese,China
Anib [kni],9.55,8.6,#5D7A64,Niger-Kongo,Atlantic-Congo,Nigeria
Anii [blo],9.003,1.669,#417E69,Niger-Kongo,Atlantic-Congo,Benin
Anindilyagwa [aoi],-14,136.5,#596599,Macro-Gunwinygu,East Arnhem,Australia
Anindilyagwa_East [aoi-2],-13.86,136.81,#5263AA,Macro-Gunwinygu,East Arnhem,Australia
Aniwa [fut-2],-19.256,169.6,#B2738E,Oceanic,Central Pacific,Vanuatu
Anjam [boj],-5.441,145.737,#7D8B9B,Trans New Guinea,Madang,Papua New Guinea
Ankave [aak],-7.137,145.744,#AB86A5,Trans New Guinea,Morobe-Eastern Highlands,Papua New Guinea
Anlong [pcc-6],25.1,105.44,#3AA1B0,Tai-Kadai,Kam-Tai,China
Anmatyerr_East [amx],-22.256,131.5,#5E896B,Pama-Nyungan,Arandic,Australia
Anmatyerr_West [amx-2],-21,135,#6F7D63,Pama-Nyungan,Arandic,Australia
Anong [nun],27.2,98.8,#1F908C,Tibeto-Burman,Nungish,China
Ansus [and],-1.73,135.806,#B87C8E,Malayo-Polynesian,Eastern Malayo-Polynesian,Indonesia-Papua
Anta [tci-3],-8.65,141.52,#9478B0,South New Guinea,East Morehead,Indonesia-Papua
Antakarinya [ant],-27.11,134.85,#758470,Pama-Nyungan,Wati,Australia
Antakirinya [ant-2],-27.13,134.83,#748374,Pama-Nyungan,Wati,Australia
Antekerrepinhe [adg],-22.52,137.34,#4E726A,Pama-Nyungan,Arandic,Australia
Antioquian [xxx-107],7,-73,#B17E87,Chibchan,Core Chibchan,Colombia
Antwerps [nld-2],51.22,4.4,#71918F,Indo-European,Germanic,Belgium
Añú [pbg],11,-71.62,#AD8DA1,Arawak,Northern Maipuran,Venezuela
Anuak [anu],7.18,34.097,#6B6D87,Nilo-Saharan,Eastern Sudanic,South Sudan
Anufo [cko],10.218,0.33,#626370,Niger-Kongo,Atlantic-Congo,Ghana
Anus [auq],-2.13,139.51,#A77B91,Oceanic,Western Oceanic,Indonesia-Papua
Anuta [aud],-11.611,169.85,#B3778B,Oceanic,Central Pacific,Solomons_East
Anyi [gan-18],28.84,115.6,#45AD84,Tibeto-Burman,Sinitic,China
Anyin [any],5.9,-2.9,#916576,Niger-Kongo,Atlantic-Congo,Côte d'Ivoire
Anywa [anu-2],7.3,33,#557A8B,Nilo-Saharan,Eastern Sudanic,South Sudan
Aoheng [pni],1.025,114.175,#8E7099,Malayo-Polynesian,North Borneo,Indonesia-Kalimantan
Aore [aor],-15.577,167.181,#8C65B4,Oceanic,Southern Oceanic,Vanuatu
Apache_Western [apw],33.9,-109.55,#8C7C73,Dene-Yeniseic,Na-Dene,USA
Apalachee [xap],30.04,-84.17,#B98481,Muskogean,Alabama-Koasati,USA
Apalai [apy],0,-54,#BA8993,Cariban,Apalai,Brazil
Apali [ena],-5.088,145.017,#A1799E,Trans New Guinea,Madang,Papua New Guinea
Apatani [apt],27.4,93.8,#519383,Tibeto-Burman,Macro-Tani,India
Apiaká [api],-7.9484,-57.7365,#A78BAA,Tupian,Tupi-Guarani,Brazil
Apinaye [apn],-6.25,-48,#767AB4,Macro-Je,Je,Brazil
Apma [app],-15.775,168.158,#8D629F,Oceanic,Southern Oceanic,Vanuatu
Apma_Suru Kavian [app-2],-15.61,168.14,#847AB2,Oceanic,Southern Oceanic,Vanuatu
Apurinã [apu],-7.26,-64.8,#AF879B,Arawak,Southern Maipuran,Brazil
Apurinã-2 [apu-2],-5.63,-63.17,#AB8198,Arawak,Southern Maipuran,Brazil
Aputai [apx],-7.888,126.505,#B47F86,Malayo-Polynesian,Timoric,Indonesia-NTT
Arabana [ard],-28,137,#658566,Pama-Nyungan,Karnic,Australia
Arabela [arl],-2,-75.17,#B2907F,Zaparoan,Iquito-Arabela,Peru
Arabic [arb],30,42,#9A8817,Afro-Asiatic,Semitic,Saudi Arabia
Arabic_Abéché [ayl-4],13.83,20.83,#78881B,Afro-Asiatic,Semitic,Chad
Arabic_Abha [acw-2],18.22,42.51,#9B8620,Afro-Asiatic,Semitic,Saudi Arabia
Arabic_Afghanistan [acm-3],36.7,67.12,#A38542,Afro-Asiatic,Semitic,Afghanistan
Arabic_Algerian [arq],36.7,3.1,#9B8328,Afro-Asiatic,Semitic,Algeria
Arabic_Andalusian [xaa],35.767,-5.8,#8F8226,Afro-Asiatic,Semitic,Spain
Arabic_Attuwair [acw-3],29.9,40.1,#88841B,Afro-Asiatic,Semitic,Saudi Arabia
Arabic_Baghdad [acm-4],33.33,44.38,#A28529,Afro-Asiatic,Semitic,Iran
Arabic_Bareqi [acw-7],18.93,41.94,#9C8914,Afro-Asiatic,Semitic,Saudi Arabia
Arabic_Basra [acm],30.5,47.825,#8C8421,Afro-Asiatic,Semitic,Iraq
Arabic_Bedouin_Sinai_Ǧbāliyyah [avl-2],28.557,33.943,#988121,Afro-Asiatic,Semitic,Egypt
Arabic_Bedouin_Sinai_Mzēnah [avl],28.135,34.1,#99811D,Afro-Asiatic,Semitic,Egypt
Arabic_Bedouin_Sinai_Taṛābīn [avl-3],31,34.2,#9A8225,Afro-Asiatic,Semitic,Egypt
Arabic_Bukhara [abh],39.76,64.42,#905434,Afro-Asiatic,Semitic,Uzbekistan
Arabic_Chad [shu-3],14,19,#918555,Afro-Asiatic,Semitic,Chad
Arabic_Chowa [shu-4],12.5,14.5,#9E7979,Afro-Asiatic,Semitic,Nigeria
Arabic_Coastal-Dhofari [acx],20.7,58.2,#A08637,Afro-Asiatic,Semitic,Oman
Arabic_Cypriot [acy],34.343,33.011,#95885C,Afro-Asiatic,Semitic,Cyprus
Arabic_Egyptian [arz],30,30,#9E882A,Afro-Asiatic,Semitic,Egypt
Arabic_Faifa [jye-3],17.25,43.1,#94862E,Afro-Asiatic,Semitic,Yemen
Arabic_Fezzan [ayl-3],26.33,13.43,#8C8A0A,Afro-Asiatic,Semitic,Libya
Arabic_Gulf [afb],24,54,#948A2E,Afro-Asiatic,Semitic,United Arab Emirates
Arabic_Hadhrami_coast [jye-5],14.95,50.34,#9D8819,Afro-Asiatic,Semitic,Yemen
Arabic_Hadhrami_wadi [jye-6],16.05,49,#9C8917,Afro-Asiatic,Semitic,Yemen
Arabic_Harb [acw],25.81,42.87,#8D8529,Afro-Asiatic,Semitic,Saudi Arabia
Arabic_Hassaniya [mey],16.6,-7.25,#878D21,Afro-Asiatic,Semitic,Mauritania
Arabic_Hejazi [acw-4],21.543,41.173,#998726,Afro-Asiatic,Semitic,Saudi Arabia
Arabic_Hejazi_Al'Ula [acw-5],26.627,37.917,#9B8827,Afro-Asiatic,Semitic,Saudi Arabia
Arabic_Hejazi_Badr [acw-8],23.78,38.79,#9B8428,Afro-Asiatic,Semitic,Saudi Arabia
Arabic_Ilbahariyya [arz-2],28.35,28.93,#9E8827,Afro-Asiatic,Semitic,Egypt
Arabic_Jijel [ary-3],36.821,5.75,#9B8428,Afro-Asiatic,Semitic,Algeria
Arabic_Jordanian [ajp-5],32,36,#978D20,Afro-Asiatic,Semitic,Jordan
Arabic_Judeo-Tunisian [ajt],33.87,10.85,#899520,Afro-Asiatic,Semitic,Tunisia
Arabic_Khawetna [arb-3],36.42,41.225,#8B861C,Afro-Asiatic,Semitic,Turkey
Arabic_Khuzestan [acm-2],31.33,48.69,#978530,Afro-Asiatic,Semitic,Iran
Arabic_Lebanese [apc-2],33.883,35.502,#B08B6A,Afro-Asiatic,Semitic,Lebanon
Arabic_Levantine_al-Karak [ajp-10],31.2,35.7,#99842D,Afro-Asiatic,Semitic,Jordan
Arabic_Levantine_Amman [ajp-9],31.9,35.9,#99842D,Afro-Asiatic,Semitic,Jordan
Arabic_Levantine_Homs [ajp-7],34.7,36.7,#9B852E,Afro-Asiatic,Semitic,Syria
Arabic_Levantine_Jerusalem [ajp-8],31.8,35.2,#A08730,Afro-Asiatic,Semitic,Israel
Arabic_Levantine_Northern_coast [ajp-11],34.9,35.9,#A38D3E,Afro-Asiatic,Semitic,Syria
Arabic_Levantine_Northern_inland [ajp-12],33.1,35.7,#9E8A34,Afro-Asiatic,Semitic,Syria
Arabic_Levantine_Outer-south [ajp-14],31.3,34.6,#A08432,Afro-Asiatic,Semitic,Israel
Arabic_Levantine_Southern [ajp-13],31.7,34.9,#9E873A,Afro-Asiatic,Semitic,Israel
Arabic_Libyan [ayl],32,20.25,#968E32,Afro-Asiatic,Semitic,Libya
Arabic_Libyan_Western [ayl-2],32.5,13,#9C8B28,Afro-Asiatic,Semitic,Libya
Arabic_Mardin [apc-3],37.363,40.91,#938530,Afro-Asiatic,Semitic,Turkey
Arabic_Mauritanian [ary-2],20.92,-11.62,#818433,Afro-Asiatic,Semitic,Mauritania
Arabic_Mesopotamian [acm-5],33,44,#A2862D,Afro-Asiatic,Semitic,Israel
Arabic_Moroccan [ary],34,-7,#96860A,Afro-Asiatic,Semitic,Morocco
Arabic_Muscat [acx-2],23.63,58.55,#9D8C34,Afro-Asiatic,Semitic,Oman
Arabic_Najdi [acw-6],23,45.5,#9C8924,Afro-Asiatic,Semitic,Saudi Arabia
Arabic_Negev [ajp-15],31.386,34.758,#958612,Afro-Asiatic,Semitic,Syria
Arabic_Omani [acx-3],23.589,58.556,#918929,Afro-Asiatic,Semitic,Oman
Arabic_Omani_Shawawi [acx-4],22.92,57.79,#998523,Afro-Asiatic,Semitic,Syria
Arabic_Oran [arq-2],35.7,-0.63,#95852B,Afro-Asiatic,Semitic,Algeria
Arabic_Palestinian_Urban [ajp-3],31.52,34.45,#968D42,Afro-Asiatic,Semitic,Palestine
Arabic_Qatari [afb-3],25.3,51.52,#91802F,Afro-Asiatic,Semitic,Qatar
Arabic_Sa'idi [aec],25,32.75,#A88837,Afro-Asiatic,Semitic,Egypt
Arabic_Sason [arb-2],38.333,41.42,#878A53,Afro-Asiatic,Semitic,Turkey
Arabic_Saudi [ars],24.48,40,#9D8027,Afro-Asiatic,Semitic,Saudi Arabia
Arabic_Sudanese [apd-2],15.5,32.56,#8F7B16,Afro-Asiatic,Semitic,Sudan
Arabic_Syrian [apc],33,37,#8A8E27,Afro-Asiatic,Semitic,Syria
Arabic_Ta'izzi_Adeni [acq],11.502,43,#9C801B,Afro-Asiatic,Semitic,Djibouti
Arabic_Tillo [arb-4],37.95,42.013,#7E8B1B,Afro-Asiatic,Semitic,Turkey
Arabic_Traras-Msirda [ary-4],35.18,-1.65,#9E8429,Afro-Asiatic,Semitic,Algeria
Arabic_Tunisian [aeb],36,10,#89961B,Afro-Asiatic,Semitic,Tunisia
Arabic_Wadi Mousa [ajp-2],30.32,35.48,#A18534,Afro-Asiatic,Semitic,Jordan
Arabic_Yemeni [jye-2],14,47,#A08216,Afro-Asiatic,Semitic,Yemen
Arabic_Yemeni_Hadhrami [ayh],16.67,49.5,#9F881B,Afro-Asiatic,Semitic,Yemen
Arabic_Yemeni_Tihamiyya [arb-6],13.083,43.833,#A4851F,Afro-Asiatic,Semitic,Yemen
Arabic_Yemeni_Zabidi [acq-2],14.2,43.317,#9D871A,Afro-Asiatic,Semitic,Yemen
Arabic; North Israel Bedouin [ajp-4],32.83,35.33,#828A08,Afro-Asiatic,Semitic,Israel
Aragonese [arg],41,-1,#97856F,Indo-European,Romance,Spain
Araki [akr],-15.629,166.957,#9879A7,Oceanic,Southern Oceanic,Vanuatu
Arakmbut [hug],-13.27,-71.21,#A38AA5,Harakmbet,Harakmbut,Peru
Aralle-Tabulahan [atq],-2.756,119.203,#A779A4,Malayo-Polynesian,Greater South Sulawesi,Indonesia-Sulawesi
Arammba [stk],-8.25,141.5,#75878F,South New Guinea,East Morehead,Papua New Guinea
Arandai [jbj],-2.17,133,#AB7480,Trans New Guinea,South Birds Head,Indonesia-Papua
Aranese [oci-4],42.7,0.795,#788B7E,Indo-European,Romance,Spain
Araona [aro],-12.333,-67.75,#B2728A,Tacanan,Takanik-Chamik,Bolivia
Arapaho [arp],39.565,-105.345,#BE8163,Algic,Algonquian,USA
Arapesh_Muhiang [aoj],-3.564,142.9,#AF769C,Torricelli,Kombio-Arapesh,Papua New Guinea
Arara_do_Acre [adc],-8.841,-72.315,#B7767A,Panoan,Southern Panoan,Brazil
Arara_do_Mato_Grosso [axg],-9.5,-60,#8181A5,Arara_do_Mato_Grosso,,Brazil
Arara_do_Para [aap-2],-4.24,-53.34,#9A8BA2,Cariban,Pekodian,Brazil
Arára_Pará [aap],-4.2422,-53.3745,#9D85A5,Cariban,Pekodian,Brazil
Araucanian lg [arn-2],-43,-73.5,#6C7AA0,Araucanian,,Chile
Arawak [arw],5.64,-56.92,#AC7875,Arawak,Northern Maipuran,Guyana
Araweté [awt],-4.142017,-52.416914,#B68599,Tupian,Tupi-Guarani,Brazil
Arbanasi [aln-3],44.11,15.23,#728989,Indo-European,Albanian,Croatia
Arbëresh [als-2],37.995,13.283,#5E7A6B,Indo-European,Albanian,Italy
Arbëresh Kundisa [als-10],37.73,13.18,#6C8A60,Indo-European,Albanian,Italy
Arbëresh_Pianese [als-8],37.8,12.8,#689359,Indo-European,Albanian,Italy
Arbore [arv],4.92,36.8,#6B6C59,Afro-Asiatic,Cushitic,Ethiopia
Archi [aqc],42.07,46.86,#7D7440,Nakh-Daghestanian,Lezgic,Russia
Arctic Bay_Inuit [ikt],73.036,-85.15,#B4848C,Eskimo-Aleut,Eskimo,Canada
Are [mwc],-9.67,150,#B38095,Oceanic,Western Oceanic,Papua New Guinea
Are'are [alu],-9.342,161.203,#B9838E,Oceanic,Southeast Solomonic,Solomons
Arem [aem],18.15,105.5,#326990,Austroasiatic,Vietic,Laos
Argobba [agj],10.66,39.76,#88876F,Afro-Asiatic,Semitic,Ethiopia
Arguni [agf],-2.667,132.5,#7064B1,Malayo-Polynesian,Eastern Malayo-Polynesian,Indonesia-Papua
Ari [aac],-7.916,142.34,#B16B86,Papuan Gulf,Gogodala-Suki,Papua New Guinea
Aribwatsa [laz],-6.667,146.917,#9B679E,Oceanic,Western Oceanic,Papua New Guinea
Aribwaungg [ylu],-6.592,146.874,#7C56B1,Oceanic,Western Oceanic,Papua New Guinea
Arifama-Miniafia [aai],-9.142,149.279,#BC7875,Oceanic,Western Oceanic,Papua New Guinea
Arikapu [ark],-13,-62.5,#A98D9F,Macro-Je,Jabutí,Brazil
Arikara [ari],40,-97,#C38B6F,Caddoan,Northern Caddoan,USA
Aringa [luc],3,31,#4F4C82,Nilo-Saharan,Central Sudanic,Uganda
Aritinngithigh [rrt],-13,141.67,#6C8A90,Pama-Nyungan,Paman,Australia
Arizona Tewa [tew],35.8,-110.4,#8D7A84,Kiowa-Tanoan,Tewa,USA
Armenian [hye],40,45,#8D7767,Indo-European,Armenian,Armenia
Armenian_Agulis [hye-2],38.95,45.98,#8C8367,Indo-European,Armenian,Azerbaijan
Armenian_Aslanberg [hyw-7],41.2,30.5,#978C72,Indo-European,Armenian,Turkey
Armenian_Karabakh [hye-4],39.76,46.75,#768272,Indo-European,Armenian,Azerbaijan
Armenian_Karin [hye-5],40.79,43.85,#8B7862,Indo-European,Armenian,Azerbaijan
Armenian_Kharpert [hyw-6],38.67,39.22,#8C8367,Indo-European,Armenian,Armenia
Armenian_Khodorjur [hyw-3],40.73,41.2,#8D7E67,Indo-European,Armenian,Turkey
Armenian_Malatya [hyw-5],38.35,38.3,#928B79,Indo-European,Armenian,Turkey
Armenian_Sebastia [hyw-4],39.75,37.02,#8A8060,Indo-European,Armenian,Armenia
Armenian_Van [hyw-8],38.49,43.38,#968A6C,Indo-European,Armenian,Turkey
Armenian_Western [hyw],40,40,#928A7A,Indo-European,Armenian,Turkey
Armenian_Yerevan [hye-3],40.18,44.52,#918267,Indo-European,Armenian,Armenia
Aromanian [rup],42,23,#94827A,Indo-European,Romance,Bulgaria
Aromanian-2 [rup-2],39.77,21.1,#6F9864,Indo-European,Romance,Greece
Arop-Lokep [apr],-5.333,147.083,#9780A5,Oceanic,Western Oceanic,Papua New Guinea
Arosi [aia],-10.333,161.5,#9C66B1,Oceanic,Southeast Solomonic,Solomons
Arpitan [frp-3],45.17,5.72,#63937F,Indo-European,Romance,France
Arrernte_Central [are],-22.85,133.7,#627A61,Pama-Nyungan,Arandic,Australia
Arrernte_Eastern [are-2],-23.292,134.445,#507F6F,Pama-Nyungan,Arandic,Australia
Arrernte_Mparntwe [aer],-24,136,#597D6E,Pama-Nyungan,Arandic,Australia
Arrernte_Pertame [xxx-57],-24.5,132,#518269,Pama-Nyungan,Arandic,Australia
Arta [atz],16.42,121.66,#9A7899,Malayo-Polynesian,Philippines,Philippines
Arutani [atx],4.06,-62.88,#B98891,Arutani–Sape,,Brazil
Arvanitika [als-3],38.42,23.08,#5B797B,Indo-European,Albanian,Greece
As [asz],-0.722,131.787,#A5747D,Malayo-Polynesian,Eastern Malayo-Polynesian,Indonesia-Papua
Asaro_Upper [aso],-5.967,145.292,#9F6374,Trans New Guinea,Morobe-Eastern Highlands,Papua New Guinea
Asharon [acz],10.8,30.3,#5C8BAD,Talodi-Heiban,Talodi,Sudan
Ashe [ahs],9.37,7.39,#5C6F7C,Niger-Kongo,Atlantic-Congo,Nigeria
Asheninka_Apurucayali [cpc],-10.018,-74.793,#AA7C79,Arawak,Southern Maipuran,Peru
Ashéninka_Perené [prq],-10.8734,-75.245,#A48287,Arawak,Southern Maipuran,Peru
Ashéninka_Pichis [cpu],-9.9833,-74.9833,#8C8A75,Arawak,Southern Maipuran,Peru
Ashéninka_Ucayali-Yurúa [cpb],-10.1619,-74.0234,#8F7071,Arawak,Southern Maipuran,Brazil
Ashkun [ask],34.84,70.37,#718063,Indo-European,Indo-Iranian,Afghanistan
Asho [csh-3],22.91,93.68,#3B88B4,Tibeto-Burman,Kuki-Chin-Naga,Myanmar
Ashuku [nza-2],6.98,10.71,#649383,Niger-Kongo,Atlantic-Congo,Nigeria
Ashuslay [cag-2],-23.5,-60.5,#8A8A93,Matacoan,Mataguayo I,Paraguay
Asi [bno-2],12.95,122.08,#A97C83,Malayo-Polynesian,Philippines,Philippines
Asienara [asi],-3.75,133.33,#B87A85,Trans New Guinea,Asmat-Kamoro,Indonesia-Papua
Asilulu [asl],-3.67,127.95,#B9838A,Malayo-Polynesian,Central Maluku,Indonesia-Maluku-north
Asmat [asc],-5.3,138.3,#B97E8B,Trans New Guinea,Asmat-Kamoro,Indonesia-Papua
Asmat_North [nks],-5,138.5,#BB8389,Trans New Guinea,Asmat-Kamoro,Indonesia-Papua
Assamese [asm],26.5,93,#6B8C7D,Indo-European,Indo-Iranian,India
Assamese_Dudhnoi [asm-10],26,90.8,#6C8D6B,Indo-European,Indo-Iranian,India
Assiniboine [asb],49,-100,#AD7B93,Siouan,Western Siouan,Canada
Asturian [ast],43.33,-6,#8F7D6A,Indo-European,Romance,Spain
Asumboa [aua],-11.296,166.496,#7A59C2,Oceanic,Te Motu,Solomons_East
Asur [asr-2],21.57,83.46,#627167,Austroasiatic,Munda,India
Asuri [asr],23.04,84.54,#918480,Austroasiatic,Munda,India
Asurini [asu],-3.3,-49.3,#A47DAE,Tupian,Tupi-Guarani,Brazil
Asuriní_Tocantins [asu-2],-3.3,-50,#B682AB,Tupian,Tupi-Guarani,Brazil
Asuriní_Xingú [asn],-4.13,-52.32,#A17DB1,Tupian,Tupi-Guarani,Brazil
Ata [ata],-5.667,151,#AE7CA4,Ata,,Papua New Guinea-Bismarcks
Ata_Manobo [atd],7.845,125.506,#A477A0,Malayo-Polynesian,Philippines,Philippines
Atacameño [kuz],-23,-69,#A0837E,Atacameño,,Chile
Atadei [slp-3],-8.46,123.555,#8B809E,Malayo-Polynesian,Timoric,Indonesia-NTT
Atakapa [aqp],30,-93,#A384A3,Atakapa,,USA
Atamanu [jal],-3.396,129.313,#A07B8C,Malayo-Polynesian,Central Maluku,Indonesia-Maluku-north
Atampaya [amz],-11.33,142.5,#687084,Pama-Nyungan,Paman,Australia
Atayal [tay],24.5,121,#989196,Austronesian,Atayalic,Taiwan
Atchin [upv],-16,167.333,#7062AC,Oceanic,Southern Oceanic,Vanuatu
Ateso [teo],1.915,33.955,#5B6267,Nilo-Saharan,Eastern Sudanic,Uganda
Athpare [aph],26.75,87.33,#736B97,Tibeto-Burman,Kiranti,Nepal
Atikamekw [atj],48,-74,#BF8281,Algic,Algonquian,Canada
Atong [aot],25.5,90.5,#797EAB,Tibeto-Burman,Bodo-Garo,India
Atsawaka [atc],-14.17,-69.5,#B58282,Panoan,Southern Panoan,Peru
Atsi [atb-2],28,93.5,#3C8391,Tibeto-Burman,Lolo-Burmese,India
Atsugewi [atw],40.75,-121,#8C83B1,Palaihnihan,,USA
Atta_Pamplona-1 [att-2],18.46,121.341,#B07985,Malayo-Polynesian,Philippines,Philippines
Atta_Pamplona-2 [att],18.458,121.342,#A4787C,Malayo-Polynesian,Philippines,Philippines
Attie [ati],6,-3.82,#509359,Niger-Kongo,Atlantic-Congo,Côte d'Ivoire
Au [avt],-3.5,142.083,#B49A87,Torricelli,Central Torricelli,Papua New Guinea
Auhelawa [kud],-10.284,151.02,#A162B8,Oceanic,Western Oceanic,Papua New Guinea
Aujila [auj],29.23,21.18,#9B872A,Afro-Asiatic,Berber,Libya
Aulua [aul],-16.33,167.694,#6954AA,Oceanic,Southern Oceanic,Vanuatu
Aurland [nob-3],60.87,7.23,#4E997D,Indo-European,Germanic,Norway
Austral [aut],-23.377,-149.498,#B17099,Oceanic,Central Pacific,French Polynesia
Auyana [auy],-6.523,145.708,#9D756B,Trans New Guinea,Morobe-Eastern Highlands,Papua New Guinea
Auye [auu],-3.495,136.002,#A2747C,Trans New Guinea,Western Trans New Guinea,Indonesia-Papua
Avá-Canoeiro [avv],-13.166403,-47.928611,#9D8DA9,Tupian,Tupi-Guarani,Brazil
Avar [ava],42.54,46.7,#968265,Nakh-Daghestanian,Avar-Andi,Russia
Avatime [avn],6.85,0.44,#587599,Niger-Kongo,Atlantic-Congo,Ghana
Avava [tmb],-16.224,167.523,#7E5AC3,Oceanic,Southern Oceanic,Vanuatu
Aveteian [dix],-16.443,167.43,#7C65BF,Oceanic,Southern Oceanic,Vanuatu
Avikam [avi],5.16,-5.25,#937F44,Niger-Kongo,Atlantic-Congo,Côte d'Ivoire
Avok [xxx-59],-16.53,167.7,#6658C2,Oceanic,Southern Oceanic,Vanuatu
Avok_Maxbaxo [xxx-103],-16.496,167.665,#6B63D2,Oceanic,Southern Oceanic,Vanuatu
Avokaya [avu],5,30.2,#475576,Nilo-Saharan,Central Sudanic,South Sudan
Awa [awb],-6.75,145.667,#978E86,Trans New Guinea,Morobe-Eastern Highlands,Papua New Guinea
Awa Pit [kwi],0.75,-78.5,#888491,Barbacoan,Northern Barbacoan,Ecuador
Awabakal [awk],-33.05,151.55,#8F878D,Pama-Nyungan,Yuin-Kuri,Australia
Awad Bing [bcu],-5.584,146.349,#A0788B,Oceanic,Western Oceanic,Papua New Guinea
Awadhi [awa],27.5,81.5,#547D64,Indo-European,Indo-Iranian,India
Awak [awo],9.86,11.33,#45805E,Niger-Kongo,Atlantic-Congo,Nigeria
Awar [aya],-4,144.625,#7D7EA3,Lower Sepik-Ramu,Ramu,Papua New Guinea
Awara [awx],-6.094,146.441,#906BC1,Trans New Guinea,Morobe-Eastern Highlands,Papua New Guinea
Awbono [awh],-5.119,139.201,#B18786,Bayono-Awbono,,Indonesia-Papua
Aweer [orm],-1.717,40.967,#826F88,Afro-Asiatic,Cushitic,Kenya
Awera [awr],-2.677,136.242,#BE7E87,Lakes Plains,Western Lakes Plains,Indonesia-Papua
Awetí [awe],-12.926,-54.277,#9789A6,Tupian,Aweti,Brazil
Awiakay [afp],-4.672,143.712,#8675A3,Arafundi,,Papua New Guinea
Awin [awi],-5.833,142.5,#8E6B83,Trans New Guinea,Awin-Pa,Papua New Guinea
Awing [azo],5.88,10.24,#8E86A8,Niger-Kongo,Atlantic-Congo,Cameroon
Awiya [som-2],10.851,36.892,#46727C,Afro-Asiatic,Cushitic,Ethiopia
Awngi [awn],10.83,36.67,#5F7C88,Afro-Asiatic,Cushitic,Ethiopia
Awngthim [gwm],-12.54,141.98,#557491,Pama-Nyungan,Paman,Australia
Awtuw [kmn],-3.5,141.917,#8A9494,Sepik,Ram,Papua New Guinea
Awu Alaya [typ-2],-14.83,143.32,#5B7398,Pama-Nyungan,Paman,Australia
Awutu [afu],5.42,-0.6,#3C9A8E,Niger-Kongo,Atlantic-Congo,Ghana
Awyi [auw],-3,140.75,#A277A4,Trans New Guinea,Border,Papua New Guinea
Axi [yix-2],24.4,103.44,#3F7B83,Tibeto-Burman,Lolo-Burmese,China
Axininca [cpc-2],-9,-75,#9D7F7B,Arawak,Southern Maipuran,Peru
Ayapathu [ayd-2],-14.29,143.11,#7F8090,Pama-Nyungan,Paman,Australia
Ayere [aye],7.52,6.02,#606C6C,Niger-Kongo,Atlantic-Congo,Nigeria
Ayerrerenge [axe],-22.5,137.36,#678172,Pama-Nyungan,Arandic,Australia
Aymara [ayr],-16,-69.5,#91787B,Aymaran,Aymara,Peru
Aymara_Carangas [ayr-3],-18.45,-67.45,#7E7885,Aymaran,Aymara,Bolivia
Aymara_Chile [ayc],-19.15,-69.4,#796F6D,Aymaran,Aymara,Chile
Aymara_Muylaq' [ayr-2],-16.675,-70.712,#917779,Aymaran,Aymara,Peru
Äynu [aib],38.069,76.227,#8C828B,Turkic,Common Turkic,China
Ayoré [ayo],-20.5,-59.25,#7F6EC7,Zamucoan,,Paraguay
Ayu [ayu],9.26,8.6,#587B63,Niger-Kongo,Atlantic-Congo,Nigeria
Azerbaijani [azj],40.5,48.5,#888B8D,Turkic,Common Turkic,Azerbaijan
Azerbaijani_Tabriz [azj-3],38.07,46.3,#968B8A,Turkic,Common Turkic,Azerbaijan
Azeri [azb],40.67,47.75,#878B7F,Turkic,Common Turkic,Azerbaijan
Azha [aza],23.37,104.25,#3E7A94,Tibeto-Burman,Lolo-Burmese,China
Azhe [yiz],24.2,103.6,#367B82,Tibeto-Burman,Lolo-Burmese,China
B'lit_Manobo [mta],6.39,124.23,#A38399,Malayo-Polynesian,Philippines,Philippines
Ba:ngingi_Sama [sse],6.133,121.805,#8F6F9F,Malayo-Polynesian,Barito,Philippines
Baagandji [drl],-32,142.533,#678369,Pama-Nyungan,Yarli-Baagandji,Australia
Baale [koe],5,36,#5D6B61,Nilo-Saharan,Eastern Sudanic,South Sudan
Baangi [bqx],10.81,5.73,#628767,Niger-Kongo,Atlantic-Congo,Nigeria
Baarin [mon-2],43.53,118.67,#808FBD,Mongolic,Core Mongolic,China
Baatonum [bba-2],9.63,3,#8B7070,Niger-Kongo,Atlantic-Congo,Benin
Baba [bbw],6.11,10.52,#568D80,Niger-Kongo,Atlantic-Congo,Cameroon
Babanki [bbk],6.104,10.311,#4E866E,Niger-Kongo,Atlantic-Congo,Cameroon
Babar_North [bcd],-7.83,129.58,#B07481,Malayo-Polynesian,Southeast Maluku,Indonesia-Maluku-south
Babar_Southeast [vbb],-7.92,129.67,#B0827E,Malayo-Polynesian,Southeast Maluku,Indonesia-Maluku-south
Babatana [baa],-7.397,157.37,#8B6EA5,Oceanic,Western Oceanic,Solomons
Babine-Witsuwit'en [bcr],55,-127,#848D78,Dene-Yeniseic,Na-Dene,Canada
Babungo [bav],6.12,10.42,#4BA259,Niger-Kongo,Atlantic-Congo,Cameroon
Babuza [bzg-2],24,120.58,#AC7C79,Austronesian,Western Plains,Taiwan
Baca [baf],4.36,11.03,#5B6896,Niger-Kongo,Atlantic-Congo,Cameroon
Bachamal [wdj-2],-13.17,130.17,#5F7C9C,Wagaydyic,Wadjiginy,Australia
Bada [bhz],-1.793,120.313,#815C96,Malayo-Polynesian,Celebic,Indonesia-Sulawesi
Badaga [bfq],11.31,76.6,#65705D,Dravidian,South Dravidian,India
Bade [bde],12.79,10.66,#558560,Afro-Asiatic,Chadic,Nigeria
Bade-2 [bde-2],12,12,#827A96,Afro-Asiatic,Chadic,Nigeria
Badeng [xkl-3],3.17,115.22,#8865B1,Malayo-Polynesian,North Borneo,Malaysia-Borneo
Badimaya [bia],-27.667,119,#65866A,Pama-Nyungan,Kardu,Australia
Badjala [xby],-25.084,152.529,#7E837D,Pama-Nyungan,Waka-Kabic,Australia
Badjiri [jbi],-28.79,145.47,#5F7C68,Pama-Nyungan,Karnic,Australia
Badyara [pbp],11.633,-13.4,#695D9C,Niger-Kongo,Atlantic-Congo,Guinea
Baelelea [bvc],-8.453,160.66,#9063AE,Oceanic,Southeast Solomonic,Solomons
Baenggu [bvd],-8.506,160.706,#9463AD,Oceanic,Southeast Solomonic,Solomons
Baetora [btr],-15.258,168.166,#A56591,Oceanic,Southern Oceanic,Vanuatu
Bafang [cmn-68],35.6,103.217,#40A39A,Tibeto-Burman,Sinitic,China
Bafanji [bfj-2],5.84,10.46,#506BAB,Niger-Kongo,Atlantic-Congo,Cameroon
Bafia [ksf],4.73,11.1,#4B757D,Niger-Kongo,Atlantic-Congo,Cameroon
Bafo [bwt],6.351,10.229,#618B76,Niger-Kongo,Atlantic-Congo,Cameroon
Bafut [bfd],6.083,10.0999,#536386,Niger-Kongo,Atlantic-Congo,Cameroon
Baga_Koga [bgo],10.13,-13.95,#62639F,Niger-Kongo,Atlantic-Congo,Guinea
Baga_Mboteni [bcg],10.83,-14.55,#7B7DA8,Niger-Kongo,Atlantic-Congo,Guinea
Baga_Sitemu [bsp],10.48,-14.48,#828395,Niger-Kongo,Atlantic-Congo,Guinea
Bagheli [bfy],24.35,81.43,#4F8272,Indo-European,Indo-Iranian,India
Bagirmi [bmi],10.202,17,#436277,Nilo-Saharan,Central Sudanic,Chad
Bagri [bgq],29.6,74.3,#398456,Indo-European,Indo-Iranian,India
Baguiro_Zangba [bmi-2],7.29,18.82,#3F735B,Nilo-Saharan,Central Sudanic,Central African Republic
Bagulal [kva],42.56,46.17,#8C7762,Nakh-Daghestanian,Avar-Andi,Russia
Bagusa [bqb],-1.905,137.932,#B6869A,Tor-Kwerba,West Foya Range,Indonesia-Papua
Baharnah [afb-4],26.03,50.55,#A58435,Afro-Asiatic,Semitic,Bahrain
Bahau [bhv],0.06,115.65,#9B7797,Malayo-Polynesian,North Borneo,Indonesia-Kalimantan
Bahinemo [bjh],-4.435,142.726,#B38585,Sepik,Sepik Hill,Papua New Guinea
Bahing [bhj],27.27,86.56,#5690AD,Tibeto-Burman,Kiranti,Nepal
Bahnar [bdq],14,108.5,#6880A7,Austroasiatic,Bahnaric,Vietnam
Bahonsuai [bsu],-2.23,121.71,#97528A,Malayo-Polynesian,Celebic,Indonesia-Sulawesi
Bai [bca],26,100,#368A83,Tibeto-Burman,Macro-Bai,China
Bai_Eryuan [bca-2],26.12,99.95,#32A195,Tibeto-Burman,Macro-Bai,China
Bai_Heqing [bca-3],26.56,100.18,#38A396,Tibeto-Burman,Macro-Bai,China
Bai_Lanping [bca-4],26.45,99.42,#3DA194,Tibeto-Burman,Macro-Bai,China
Bai_Luobenzhuo [bca-5],26.42,98.89,#20999A,Tibeto-Burman,Macro-Bai,China
Bai_Qiliqiao [bca-6],25.65,100.18,#3DA192,Tibeto-Burman,Macro-Bai,China
Bai_Xiangyun [bca-7],25.48,100.55,#3EA194,Tibeto-Burman,Macro-Bai,China
Bai_Xishan [bca-10],25.53,100.45,#1D8C8B,Tibeto-Burman,Macro-Bai,China
Bai_Yunlong [bca-8],25.88,99.37,#32A091,Tibeto-Burman,Macro-Bai,China
Bai_Zhoucheng [bca-9],24.48,101.34,#389F94,Tibeto-Burman,Macro-Bai,China
Baikeno [bkx],-9.3,124.32,#BA8291,Malayo-Polynesian,Timoric,Timor leste
Baima [bqh],30.32,107.34,#28A286,Tibeto-Burman,Bodic,China
Bainapi [dby],-7.904,142.715,#B07D95,Papuan Gulf,Strickland,Papua New Guinea
Baining [gcc-2],-4.6,152,#988199,Baining,,Papua New Guinea-Bismarcks
Baiso [bsw-3],6.45,37.77,#786B83,Afro-Asiatic,Cushitic,Somalia
Bajau_Semporna [ssb],4.5,118.5,#9184A3,Malayo-Polynesian,Barito,Indonesia-Kalimantan
Bajau_Sulawesi [bdl-2],-3.75,122.5,#8A82B3,Malayo-Polynesian,Barito,Indonesia-Sulawesi
Bajo_Kangean [bdl],-7.17,115.82,#6168A6,Malayo-Polynesian,Barito,Indonesia-Kalimantan
Bajuni [swh-2],-1,42.04,#5A5F7B,Niger-Kongo,Atlantic-Congo,Somalia
Baka [bdh],4.8,31.6,#394D89,Nilo-Saharan,Central Sudanic,South Sudan
Baka [bkc],2.16,13.78,#55695F,Ubangian,Sere-Mba,Cameroon
Bakairí [bkq],-14,-55,#A98392,Cariban,Pekodian,Brazil
Bakairí_East [bkq-3],-14.43,-54.025,#AE7E8D,Cariban,Pekodian,Brazil
Bakairí_West [bkq-2],-14.7302,-56.2479,#A98D97,Cariban,Pekodian,Brazil
Bakaka [bqz],4.8,9.8,#746E89,Niger-Kongo,Atlantic-Congo,Cameroon
Bakhtiari [ldd],31.92,50.86,#A7826C,Indo-European,Indo-Iranian,Iran
Baki [bki],-16.717,168.138,#7A65AD,Oceanic,Southern Oceanic,Vanuatu
Bakoko [bkh],4.2,9.67,#50796F,Niger-Kongo,Atlantic-Congo,Cameroon
Bakole [kme],4.44,8.97,#4A5BAC,Niger-Kongo,Atlantic-Congo,Cameroon
Bakumpai [bkr],-1.988,114.7,#8F77A4,Malayo-Polynesian,Barito,Indonesia-Kalimantan
Balaesang [bls],-0.06,119.69,#9C7794,Malayo-Polynesian,Celebic,Indonesia-Sulawesi
Balami [new-4],27.801,85.25,#4683A5,Tibeto-Burman,Newaric,Nepal
Balangao [blw],17.167,120.333,#9F83AB,Malayo-Polynesian,Philippines,Philippines
Balanta [ble],12,-15,#6B7664,Niger-Kongo,Atlantic-Congo,Guinea Bissau
Balantak [blz],-0.82,123.431,#927C9C,Malayo-Polynesian,Celebic,Indonesia-Sulawesi
Balante_Sofa [bjt],12.54,-15.67,#5E6E77,Niger-Kongo,Atlantic-Congo,Guinea Bissau
Balawaia [snc-2],-9.98,147.865,#B97598,Oceanic,Western Oceanic,Papua New Guinea
Balearic [cat-2],39.5,3,#608C80,Indo-European,Romance,Spain
Balendru [led],1.968,30.485,#495D55,Nilo-Saharan,Central Sudanic,Democratic Republic of the Congo
Bali-Vitu [wiv],-4.733,149.283,#9B6A9B,Oceanic,Western Oceanic,Papua New Guinea-Bismarcks
Balinese [ban],-8.583,115.25,#6A8492,Malayo-Polynesian,Malayo-Sumbawan,Indonesia-NTB
Balingian [mel-7],2.92,112.53,#887A9D,Malayo-Polynesian,Malayo-Sumbawan,Malaysia-Borneo
Balochi [bgp-2],27,63.5,#7F965D,Indo-European,Indo-Iranian,Pakistan
Balti [bft],35.2,76,#58816A,Tibeto-Burman,Bodic,Pakistan
Baluchi [bgp],27.2,60.68,#8F7360,Indo-European,Indo-Iranian,Iran
Balui Liko [ree-3],1.92,114.52,#8B739C,Malayo-Polynesian,North Borneo,Malaysia-Borneo
Bam [bmc],-3.61,144.82,#89789F,Oceanic,Western Oceanic,Papua New Guinea
Bambalang [bmo],5.86,10.54,#4A6C9C,Niger-Kongo,Atlantic-Congo,Cameroon
Bambara [bam],12.5,-7.5,#69737B,Mande,Western Mande,Mali
Bamenyam [bce],5.77,10.33,#509196,Niger-Kongo,Atlantic-Congo,Cameroon
Bamu [bcf],-8,143.833,#B8778C,Kiwaian,Bamu,Papua New Guinea
Bamun [bax],5.726,10.904,#416973,Niger-Kongo,Atlantic-Congo,Cameroon
Bamunka [bvm],6,10.51,#5E8E89,Niger-Kongo,Atlantic-Congo,Cameroon
Bana [bcw],10.42,13.58,#6E5D85,Afro-Asiatic,Chadic,Cameroon
Banam Bay [vrt-2],-16.41,167.78,#7E61D4,Oceanic,Southern Oceanic,Vanuatu
Banda [bnd],-5.25,133.17,#8A6C86,Malayo-Polynesian,Central Maluku,Indonesia-Maluku-north
Banda [bpd],2,22,#536562,Ubangian,Bandaic,Central African Republic
Banda_Ndele [bfl],8.03,23.9,#556A63,Ubangian,Bandaic,Central African Republic
Bandi [bza],7.74,-10.17,#5E6C74,Mande,Western Mande,Liberia
Bandiaal [bqj-2],13.02,-15.32,#7D77B7,Niger-Kongo,Atlantic-Congo,Senegal
Bandjalang [bdy],-28.74,153.01,#8E8F90,Pama-Nyungan,Yugambeh-Bundjalung,Australia
Bandjalang-2 [bdy-4],-28.39,152.61,#8E8F90,Pama-Nyungan,Yugambeh-Bundjalung,Australia
Bandjalang-Gidabal [bdy-2],-28.25,152,#8D898F,Pama-Nyungan,Yugambeh-Bundjalung,Australia
Bandjigali [bjd],-30.08,143.28,#67826B,Pama-Nyungan,Yarli-Baagandji,Australia
Banggai [bgz],-1.42,123.17,#815FA6,Malayo-Polynesian,Celebic,Indonesia-Sulawesi
Banggime [dbb],14.78,-3.76,#569183,Banggime,,Mali
Bangla Rahri Upobhasa [ben-12],23.24,87.86,#657965,Indo-European,Indo-Iranian,Bangladesh
Bangla_Mymensingh [ben-11],24.75,90.4,#9B8C7D,Indo-European,Indo-Iranian,Bangladesh
Bangolan [bgj],6.05,10.45,#8C8595,Niger-Kongo,Atlantic-Congo,Cameroon
Bangru [hru-3],27.9,93.35,#718CAB,Tibeto-Burman,Hrusish,India
Bangubangu [bnx],-4.689,27.693,#94637F,Niger-Kongo,Atlantic-Congo,Democratic Republic of the Congo
Baniwa_Central [bwi],1.4091,-68.1358,#92787F,Arawak,Northern Maipuran,Brazil
Baniwa_do_Içana [bwi-2],2.18,-67.77,#6A78A3,Arawak,Northern Maipuran,Brazil
Baniwa_Rio_Negro [bwi-3],0.053,-67.43,#9C7A64,Arawak,Northern Maipuran,Brazil
Baniwa_Siusi [bwi-4],2.19,-67.76,#5F7DA9,Arawak,Northern Maipuran,Brazil
Banjar [bjn],0.75,115.79,#887C8B,Malayo-Polynesian,Malayo-Sumbawan,Indonesia-Kalimantan
Banjari [lmn-2],16.5,77.455,#5C726F,Indo-European,Indo-Iranian,India
Bankariya [cdm-2],27.5,85,#437585,Tibeto-Burman,Chepang,Nepal
Bankon [abb],4.37,9.64,#445F9E,Niger-Kongo,Atlantic-Congo,Cameroon
Banoni [bcm],-6.417,155.25,#A1738A,Oceanic,Western Oceanic,Papua New Guinea-Bougainville
Bantang [pho-6],21.75,102.25,#489194,Tibeto-Burman,Lolo-Burmese,Laos
Bantawa [bap],27.2,87.1,#6B8EA3,Tibeto-Burman,Kiranti,Nepal
Banten [sun-2],-6.35,106.1,#7387A0,Malayo-Polynesian,Malayo-Sumbawan,Indonesia-Java
Bantik [bnq],1.564,124.859,#A17DA0,Malayo-Polynesian,Philippines,Indonesia-Sulawesi
Bantoanon [bno],12.784,122.049,#A77F83,Malayo-Polynesian,Philippines,Philippines
Banyaduq [byd],0.5,110,#787EA0,Malayo-Polynesian,Malayo-Sumbawan,Indonesia-Kalimantan
Banyum [bab],11.497,-16.5,#7281AB,Niger-Kongo,Atlantic-Congo,Guinea Bissau
Banyun [bcb-2],12.75,-16.3,#707FA8,Niger-Kongo,Atlantic-Congo,Senegal
Baoan [peh],35.05,102.1,#589493,Mongolic,Core Mongolic,China
Baoan [yue-20],22.55,113.9,#4BA68E,Tibeto-Burman,Sinitic,China
Baoan_Dahejia [peh-2],35.72,102.88,#6F8FB2,Mongolic,Core Mongolic,China
Baoan_Dongxiang [peh-5],35.6,103.22,#6592AC,Mongolic,Core Mongolic,China
Baoan_Kangjia [peh-4],35.04,101.25,#6D8AAC,Mongolic,Core Mongolic,China
Baoan_Ñantoq [peh-3],35.41,102.08,#6B92AB,Mongolic,Core Mongolic,China
Bará [bao],0.1,-70.45,#C7896B,Tucanoan,East Tucanoan,Colombia
Baraba [tat-3],55.333,78.333,#7E92A5,Turkic,Common Turkic,Russia
Barai [bbb],-9.417,148,#AC6B75,Southeast Papuan,Owen Stanley Ranges,Papua New Guinea
Barain_Giliya [bva-2],12.08,18.58,#787F7E,Afro-Asiatic,Chadic,Chad
Barain_Jalking [bva-3],12.22,18.8,#787D7F,Afro-Asiatic,Chadic,Chad
Barain_Jalkiya [bva],12.18,18.68,#716C72,Afro-Asiatic,Chadic,Chad
Barain_Komiya [bva-4],12.17,18.75,#766475,Afro-Asiatic,Chadic,Chad
Baram [brd],27.95,85,#648E9C,Tibeto-Burman,Western Himalayan,Nepal
Barang-barang [lji],-6.4,120.5,#737B98,Malayo-Polynesian,Celebic,Indonesia-Sulawesi
Barapa Barapa [rbp],-35.95,144.32,#528184,Pama-Nyungan,Kulinic,Australia
Barapasi [brp],-2.247,136.995,#A1796F,Geelvink Bay,Barapasi-Sauri-Kofei,Indonesia-Papua
Barasano [bsn],-0.25,-70.75,#BA825A,Tucanoan,East Tucanoan,Colombia
Bardi [bcj],-16.58,122.92,#71876F,Nyulnyul,West Nyulnyul,Australia
Baré [bae],1.6,-66.8,#8671C3,Arawak,Northern Maipuran,Venezuela
Bareke [mpr],-8.543,158.113,#976A92,Oceanic,Western Oceanic,Solomons
Barese [ita-47],41.1,16.9,#6C9B87,Indo-European,Romance,Italy
Bargam [mlp],-4.87,145.76,#88938E,Trans New Guinea,Madang,Papua New Guinea
Bari [bfa],3.8,31,#4D5888,Nilo-Saharan,Eastern Sudanic,South Sudan
Barí [mot],9,-73.5,#A77774,Chibchan,Core Chibchan,Venezuela
Bariai [bch],-5.497,148.63,#9B8B8A,Oceanic,Western Oceanic,Papua New Guinea
Bariba [bba],10.217,2.667,#74845A,Niger-Kongo,Atlantic-Congo,Benin
Bariji [bjc],-9.211,148.401,#B77C70,Southeast Papuan,Owen Stanley Ranges,Papua New Guinea
Barman Thar [xxx-108],25.899,89.899,#897697,Tibeto-Burman,Bodo-Garo,India
Barok [bjk],-3.48,152.19,#A17BA4,Oceanic,Western Oceanic,Papua New Guinea-Bismarcks
Barranbinya [zmu-2],-30.1,145.93,#5E855D,Pama-Nyungan,Muruwari,Australia
Barranquenho [por-3],38.13,-6.975,#888C87,Indo-European,Romance,Portugal
Barrow_Point [bpt],-14.373,144.63,#6A8097,Pama-Nyungan,Paman,Australia
Baruga [bjz],-9.328,148.734,#B67671,Trans New Guinea,Oro-Wharton,Papua New Guinea
Barunggam [xxx-47],-26.25,151.25,#8E8597,Pama-Nyungan,Waka-Kabic,Australia
Barupu [wra],-3.083,142.083,#72B552,Skou,Eastern Skou,Papua New Guinea
Baruya [byr],-6.917,145.833,#7A8A86,Trans New Guinea,Morobe-Eastern Highlands,Papua New Guinea
Basà [bzw],8.03,7.06,#576B70,Niger-Kongo,Atlantic-Congo,Nigeria
Basaa [bas],5,10.15,#526A90,Niger-Kongo,Atlantic-Congo,Cameroon
Basap [bdb],0.91,117.56,#9C7095,Malayo-Polynesian,Basap,Indonesia-Kalimantan
Basari [bsc],12.25,-13,#4D67BA,Niger-Kongo,Atlantic-Congo,Senegal
Basay [byq-2],25,121.86,#968878,Austronesian,East Formosan,Taiwan
Basay_Trobriawan [byq],25,122,#B1809F,Austronesian,East Formosan,Taiwan
Basel [gsw-4],47.56,7.59,#6E8F81,Indo-European,Germanic,Switzerland
Bashkarik [gwc-3],35.358,72.137,#52807D,Indo-European,Indo-Iranian,Pakistan
Bashkir [bak],53,58,#7B818C,Turkic,Common Turkic,Russia
Basila [ade],8.17,0.62,#41816F,Niger-Kongo,Atlantic-Congo,Benin
Basketo [bst],6.384,36.651,#887B7B,Afro-Asiatic,Omotic,Ethiopia
Basque [eus],42.82,-1.95,#6CA172,Basque,,Spain
Basque_Arbizu [eus-4],42.9,-2,#6B8958,Basque,,Spain
Basque_Baztan [eus-10],43.2,1.47,#598E61,Basque,,Spain
Basque_Baztan [eus-9],43.2,-1.5,#6B895A,Basque,,Spain
Basque_Gernika [eus-3],43.3,-2.7,#6D8759,Basque,,Spain
Basque_Lekeitio [eus-2],43.365,-2.51,#829562,Basque,,Spain
Basque_Navarro [bqe],43.17,-1.24,#698D73,Basque,,France
Basque_Ondarroa [eus-7],43.3,-2.4,#70885D,Basque,,Spain
Bassa [bsq],7.26,-7.22,#537777,Niger-Kongo,Atlantic-Congo,Côte d'Ivoire
Basseri [pes-7],29.61,52.54,#A27477,Indo-European,Indo-Iranian,Iran
Bassossi [bsi],5.24,9.52,#667091,Niger-Kongo,Atlantic-Congo,Cameroon
Bata [bta],9.7,12.5,#765F64,Afro-Asiatic,Chadic,Nigeria
Batak_Dairi [btd],2.546,98.3,#957DA1,Malayo-Polynesian,Batak-Barrier Islands,Indonesia-Sumatra
Batak_Karo [btx],3,98.167,#7C8BAB,Malayo-Polynesian,Batak-Barrier Islands,Indonesia-Sumatra
Batak_Palawan [bya],10.115,119.214,#929495,Malayo-Polynesian,Philippines,Philippines
Batang [khg-8],30.57,98.97,#249BAA,Tibeto-Burman,Bodic,China
Batanga [bnm],2.09,9.75,#556587,Niger-Kongo,Atlantic-Congo,Equatorial Guinea
Bateg [btq],5,102.5,#7D7BAF,Austroasiatic,Aslian,Malaysia
Bathari [bhm],17.6,56,#9C8B48,Afro-Asiatic,Semitic,Oman
Bati [btc],4.26,11.06,#66608B,Niger-Kongo,Atlantic-Congo,Cameroon
Batsbi [bbl-2],42.05,45.31,#8C715A,Nakh-Daghestanian,Nakh,Georgia
Batuley [bay],-5.8,134.75,#AA7882,Malayo-Polynesian,Southeast Maluku,Indonesia-Maluku-south
Bau [bbd],-5.213,145.556,#B87590,Trans New Guinea,Madang,Papua New Guinea
Baukan_Murut [bnb],5.273,116.519,#99809B,Malayo-Polynesian,North Borneo,Malaysia-Borneo
Baule [bci],7.5,-5,#627E5D,Niger-Kongo,Atlantic-Congo,Côte d'Ivoire
Baure [brg],-15,-64,#BA828B,Arawak,Southern Maipuran,Bolivia
Bauro [bxa],-10.647,161.858,#9469C1,Oceanic,Southeast Solomonic,Solomons
Bauzi [bvz],-2.5,137.667,#AF807C,Geelvink Bay,,Indonesia-Papua
Bavarian [bar],46.73,12.28,#618283,Indo-European,Germanic,Italy
Bawm [bgr],22.5,92.25,#4D7C51,Tibeto-Burman,Kuki-Chin-Naga,India
Bayan [duq-2],-0.85,115.39,#887CAA,Malayo-Polynesian,Barito,Indonesia-Kalimantan
Bayso [bsw],6.28,37.76,#956C83,Afro-Asiatic,Cushitic,Somalia
Bayso-2 [bsw-2],6.456,37.745,#947B77,Afro-Asiatic,Cushitic,Ethiopia
Bayungu [bxj],-23.3,113.7,#67826B,Pama-Nyungan,Kanyara-Mantharta,Australia
Bduul [ajp-6],30.33,35.44,#8D9020,Afro-Asiatic,Semitic,Syria
Beary [xxx-101],12.605,75.01,#7E8B91,Dravidian,South Dravidian,India
Bedamini [beo],-6.321,142.489,#BD829A,Trans New Guinea,Bosavi,Papua New Guinea
Bedayuh [bth],1.01,110.51,#7A79A1,Malayo-Polynesian,Land Dayak,Malaysia-Borneo
Bedik [tnr],12.75,-12.467,#516281,Niger-Kongo,Atlantic-Congo,Senegal
Bediondo [bjv],10.203,17,#6E6A8F,Nilo-Saharan,Central Sudanic,Chad
Befang [bby-2],6.28,10.03,#5E6E88,Niger-Kongo,Atlantic-Congo,Cameroon
Begak [dbj],5.25,118.833,#7B5590,Malayo-Polynesian,North Borneo,Malaysia-Borneo
Beihai [yue-13],21.47,109.1,#4B9A8F,Tibeto-Burman,Sinitic,China
Beja [bej],18,36,#799130,Afro-Asiatic,Cushitic,Sudan
Bekati [bei],0.975,109.425,#A36D94,Malayo-Polynesian,Land Dayak,Indonesia-Kalimantan
Beketan [bkn-3],1.3,114.9,#8F759F,Malayo-Polynesian,Land Dayak,Indonesia-Kalimantan
Bekwarra [bkv],6.74,8.86,#58686F,Niger-Kongo,Atlantic-Congo,Nigeria
Bekwil [bkw],1.72,14.65,#6A5D86,Niger-Kongo,Atlantic-Congo,Cameroon
Bela [bxd-2],24.33,98.4,#4F8E7B,Tibeto-Burman,Lolo-Burmese,Myanmar
Belait [beg],4.382,114.462,#7E7BA6,Malayo-Polynesian,North Borneo,Brunei
Belanda Boor [bxb],6.5,28,#3A797A,Nilo-Saharan,Eastern Sudanic,South Sudan
Belarussian [bel],54,27,#5C7F68,Indo-European,Balto-Slavic,Belarus
Belep [yly],-19.75,163.67,#6865D5,Oceanic,Southern Oceanic,New Caledonia
Belhare [byw],27,87.25,#757593,Tibeto-Burman,Kiranti,Nepal
Beli [blm],6.75,29.75,#387161,Nilo-Saharan,Central Sudanic,South Sudan
Bella Coola [blc],52.5,-126.67,#9D9489,Salish,Bella Coola,Canada
Bellona [mnv-2],-11.296,159.79,#B76F99,Oceanic,Central Pacific,Solomons
Belneng [glb],9.15,9.51,#538169,Afro-Asiatic,Chadic,Nigeria
Bemal [bmh],-5.234,145.475,#B47C90,Trans New Guinea,Madang,Papua New Guinea
Bemba [bem],-11,31,#645583,Niger-Kongo,Atlantic-Congo,Zambia
Bembe [bmb],-4,14,#7A705E,Niger-Kongo,Atlantic-Congo,Democratic Republic of the Congo
Bena [bez],-9.27,35.04,#6A6487,Niger-Kongo,Atlantic-Congo,Tanzania
Bena-Bena [bef],-6.114,145.567,#BD7A82,Trans New Guinea,Morobe-Eastern Highlands,Papua New Guinea
Bench [bcq],7,35.75,#618054,Afro-Asiatic,Omotic,Ethiopia
Bende [bdp],-6,30.5,#7A7B7D,Niger-Kongo,Atlantic-Congo,Tanzania
Beng [nhb],7.83,-4.25,#46846A,Mande,Eastern Mande,Côte d'Ivoire
Benga [bng],1.2,9.5,#815EBF,Niger-Kongo,Atlantic-Congo,Equatorial Guinea
Bengali [ben],22.5,90,#78756A,Indo-European,Indo-Iranian,Bangladesh
Bengali_Barisal [ben-10],22.7,90.37,#9C8376,Indo-European,Indo-Iranian,Bangladesh
Bengali_east [ben-7],24.4,90.28,#8F7B70,Indo-European,Indo-Iranian,Bangladesh
Bengali_west [ben-8],23.4,89.45,#767961,Indo-European,Indo-Iranian,Bangladesh
Bengni [adi-11],28.66,93.37,#637C7C,Tibeto-Burman,Macro-Tani,China
Benuaq [lbx-2],-1.6,115.51,#8F77A4,Malayo-Polynesian,Barito,Indonesia-Kalimantan
Benyadu [byd-2],0.595,109.62,#976E95,Malayo-Polynesian,Land Dayak,Indonesia-Kalimantan
Beothuk [bue],48,-55,#AA8E94,Beothuk,,Canada
Bergamasco [ita-17],45.7,9.75,#6E9C8E,Indo-European,Romance,Italy
Bergensk [nno],60.39,5.33,#59B37C,Indo-European,Germanic,Norway
Berik [bkl],-2.25,138.92,#85748F,Tor-Kwerba,Orya-Tor,Indonesia-Papua
Berlinerisch [deu-4],52.5,13.15,#699189,Indo-European,Germanic,Germany
Bernese [gsw-3],46.83,7.62,#698BA2,Indo-European,Germanic,Switzerland
Berom [bom-2],9.67,8.81,#55896D,Niger-Kongo,Atlantic-Congo,Nigeria
Berrichon [fra-17],47.08,2.38,#6F9E86,Indo-European,Romance,France
Berta [wti],10.67,34.5,#696A54,Nilo-Saharan,Berta,Ethiopia
Besemah [pse],-4.2,103,#7B73A0,Malayo-Polynesian,Malayo-Sumbawan,Indonesia-Sumatra
Beserrman [udm-2],58.02,52.15,#589690,Uralic,Permic,Russia
Bésiro [cax-2],-16.6375,-61.9271,#AC7C93,Arawak,Southern Maipuran,Bolivia
Besoa [bep],-1.599,120.379,#825A96,Malayo-Polynesian,Celebic,Indonesia-Sulawesi
Betawi [bew],-6.21,107.02,#7285AD,Malayo-Polynesian,Malayo-Sumbawan,Indonesia-Java
Bete [byf],7.05,9.748,#7E8CA5,Niger-Kongo,Atlantic-Congo,Nigeria
Betoi [xxx-126],7.22,-71.42,#B5808B,Betoi-Jirara,,Colombia
Betta Kurumba [xub],11.58,76.55,#649062,Dravidian,South Dravidian,India
Bewani [pgi],-3.024,141.167,#B78377,Trans New Guinea,Border,Papua New Guinea
Bezhta [kap],42.133,46.128,#817B61,Nakh-Daghestanian,Tsezic,Russia
Bhaderwahi [bhd-2],32.98,75.71,#5D7D74,Indo-European,Indo-Iranian,India
Bhaṭe-sa zib [xxx-102],34.94,72.88,#688352,Indo-European,Indo-Iranian,Afghanistan
Bhatibari [ben-5],26.48,89.54,#5D7571,Indo-European,Indo-Iranian,India
Bhele [bhy-2],0.25,28.67,#776281,Niger-Kongo,Atlantic-Congo,Democratic Republic of the Congo
Bhili [bhb],22,73,#446F72,Indo-European,Indo-Iranian,India
Bhili_Mahikantha [bhb-2],23.83,72.5,#42836A,Indo-European,Indo-Iranian,India
Bhoi [kha-5],25.9,91.88,#7A6995,Austroasiatic,Khasi-Palaung,India
Bhojpuri [bho],26.8,85.3,#48767B,Indo-European,Indo-Iranian,India
Bhojpuri_Nagpuria [bho-3],23.36,85.33,#467979,Indo-European,Indo-Iranian,India
Bhojpuri_Northern [bho-2],26.76,83.37,#467979,Indo-European,Indo-Iranian,India
Bhojpuri_Western [bho-4],25.32,83.01,#49727C,Indo-European,Indo-Iranian,India
Bhumij [muw],21.333,86.5,#507E6B,Austroasiatic,Munda,India
Biafada [bif],11.47,-15.13,#466196,Niger-Kongo,Atlantic-Congo,Guinea Bissau
Biage [bdf],-9.158,147.664,#B87878,Southeast Papuan,Owen Stanley Ranges,Papua New Guinea
Biak [bhw],-1.14,136,#B77588,Malayo-Polynesian,Eastern Malayo-Polynesian,Indonesia-Papua
Biak-west [bhw-2],-0.835,135.59,#A3867A,Malayo-Polynesian,Eastern Malayo-Polynesian,Indonesia-Papua
Biaka [axk-2],3.65,17.27,#855A8A,Niger-Kongo,Atlantic-Congo,Congo
Biali [beh],11.04,1.08,#947B73,Niger-Kongo,Atlantic-Congo,Benin
Bian_Marind [bpv],-7.222,140.548,#956775,Anim,Marind-Yaqay,Indonesia-Papua
Biangai [big],-7.33,146.75,#A28996,Trans New Guinea,Oro-Wharton,Papua New Guinea
Biao [byk-3],23.9,112.2,#3BB58D,Tai-Kadai,Kam-Tai,China
Biao_Dagang [byk-2],23.81,112.135,#39AB95,Tai-Kadai,Kam-Tai,China
Biao_Yonggu [byk],23.72,112.07,#40AD95,Tai-Kadai,Kam-Tai,China
Biaomin Yao [bmt],23.6,111.75,#25AB9D,Hmong-Mien,Mienic,China
Biatah [bth-2],1.264,110.32,#8B7CBA,Malayo-Polynesian,Land Dayak,Indonesia-Kalimantan
Bidjara [bym],-24.5,146.592,#7D8781,Pama-Nyungan,Greater Maric,Australia
Bierebo [bnk],-16.667,168.131,#7666CC,Oceanic,Southern Oceanic,Vanuatu
Bieria [brj],-16.807,168.194,#9566BC,Oceanic,Southern Oceanic,Vanuatu
Bih [rad],12.48,108.025,#518BA4,Malayo-Polynesian,Malayo-Sumbawan,Vietnam
Bijago [bjg],11.28,-15.83,#557A7C,Niger-Kongo,Atlantic-Congo,Guinea Bissau
Bijago_Orango [bjg-2],11.034,-16.146,#6B837D,Niger-Kongo,Atlantic-Congo,Guinea Bissau
Bikele [biw-2],3.67,12.85,#4E7894,Niger-Kongo,Atlantic-Congo,Cameroon
Bikol [bcl],13.333,123.5,#A08492,Malayo-Polynesian,Philippines,Philippines
Bikol_Iriga [bcl-3],13.39,123.33,#A07F8F,Malayo-Polynesian,Philippines,Philippines
Bikol_Naga [bcl-4],13.62,123.17,#9F7C95,Malayo-Polynesian,Philippines,Philippines
Biksi [yet],-4.013,140.494,#878B93,Yetfa-Biksi,,Papua New Guinea
Bila [bip],1.17,28.76,#6F7564,Niger-Kongo,Atlantic-Congo,Democratic Republic of the Congo
Bilba [bpz],-10.67,123.34,#A76587,Malayo-Polynesian,Timoric,Indonesia-NTT
Bilbil [brz],-5.26,145.76,#A08584,Oceanic,Western Oceanic,Papua New Guinea
Biliau [bcu-2],-5.65,146.3,#A07887,Oceanic,Western Oceanic,Papua New Guinea
Bilin [byn],15.9,38.3,#7B77B9,Afro-Asiatic,Cushitic,Eritrea
Bilinara [nbj],-16,131.667,#738571,Pama-Nyungan,Ngumbin-Yapa,Australia
Biloxi [bll],32.25,-90,#AB737B,Siouan,Western Siouan,USA
Bilua [blb],-7.75,156.667,#8A629A,Solomons East Papuan,,Solomons
Bima [bhp],-8.545,118.677,#794A8B,Malayo-Polynesian,Bima,Indonesia-NTB
Bima_Kolo [bhp-3],-8.32,118.76,#7C5093,Malayo-Polynesian,Bima,Indonesia-NTB
Bimin [bhl],-5.43,141.942,#A67591,Trans New Guinea,Ok,Papua New Guinea
Bimoba [bim],10.46,0.06,#4F746D,Niger-Kongo,Atlantic-Congo,Ghana
Bina [bmn],-10.249,149.683,#BD8593,Oceanic,Western Oceanic,Papua New Guinea
Binandere [bhg],-8.167,147.917,#A27779,Trans New Guinea,Oro-Wharton,Papua New Guinea
Binbinga [wmb-2],-16.17,135,#70826E,Mirndi,Ngurlun,Australia
Bine [bon],-9.05,142.884,#87878E,Eastern Trans Fly,,Papua New Guinea
Bini_Edo [bin],6.42,5.83,#767F48,Niger-Kongo,Atlantic-Congo,Nigeria
Bini-2 [bin-2],6.41,5.7,#73645E,Niger-Kongo,Atlantic-Congo,Nigeria
Binigura [pnv],-22.488,116.506,#68816F,Pama-Nyungan,Kanyara-Mantharta,Australia
Bininj Gun-Wok [gup],-12.5,133.75,#678069,Macro-Gunwinygu,Gunwingyuan proper,Australia
Bintan Orang Laut [zlm-14],1.077,104.5,#7689CA,Malayo-Polynesian,Malayo-Sumbawan,Indonesia-Sumatra
Bintauna [bne],0.75,123.49,#875B9A,Malayo-Polynesian,Philippines,Indonesia-Sulawesi
Bintulu [bny],3.83,113.67,#7F6078,Malayo-Polynesian,North Borneo,Malaysia-Borneo
Binukid [bkd],8.3,125,#A4898D,Malayo-Polynesian,Philippines,Philippines
Binumarien [bjr],-6.25,146.08,#9A8868,Trans New Guinea,Morobe-Eastern Highlands,Papua New Guinea
Binyang [cmn-47],23.22,108.82,#4DA594,Tibeto-Burman,Sinitic,China
Bipi [biq],-2.109,146.4,#7C599D,Oceanic,Admiralties,Papua New Guinea
Bira [brf-2],1.6,30.13,#4D6766,Niger-Kongo,Atlantic-Congo,Democratic Republic of the Congo
Bira [brf],1.5,30.03,#656668,Niger-Kongo,Atlantic-Congo,Democratic Republic of the Congo
Birao [brr],-9.746,160.515,#936D9C,Oceanic,Southeast Solomonic,Solomons
Birgid [btf],13,27,#65746B,Afro-Asiatic,Chadic,Sudan
Biri [bvi],7.55,6.233,#426267,Ubangian,Sere-Mba,Nigeria
Biri [bzr],-20.5,146.5,#7B857D,Pama-Nyungan,Greater Maric,Australia
Birifor [biv],9.29,-2.73,#4D8D9D,Niger-Kongo,Atlantic-Congo,Ghana
Biritai [bqq],-3,137.6,#B39935,Lakes Plains,Tariku,Indonesia-Papua
Birom [bom],9.67,8.83,#7D707F,Niger-Kongo,Atlantic-Congo,Nigeria
Birriya [xpa-2],-24.5,143.5,#69826D,Pama-Nyungan,Pirriya-Kungkari,Australia
Bisa [bib],11.783,0.366,#676483,Mande,Eastern Mande,Burkina Faso
Bisayah_Sarawak [bsb],5.33,115.5,#7E7CAB,Malayo-Polynesian,North Borneo,Malaysia-Borneo
Bishnupriya [bpy],24.8,93.12,#A47E96,Indo-European,Indo-Iranian,India
Bisiacco [vec-2],45.95,12.45,#6D937C,Indo-European,Romance,Italy
Bissa [bib-2],10.43,-1.67,#6C877C,Mande,Eastern Mande,Burkina Faso
Bisu [bii],19.75,100,#397E98,Tibeto-Burman,Lolo-Burmese,Thailand
Bitur [mcc],-8.52,142.71,#B48089,Anim,Tirio,Papua New Guinea
Biya [mij-6],6.615,10.18,#3C8C6C,Niger-Kongo,Atlantic-Congo,Cameroon
Biyo [byo],22.51,101.65,#5B7B9D,Tibeto-Burman,Lolo-Burmese,Thailand
Bizkaian [eus-6],43.25,-2.98,#889A83,Basque,,Spain
Bjokapakha [tsj-3],26.965,91.05,#379390,Tibeto-Burman,Bodic,Bhutan
Bjokapakha-2 [tsj-4],26.965,91.045,#4E8E84,Tibeto-Burman,Bodic,Bhutan
Blablanga [blp],-8.17,159.42,#5E6DB0,Oceanic,Western Oceanic,Solomons
Blablanga_Ghove [blp-2],-8.33,159.5,#576AAA,Oceanic,Western Oceanic,Solomons
Black Lahu [lhu-4],20.355,99.77,#459780,Tibeto-Burman,Lolo-Burmese,Myanmar
Black_Tai [blt-2],19.75,105,#5B838C,Tai-Kadai,Kam-Tai,Vietnam
Blackfoot [bla],50,-112.67,#C1868F,Algic,Algonquian,Canada
Blagar [beu],-8.33,124.25,#947F86,Timor-Alor-Pantar,Alor-Pantar,Indonesia-NTT
Blang [blr],23.3,100,#469083,Austroasiatic,Khasi-Palaung,China
Boano [bzl],0.51,120.99,#9A7894,Malayo-Polynesian,Celebic,Indonesia-Sulawesi
Boano [bzn],-2.96,127.95,#CE8B58,Malayo-Polynesian,Central Maluku,Indonesia-Maluku-north
Boazi [kvg],-7,141.25,#99626C,Anim,Boazi,Papua New Guinea
Boazi_Kuni [kvg-2],-6.913,141.326,#906170,Anim,Boazi,Papua New Guinea
Bobangi [bni],0,17.8,#7E5A82,Niger-Kongo,Atlantic-Congo,Democratic Republic of the Congo
Bobo_Madare_North [bbo-2],12.42,-4.48,#587165,Mande,Western Mande,Burkina Faso
Bobo_Madare_South [bwq],11.54,-4.26,#6C7669,Mande,Western Mande,Burkina Faso
Bobo-Fing [bbo],11.83,-4.42,#4C805F,Mande,Western Mande,Burkina Faso
Bobongko [bgb],-0.5,121.75,#906E93,Malayo-Polynesian,Celebic,Indonesia-Sulawesi
Bobot [bty],-3.33,130.17,#B57762,Malayo-Polynesian,Central Maluku,Indonesia-Maluku-north
Bocota [sab],9.34,-82.24,#8F6B77,Chibchan,Core Chibchan,Panama
Bogaya [boq],-5.621,142.231,#A872A5,Trans New Guinea,Duna-Bogaya,Papua New Guinea
Bohemian [ces-3],50,13,#867856,Indo-European,Balto-Slavic,Czech Republic
Boholano [ceb-2],9.9,124.2,#99786E,Malayo-Polynesian,Philippines,Philippines
Bohutu [bxh],-10.5,150.33,#9366C6,Oceanic,Western Oceanic,Papua New Guinea
Boiken [bzf],-3.525,143.415,#999798,Ndu,Boiken,Papua New Guinea
Bokala [lin-2],4.57,19.02,#59666D,Niger-Kongo,Atlantic-Congo,Democratic Republic of the Congo
Bokar [adi-2],29,94.35,#69718B,Tibeto-Burman,Macro-Tani,India
Boko [bkp],10.52,3.72,#867174,Mande,Eastern Mande,Benin
Bokyi [bky],6.1,9.06,#52825D,Niger-Kongo,Atlantic-Congo,Nigeria
Bola [bnp],-5.5,150,#A16D91,Oceanic,Western Oceanic,Papua New Guinea-Bismarcks
Bola [bxd-3],24.45,98.6,#509A83,Tibeto-Burman,Lolo-Burmese,China
Bolaang-Mongondow [mog],0.55,124,#907390,Malayo-Polynesian,Philippines,Indonesia-Sulawesi
Bolano [bzl-2],0.52,121,#8D7799,Malayo-Polynesian,Celebic,Indonesia-Sulawesi
Bole [bol],11.007,10.747,#5E645F,Afro-Asiatic,Chadic,Nigeria
Bolgo [bvo-2],10.9,18.81,#696E6D,Niger-Kongo,Atlantic-Congo,Chad
Bolgo_Dugag [bvo],10.79,18.61,#63796A,Niger-Kongo,Atlantic-Congo,Chad
Bolinao [smk],16.341,119.893,#A07C93,Malayo-Polynesian,Philippines,Philippines
Bologna [ita-4],44.51,11.35,#6B9184,Indo-European,Romance,Italy
Bolyu [ply],24.78,105.35,#3D9184,Austroasiatic,Mangic,China
Bom [bmf],9.28,-11.6,#68579C,Niger-Kongo,Atlantic-Congo,Sierra Leone
Boma [boh],2.5,15.6,#565489,Niger-Kongo,Atlantic-Congo,Cameroon
Bomitaba [zmx],1.701,17.371,#6B5581,Niger-Kongo,Atlantic-Congo,Congo
Bomitaba-2 [zmx-2],1.7,17.37,#9D6F80,Niger-Kongo,Atlantic-Congo,Congo
Bonan [peh-6],35.7,103,#5980A4,Mongolic,Core Mongolic,China
Bonda [bfw-2],19,82.75,#71757F,Austroasiatic,Munda,India
Bondei [bou],-5.082,38.432,#997A90,Niger-Kongo,Atlantic-Congo,Tanzania
Bonerate [bna],-7.38,121.79,#905081,Malayo-Polynesian,Celebic,Indonesia-Sulawesi
Bongaigaon [asm-4],26.48,90.56,#6D7D65,Indo-European,Indo-Iranian,India
Bonggi [bdg],7.3,117.2,#947768,Malayo-Polynesian,North Borneo,Philippines
Bonggo [bpg],-2.28,139.6,#AF7E7E,Oceanic,Western Oceanic,Indonesia-Papua
Bongili [bui],0.37,16.61,#845A5E,Niger-Kongo,Atlantic-Congo,Congo
Bongo [bot],7.5,28,#535A68,Nilo-Saharan,Central Sudanic,South Sudan
Boni [bob],0.5,43,#7E6F53,Afro-Asiatic,Cushitic,Somalia
Bonifacino [lij-3],41.39,9.16,#679881,Indo-European,Romance,France
Bontoc_Guinaang [bnc-2],17.08,120.9,#A4819F,Malayo-Polynesian,Philippines,Philippines
Bontok [bnc],17.083,120.917,#A67F9A,Malayo-Polynesian,Philippines,Philippines
Bor [bvf],5.605,27.472,#576269,Afro-Asiatic,Chadic,South Sudan
Bora [boa],-2.25,-71.75,#A180AC,Boran,Bora,Peru
Bori [adi-5],28.2,94.6,#6F6F85,Tibeto-Burman,Macro-Tani,India
Bormiese [ita-16],46.47,10.375,#699A88,Indo-European,Romance,Italy
Bornholmsk [scy],55,15,#7787A5,Indo-European,Germanic,Denmark
Boro [brx],26.75,92,#789A8B,Tibeto-Burman,Bodo-Garo,India
Boro-Shinasha [bwo],10.66,35.34,#817A78,Afro-Asiatic,Omotic,Ethiopia
Borong Kosorong [ksr],-6.534,147.502,#94788F,Trans New Guinea,Morobe-Eastern Highlands,Papua New Guinea
Boróro [bor],-15,-52,#AC7E9C,Macro-Je,Bororo,Brazil
Bororo-2 [bor-2],-16.6,-55.2,#AA7B9D,Macro-Je,Bororo,Brazil
Boruca [brn],9.001,-83.325,#79816B,Chibchan,Core Chibchan,Costa Rica
Bosavi [bco-2],-6.425,142.765,#AD849A,Trans New Guinea,Bosavi,Papua New Guinea
Bosnian [bos],44,18,#7C816F,Indo-European,Balto-Slavic,Bosnia
Botin_Samban [kbx-2],-4.33,144.17,#9B89AF,ApMa,,Papua New Guinea
Botlikh [bph],42.66,46.22,#8C828C,Nakh-Daghestanian,Avar-Andi,Russia
Bourbonnais [fra-11],46.57,3.33,#709F8A,Indo-European,Romance,France
Bouyei [pcc-5],25.817,107.55,#3A9EA8,Tai-Kadai,Kam-Tai,China
Bouyei_Changshun Duncao [pcc-9],25.9,106.5,#32A3A0,Tai-Kadai,Kam-Tai,China
Bouyei_Dushan Huanghou [pcc-11],25.4,107.6,#31B39D,Tai-Kadai,Kam-Tai,China
Bouyei_Guiding Houchang [pcc-13],26.4,107,#32B29A,Tai-Kadai,Kam-Tai,China
Bouyei_Huishui Yashui [pcc-12],26,106.9,#33B3A3,Tai-Kadai,Kam-Tai,China
Bouyei_Libo Fucun [pcc-10],25.3,108,#379FA2,Tai-Kadai,Kam-Tai,China
Bouyei_Luodian Bamao [pcc-8],25.3,106.95,#2EA59E,Tai-Kadai,Kam-Tai,China
Bouyei_Luodian Luokun [pcc-7],25.25,106.7,#39A89A,Tai-Kadai,Kam-Tai,China
Bouyei_Pingtang Sizhai [pcc-14],25.65,107.4,#2FB598,Tai-Kadai,Kam-Tai,China
Bouyei_Sandu Zhouqin [pcc-15],25.7,107.9,#329BA9,Tai-Kadai,Kam-Tai,China
Bouyei_west [pcc-2],25.75,107.333,#359FA9,Tai-Kadai,Kam-Tai,China
Boze [jer-2],10.2,8.96,#3C8E64,Niger-Kongo,Atlantic-Congo,Nigeria
Brabants [nld-3],50.75,4.65,#7C9398,Indo-European,Germanic,Belgium
Brag-g.yab [khg-2],30.65,97.55,#3A7970,Tibeto-Burman,Bodic,China
Brahui (Jahlawān) [brh-4],25.81,66.49,#98814C,Dravidian,North Dravidian,Pakistan
Brahui [brh],29,67,#7C814B,Dravidian,North Dravidian,Pakistan
Brahui_Jahlawan [brh-3],25.79,66.51,#978251,Dravidian,North Dravidian,Pakistan
Brahui_Sarawan [brh-2],29,66.6,#988251,Dravidian,North Dravidian,Pakistan
Brajbhasha [bra],27.49,77.67,#508360,Indo-European,Indo-Iranian,India
Brao [brb],14,107.001,#405DB2,Austroasiatic,Bahnaric,Cambodia
Brao_Krung [brb-2],13.8,107,#5275BD,Austroasiatic,Bahnaric,Cambodia
Breton [bre],47.65,-2.75,#679981,Indo-European,Celtic,France
Breton_Grand Lorient [bre-6],47.75,-3.36,#49A0A5,Indo-European,Celtic,France
Breton_Kerneveg [bre-2],48,-4.1,#699A87,Indo-European,Celtic,France
Breton_Leoneg [bre-3],48.6,-4.3,#689781,Indo-European,Celtic,France
Breton_Plozevet [bre-5],47.99,-4.42,#5A9F6C,Indo-European,Celtic,France
Breton_Tregiereg [bre-4],48.5,-3.125,#699A87,Indo-European,Celtic,France
Bribri [bzd],9.5,-83,#639276,Chibchan,Core Chibchan,Costa Rica
Brinken [zmd],-14.05,130.08,#788478,Western Daly,Bringen,Australia
Brokpa [sgt],27.33,92,#517E7D,Tibeto-Burman,Bodic,Bhutan
Bru_Western [brv],16.75,104.75,#5D80B7,Austroasiatic,Katuic,Laos
Brugge [vls-3],51.22,3.23,#79A595,Indo-European,Germanic,Netherlands
Bruu [bru],17.167,104.333,#48748D,Austroasiatic,Katuic,Thailand
Bu [jid],9.05,8.66,#67796B,Niger-Kongo,Atlantic-Congo,Nigeria
Buamu [box],11.17,-3.5,#887255,Niger-Kongo,Atlantic-Congo,Burkina Faso
Buang_Central [bzh],-6.855,146.774,#6B70BC,Oceanic,Western Oceanic,Papua New Guinea
Bube [bvb],3.5,8.7,#586478,Niger-Kongo,Atlantic-Congo,Equatorial Guinea
Bubia [bbx-2],4.02,9.22,#5B6E71,Niger-Kongo,Atlantic-Congo,Cameroon
Budong-bundong [bdx],-2.171,119.328,#A67C92,Malayo-Polynesian,Greater South Sulawesi,Indonesia-Sulawesi
Budu [buu],2.01,27.95,#4A796B,Niger-Kongo,Atlantic-Congo,Democratic Republic of the Congo
Budu-2 [buu-3],2.011,27.949,#556478,Niger-Kongo,Atlantic-Congo,Democratic Republic of the Congo
Buduma [bdm],13.6,14,#728270,Afro-Asiatic,Chadic,Chad
Budux [bdk],41.19,48.37,#797C5D,Nakh-Daghestanian,Lezgic,Russia
Bugan [bbh],23.75,105,#326B86,Austroasiatic,Mangic,China
Bugan_Nala [bbh-2],23.487,105.15,#326A86,Austroasiatic,Mangic,China
Bughotu [bgt],-8.478,159.808,#976D97,Oceanic,Southeast Solomonic,Solomons
Bugis [bug],-4,120,#8575AC,Malayo-Polynesian,Greater South Sulawesi,Indonesia-Sulawesi
Bugun [bgn],27.3,92.35,#57857B,Tibeto-Burman,Kho-Bwa,India
Buhid [bku],12.574,121.25,#9E7C74,Malayo-Polynesian,Philippines,Philippines
Buin [buo],-6.75,155.833,#A56D78,South Bougainville,Buin,Papua New Guinea-Bougainville
Bukar_Sadong [sdo],0.97,110.66,#6E65A8,Malayo-Polynesian,Land Dayak,Malaysia-Borneo
Bukat [bvk],1.29,113.25,#917B9D,Malayo-Polynesian,Land Dayak,Malaysia-Borneo
Bukawa [buk],-6.732,147.359,#956981,Oceanic,Western Oceanic,Papua New Guinea
Buket [bvk-2],0.8,112.6,#9D7094,Malayo-Polynesian,Land Dayak,Malaysia-Borneo
Bukhari [bhh],39.79,64.45,#A28474,Indo-European,Indo-Iranian,Tajikistan
Bukit [bvu],-2.75,115.64,#888394,Malayo-Polynesian,Malayo-Sumbawan,Indonesia-Kalimantan
Bukitan [bkn],2.35,114.89,#8F759D,Malayo-Polynesian,Malayo-Sumbawan,Malaysia-Borneo
Bukiyip_Arapesh [ape],-3.667,142.5,#7F8BA0,Torricelli,Kombio-Arapesh,Papua New Guinea
Bukusu [bxk],1.02,35,#9A839D,Niger-Kongo,Atlantic-Congo,Kenya
Bularnu [yil],-21.5,137.5,#5D7A6C,Pama-Nyungan,Warluwaric,Australia
Bulgarian [bul],43,25,#8C817C,Indo-European,Balto-Slavic,Bulgaria
Bulgarian_Banat [bul-6],45.7,20.9,#79788E,Indo-European,Balto-Slavic,Bulgaria
Bulgarian_Boboshevo [bul-4],42.15,23,#977967,Indo-European,Balto-Slavic,Bulgaria
Bulgarian_Erkech [bul-5],42.84,27.58,#937A6C,Indo-European,Balto-Slavic,Bulgaria
Bulgarian_Gabare [bul-8],43.316,21.92,#8F7B72,Indo-European,Balto-Slavic,Bulgaria
Bulgarian_Lovec [bul-9],43.14,24.71,#8B807D,Indo-European,Balto-Slavic,Bulgaria
Bulgarian_Moesian [bul-3],42.7,27.75,#667A8A,Indo-European,Balto-Slavic,Bulgaria
Bulgarian_Momchilovci [bul-10],41.66,24.77,#917871,Indo-European,Balto-Slavic,Bulgaria
Bulgarian_North-west [bul-7],43.6,23.18,#8C827F,Indo-European,Balto-Slavic,Bulgaria
Bulgarian_Nova Nadezda [bul-11],42.02,25.72,#907C65,Indo-European,Balto-Slavic,Bulgaria
Buli [bzq],0.833,128.5,#8D7996,Malayo-Polynesian,Eastern Malayo-Polynesian,Indonesia-Maluku-north
Bulu [bum],2.917,11.15,#6A7C6B,Niger-Kongo,Atlantic-Congo,Cameroon
Bulungan [bdb-2],0.89,117.58,#8785A9,Malayo-Polynesian,Basap,Indonesia-Kalimantan
Bulusu [bqr],3,116,#9178A2,Malayo-Polynesian,Bulusu,Indonesia-Kalimantan
Bum [bmv],6.49,10.42,#717F73,Niger-Kongo,Atlantic-Congo,Cameroon
Buma [tkw-2],-11.615,166.966,#735EAD,Oceanic,Te Motu,Solomons_East
Buma [yns-2],-3.33,17.5,#4D596C,Niger-Kongo,Atlantic-Congo,Democratic Republic of the Congo
Bumang [bvp],22.5,96.5,#3C968A,Austroasiatic,Khasi-Palaung,Laos
Bumbita_Arapesh [aon],-3.667,142.833,#9881A6,Torricelli,Kombio-Arapesh,Papua New Guinea
Bumthang [kjz],27.802,90.8,#3B8675,Tibeto-Burman,Bodic,Bhutan
Bumthang_Ura [kjz-2],27.48,90.905,#20BF68,Tibeto-Burman,Bodic,Bhutan
Bunama [bdd],-10.064,151.075,#9865C4,Oceanic,Western Oceanic,Papua New Guinea
Bunan [bfu],32.61,76.91,#42907D,Tibeto-Burman,Western Himalayan,India
Bunaq [bfn],-9.1,125.15,#967A7A,Timor-Alor-Pantar,Mainland Timor-Alor-Pantar,Indonesia-NTT
Bunaq_Lolotoen [bfn-2],-9.161,125.26,#9A7875,Timor-Alor-Pantar,Mainland Timor-Alor-Pantar,Timor leste
Bunaq_South [bfn-3],-9.227,125.393,#98746A,Timor-Alor-Pantar,Mainland Timor-Alor-Pantar,Timor leste
Bundeli [bns],23.18,79.95,#488256,Indo-European,Indo-Iranian,India
Bunganditj [xbg],-36.5,141,#68806E,Pama-Nyungan,Kulinic,Australia
Bungku [bkz],-3,122.33,#8A4C91,Malayo-Polynesian,Celebic,Indonesia-Sulawesi
Bungku_Tulambatu [bkz-2],-3.17,122.12,#885090,Malayo-Polynesian,Celebic,Indonesia-Sulawesi
Bungu [wun],-8.33,32.88,#42696C,Niger-Kongo,Atlantic-Congo,Tanzania
Bunong [cmo],12.63,107.3,#486EAC,Austroasiatic,Bahnaric,Cambodia
Bunu [buh],25.5,108.7,#15A992,Hmong-Mien,Hmongic,China
Bunu_Dongnu [bwx],23.88,108.08,#0794A3,Hmong-Mien,Hmongic,China
Bunu_Nunu [bwx-2],23.799,110.178,#29998E,Hmong-Mien,Hmongic,China
Bunuba [bck],-17.75,125.75,#678873,Bunuban,,Australia
Bunun [bnn],23.5,121,#B4717A,Austronesian,Bunun,Taiwan
Bunun_Isbukun [bnn-2],23.459,121.056,#A07F9F,Austronesian,Bunun,Taiwan
Buol [blf],1,121.5,#A06973,Malayo-Polynesian,Philippines,Indonesia-Sulawesi
Bura [bwr],10.611,12.195,#5C7A8B,Afro-Asiatic,Chadic,Nigeria
Burarra [bvr],-12.25,134.667,#657C6D,Macro-Gunwinygu,Maningrida,Australia
Burji [bji],5.5,37.9,#946860,Afro-Asiatic,Cushitic,Ethiopia
Burmbar [vrt],-16.372,167.749,#8D63BE,Oceanic,Southern Oceanic,Vanuatu
Burmese [mya],20,96,#2F8DA0,Tibeto-Burman,Lolo-Burmese,Myanmar
Burmese_Arakan [mya-4],20.14,92.9,#279899,Tibeto-Burman,Lolo-Burmese,Myanmar
Burmese_Intha [mya-3],20.55,96.92,#3796AC,Tibeto-Burman,Lolo-Burmese,Myanmar
Burmese_Myeik [mya-2],12.43,98.6,#437780,Tibeto-Burman,Lolo-Burmese,Myanmar
Burmese_Palaw [mya-6],13.12,98.68,#428F89,Tibeto-Burman,Lolo-Burmese,Myanmar
Burmese_Tavoyan [mya-5],14.08,98.2,#2B9897,Tibeto-Burman,Lolo-Burmese,Myanmar
Burmeso [bzu],-2.447,138.209,#BA7C77,Burmeso,,Indonesia-Papua
Buru [mhs],-3.7,126.4,#997096,Malayo-Polynesian,Central Maluku,Indonesia-Maluku-north
Burum [bmu],-6.484,147.311,#8B72B3,Trans New Guinea,Morobe-Eastern Highlands,Papua New Guinea
Burum_Mindik [bmu-3],-6.47,147.44,#9681A6,Trans New Guinea,Morobe-Eastern Highlands,Papua New Guinea
Burun [bdi-2],10.8,33.8,#598589,Nilo-Saharan,Eastern Sudanic,Sudan
Burushaski [bsk],36.5,74.5,#539567,Burushaski,,Pakistan
Burushaski_eastern [bsk-2],36.32,74.65,#42946C,Burushaski,,Pakistan
Burushaski_Jammu-Kashmir [bsk-3],34.11,74.82,#489A63,Burushaski,,India
Buruwai [asi-2],-3.55,133.33,#B47E8C,Trans New Guinea,Asmat-Kamoro,Indonesia-Papua
Buryat [bxm],52,108,#9F8A7D,Mongolic,Core Mongolic,Russia
Busa [bqp],9.67,4,#7C517C,Mande,Eastern Mande,Nigeria
Busa-2 [bqp-2],9.91,4.4,#93707E,Mande,Eastern Mande,Nigeria
Busami [bsm],-1.8,135.95,#B58791,Malayo-Polynesian,Eastern Malayo-Polynesian,Indonesia-Papua
Bushong [buf],-4.67,21.3,#4D6D76,Niger-Kongo,Atlantic-Congo,Democratic Republic of the Congo
Busoa [bup],-5.62,122.616,#7D4782,Malayo-Polynesian,Celebic,Indonesia-Sulawesi
Bussa [dox],5.75,37.2,#A8787D,Afro-Asiatic,Cushitic,Ethiopia
Butmas_Tur [bnr],-15.376,167.028,#916FA1,Oceanic,Southern Oceanic,Vanuatu
Buwal [bhs],10.5,13.86,#55676F,Afro-Asiatic,Chadic,Cameroon
Buxing [bgk-2],21.48,101.57,#538B9B,Austroasiatic,Khasi-Palaung,China
Buyang [yha],24,104.8,#229698,Tai-Kadai,Kadaic,China
Buyi_Hezhang [pcc-3],27.12,104.73,#309A98,Tai-Kadai,Kam-Tai,China
Buyuan_Jino [jiy],22.05,101,#3D9987,Tibeto-Burman,Lolo-Burmese,China
Bwaidoka [bwd],-9.479,150.311,#9E61B8,Oceanic,Western Oceanic,Papua New Guinea
Bwala [xxx-115],-4.45,16.2,#565861,Niger-Kongo,Atlantic-Congo,Democratic Republic of the Congo
Byansi [bee],30.17,80.5,#3B8493,Tibeto-Burman,Western Himalayan,India
C'lela [dri],11.47,5.27,#597268,Niger-Kongo,Atlantic-Congo,Nigeria
Caac [msq],-20.42,164.42,#4C65D7,Oceanic,Southern Oceanic,New Caledonia
Cabecar [cjp],9.91,-83.68,#52967D,Chibchan,Core Chibchan,Costa Rica
Cabiyarí [cbb],-0.1302,-70.6927,#B7828C,Arawak,Northern Maipuran,Colombia
Cacaopera [ccr],13.74,-88.11,#B87E7D,Misumalpan,Sumalpan,Nicaragua
Caddo [cad],33.33,-93.5,#9E8369,Caddoan,Caddo,USA
Cadorino [ita-21],46.445,12.39,#74997F,Indo-European,Romance,Italy
Cagayano [cgc-2],10.47,119.87,#A68090,Malayo-Polynesian,Philippines,Philippines
Cagliaritano [ita-55],39.225,9.15,#6F997F,Indo-European,Romance,Italy
Cahita [opt-2],27.9,-109,#9D6D83,Uto-Aztecan,Cahitan,Mexico
Cahuilla [chl],33.75,-117.75,#8E88A7,Uto-Aztecan,North Uto-Aztecan,USA
Caijia_Niujiaojing [xxx-51],27.067,104.297,#2F938B,Tibeto-Burman,Macro-Bai,China
Caijia_Xingfa [xxx-45],26.934,104.863,#3C9B93,Tibeto-Burman,Macro-Bai,China
Cak [ckh],21.41,92.6,#549595,Tibeto-Burman,Jingpho,Bangladesh
Cakchiquel [ckf],14.5,-91,#9C8388,Mayan,Core Mayan,Guatemala
Calabrian [scn-4],38.148,16.18,#598778,Indo-European,Romance,Italy
Calabrian-2 [scn-3],38.92,16.6,#61977E,Indo-European,Romance,Italy
Callahuaya [caw],-15,-69,#828771,Puquina,,Bolivia
Calusa [xxx-100],27.76,-82.55,#9A9A8D,Tunica,,USA
Camling [rab],27.3,86.8,#517984,Tibeto-Burman,Kiranti,Nepal
Campa [cni],-12,-74,#B17F81,Arawak,Southern Maipuran,Peru
Campalagian [cml],-4.02,119.62,#8379A7,Malayo-Polynesian,Greater South Sulawesi,Indonesia-Sulawesi
Campobassano [ita-45],41.6,14.66,#699A7D,Indo-European,Romance,Italy
Camsá [kbh],1,-77,#7F7086,Camsá,,Colombia
Camuno [lmo-7],45.943,10.28,#6E9B8C,Indo-European,Romance,Italy
Canamari [knm-2],-6.46,-68.78,#9F7B89,Katukinan,,Brazil
Candoshi [cbu],-4.17,-77,#AB7988,Candoshi,,Peru
Canela-Krahô [ram],-6.5,-45,#8A95BE,Macro-Je,Je,Brazil
Canichana [caz],-14.31,-64.94,#B47F89,Canichana-Tequiraca,,Bolivia
Cantabrian_East [spa-7],43.3,-3.9,#868961,Indo-European,Romance,Spain
Cantabrian_West [spa-8],43.3,-4.1,#878860,Indo-European,Romance,Spain
Cantonese [yue],22.333,114,#4A988D,Tibeto-Burman,Sinitic,Hong Kong
Cantonese_Nanning [yue-10],22.817,108.317,#4D9297,Tibeto-Burman,Sinitic,China
Canzés [lmo-6],45.85,9.27,#5F9493,Indo-European,Romance,Italy
Cao Bang [zyg-2],23.18,105.41,#32907D,Tai-Kadai,Kam-Tai,China
Caodeng_rGyalrong [jya-4],32.2,101.8,#3D6F65,Tibeto-Burman,Na-Qiangic,China
Capanahua [kaq],-7,-74,#A58A7B,Panoan,Southern Panoan,Peru
Cappadocian [cpg],38.66,34.85,#5C947A,Indo-European,Graeco-Phrygian,Turkey
Caquinte [cot],-11.7092,-73.9252,#927F87,Arawak,Southern Maipuran,Peru
Car [caq],9.167,92.75,#718AA8,Austroasiatic,Nicobar,India_Andaman-Nicobars
Cara [cfd],10.13,8.75,#58696F,Niger-Kongo,Atlantic-Congo,Nigeria
Carapana [cbc],0.45,-71,#B9805C,Tucanoan,East Tucanoan,Colombia
Carib [car],7.85,-59,#9A88AB,Cariban,Guianan Carib,Guyana
Carib_Suriname [crb],5.7,-55.932,#B38D9E,Arawak,Northern Maipuran,Suriname
Carib_Venezuela [crb-2],7.969,-65.67,#B68A96,Arawak,Northern Maipuran,Venezuela
Carijona [cbd],0.148,-70.708,#AC7893,Cariban,Guianan Carib,Colombia
Carolinian [cal],15,146,#6C78C3,Oceanic,Micronesian,USA Northern Mariana Islands
Carrarese [ita-29],44.08,10.1,#659A8A,Indo-European,Romance,Italy
Cashibo-Cacataibo [cbr],-9.1,-75.5,#A66C77,Panoan,Southern Panoan,Peru
Cashinahua [cbs],-10.5,-71.75,#A77684,Panoan,Southern Panoan,Peru
Castagniers [frp-4],43.79,7.23,#76938E,Indo-European,Romance,France
Castellanese [sdn-6],40.913,8.71,#60976F,Indo-European,Romance,Italy-Sardinia
Catalan [cat],41.4,2.02,#588F7C,Indo-European,Romance,Spain
Catalan_Northern [cat-5],42.7,2.9,#5C9174,Indo-European,Romance,France
Catalan_Northwestern [cat-6],42.5,1.5,#5B9174,Indo-European,Romance,Andorra
Catanese [ita-52],37.5,15.1,#6C9E65,Indo-European,Romance,Italy
Catanzarese [ita-51],38.9,16.6,#679D67,Indo-European,Romance,Italy
Catawba [chc],34,-81,#B57B81,Siouan,Eastern Siouan,USA
Cauho [pho-7],21.4,102,#35A1A7,Tibeto-Burman,Lolo-Burmese,Laos
Cavineña [cav],-12.25,-67.5,#9A6C88,Tacanan,Cavineña,Bolivia
Cayapa [cbi],1.2,-78.75,#7A6884,Barbacoan,Southern Barbacoan,Ecuador
Cayapo [txu-2],-7.77,-51.67,#7881C0,Macro-Je,Je,Brazil
Cayuga [cay],42.75,-76.75,#B09B4F,Iroquoian,Northern Iroquoian,USA
Cayuse [xcy],46.11,-117.94,#A18FA2,Cayuse,,USA
Cayuvava [cyb],-12.5,-67,#A0719D,Cayuvava,,Bolivia
Ce [ruk],10,8.67,#3D8A82,Niger-Kongo,Atlantic-Congo,Nigeria
Cebuano [ceb],10,124,#98887E,Malayo-Polynesian,Philippines,Philippines
Cemuhi [cam],-20.833,165,#6355C7,Oceanic,Southern Oceanic,New Caledonia
Central !Kung [nmn-3],-19.57,18.12,#422B5D,Tuu,Hua,Botswana
Central Banda [tor],6.64,22.76,#516665,Ubangian,Bandaic,Central African Republic
Central-Eastern Niger Fulfulde [fuq],15.09,8.43,#4C6E7A,Niger-Kongo,Atlantic-Congo,Niger
Cerma [cme],10.249,-4.85,#6B728F,Niger-Kongo,Atlantic-Congo,Burkina Faso
Ch'ol [cti],17.49,-92.47,#A58993,Mayan,Core Mayan,Mexico
Cha'palaachi [cbi-2],0.838,-78.877,#7D7C89,Barbacoan,Southern Barbacoan,Ecuador
Chachapuya [xxx-109],-6.42,-77.92,#966E7D,Chachapoya,,Peru
Chacobo [cao],-12.25,-65,#BA878D,Panoan,Southern Panoan,Bolivia
Chadong [cdy],25.2,110.2,#25A3B4,Tai-Kadai,Kam-Tai,China
Chaga-Kiwoso [old-2],-3.29,37.57,#646661,Niger-Kongo,Atlantic-Congo,Kenya
Chaga-Ng'uni [jmc-3],-3.18,37.2,#726260,Niger-Kongo,Atlantic-Congo,Kenya
Chaga-Rombo-North [rof],-3.08,37.54,#686655,Niger-Kongo,Atlantic-Congo,Kenya
Chaga-Rombo-South [rof-2],-3.21,37.54,#60665F,Niger-Kongo,Atlantic-Congo,Kenya
Chaga-Siha [jmc-2],-3.36,36.92,#7B6B5E,Niger-Kongo,Atlantic-Congo,Kenya
Chaga-Vunjo [wun],-3.43,37.58,#505C64,Niger-Kongo,Atlantic-Congo,Kenya
Chaha [sgw],8.2,38,#987F60,Afro-Asiatic,Semitic,Ethiopia
Chakali [cli],9.83,-1.9,#3F985B,Niger-Kongo,Atlantic-Congo,Ghana
Chakavian [hrv-2],45.17,14.85,#628D52,Indo-European,Balto-Slavic,Croatia
Chakhar [mon-5],44.94,115.38,#92867A,Mongolic,Core Mongolic,Mongolia
Chakhar-2 [mon-6],43,115,#91677E,Mongolic,Core Mongolic,China
Chakma [ccp],22.9,92.23,#68735C,Indo-European,Indo-Iranian,Bangladesh
Chakosi [cko-2],10.36,0.48,#547477,Niger-Kongo,Atlantic-Congo,Ghana
Chali [tgf],27.3,91.26,#3B867F,Tibeto-Burman,Bodic,Bhutan
Chaling [gan-20],28.81,113.64,#3E9D8D,Tibeto-Burman,Sinitic,China
Cham_Eastern [cjm],10.93,108.1,#466E8C,Malayo-Polynesian,Malayo-Sumbawan,Vietnam
Cham_Western [cja],12,105.5,#63699F,Malayo-Polynesian,Malayo-Sumbawan,Cambodia
Chama [ese-5],-11.33,-66.25,#B07BA4,Tacanan,Takanik-Chamik,Bolivia
Chamacoco [ceg],-22.3578,-59.7197,#A07C88,Zamucoan,,Paraguay
Chamalal_Gigatil [cji],42.54,46.06,#8A7A51,Nakh-Daghestanian,Avar-Andi,Russia
Chamalal_Nizhnee_Gakvari [cji-2],42.53,46.05,#8A7A52,Nakh-Daghestanian,Avar-Andi,Russia
Chamba [ndi-2],8.19,11.74,#4D7D65,Niger-Kongo,Atlantic-Congo,Cameroon
Chambri [can],-4.167,143.083,#83937F,Lower Sepik-Ramu,Lower Sepik,Papua New Guinea
Chamicuro [ccc],-5.114,-75.736,#7DA595,Arawak,Western Maipuran,Peru
Chamorro [cha],13.583,145,#7D8E92,Malayo-Polynesian,Chamorro,USA Federated States of Micronesia Guam
Chaná [qsi],-34,-55,#8E7B6E,Charruan,,Uruguay
Chang Naga [nbc],26.23,94.817,#7D709D,Tibeto-Burman,Konyak,India
Changana [tso-2],-24.516,31.504,#322870,Niger-Kongo,Atlantic-Congo,South Africa
Changchow [nan-25],24.75,117.833,#3F9581,Tibeto-Burman,Sinitic,China
Changchun [cmn-21],43.88,125.32,#3BBD91,Tibeto-Burman,Sinitic,China
Changle [cmn-48],25.92,119.55,#45A396,Tibeto-Burman,Sinitic,China
Changpaoyao [bmt-2],25.417,107.88,#12B19A,Hmong-Mien,Mienic,China
Changsha [hsn],28,113,#459F91,Tibeto-Burman,Sinitic,China
Changsha_Old [hsn-25],27.9,112.9,#45AA94,Tibeto-Burman,Sinitic,China
Changting [hak-14],25.83,116.35,#44A38B,Tibeto-Burman,Sinitic,China
Changzhi [cjy-4],36.167,113,#69988C,Tibeto-Burman,Sinitic,China
Changzhou [wuu-32],31.783,119.967,#30AF80,Tibeto-Burman,Sinitic,China
Channel_English [eng-8],49.45,-2.54,#759186,Indo-European,Germanic,Britain
Chantyal [chx],28.75,83.5,#596E61,Tibeto-Burman,Bodic,Nepal
Chaoyang [nan-42],23.32,116.48,#51A870,Tibeto-Burman,Sinitic,China
Chaozhou [nan-26],23.667,116.667,#48A77E,Tibeto-Burman,Sinitic,China
Chaplino [ess-2],65,-173,#9E94A2,Eskimo-Aleut,Eskimo,Russia
Chaplino_Alaska [ess-3],63.5,-170.5,#828CC6,Eskimo-Aleut,Eskimo,USA-Alaska
Chara [cra],6.64,36.42,#897085,Afro-Asiatic,Omotic,Ethiopia
Chara-2 [cra-2],6.617,36.238,#9C6F6C,Afro-Asiatic,Omotic,Ethiopia
Charleroi [wln-2],50.41,4.45,#7D8891,Indo-European,Romance,Belgium
Chatino [ctp],16.5,-97.25,#629157,Otomanguean,Eastern Otomanguean,Mexico
Chatino_Tataltepec [cta],16.3,-97.55,#4D915E,Otomanguean,Eastern Otomanguean,Mexico
Chatino_Yaitepec [ctp-2],16.225,-97.27,#5F8953,Otomanguean,Eastern Otomanguean,Mexico
Chatino_Zenzontepec [czn],17.34,-92.34,#8B9760,Otomanguean,Eastern Otomanguean,Mexico
Chattisgarhi [hne],21.25,81.25,#5D8D71,Indo-European,Indo-Iranian,India
Chaudangsi [cdn],29.7,80.48,#2D8CA2,Tibeto-Burman,Western Himalayan,India
Che [ruk-2],10.03,8.65,#447D8D,Niger-Kongo,Atlantic-Congo,Nigeria
Che'_Wong [cwg],3.833,102,#677ABF,Austroasiatic,Aslian,Malaysia
Chechen [che],43.13,45.54,#76856E,Nakh-Daghestanian,Nakh,Russia
Chechen_Pẋarçxoy Äqqiy [che-4],43.12,46.48,#808972,Nakh-Daghestanian,Nakh,Russia
Chechen_Şaroy [che-3],42.63,45.8,#868460,Nakh-Daghestanian,Nakh,Russia
Chechen_Ҫ̇äberloy [che-2],42.6,46,#868460,Nakh-Daghestanian,Nakh,Russia
Cheke_Holo_Maringe [mrn],-8.5,159.67,#537BA2,Oceanic,Western Oceanic,Solomons
Chemakum [xch],48.08,-122.93,#A48594,Chimakuan,,USA
Chemehuevi [ute-2],34.33,-115.17,#8A84D1,Uto-Aztecan,Numic,USA
Chemnitz [nds-5],50.83,12.92,#7E9176,Indo-European,Germanic,Germany
Chen [nbe-2],26.58,95.1,#4C8DA1,Tibeto-Burman,Konyak,India
Chenapian [cjn],-4.25,142.33,#836693,Sepik,Iwam-Wogamus,Papua New Guinea
Chenchu [cde],15.88,79.25,#938A7C,Dravidian,South-Central Dravidian,India
Cheng [jeg],15,107.167,#765B9A,Austroasiatic,Bahnaric,Laos
Chengdu [cmn-14],30.6,104.1,#4AA193,Tibeto-Burman,Sinitic,China
Chengfeng [xxx-87],29.685,113.49,#308F99,Hmong-Mien,Hmongic,China
Chengqiao [wuu-6],31.63,121.4,#35B376,Tibeto-Burman,Sinitic,China
Chenxian [hsn-18],26.34,113.285,#44B87B,Tibeto-Burman,Sinitic,China
Chenzhou [hsn-8],25.77,113.01,#48C078,Tibeto-Burman,Sinitic,China
Chepang [cdm],28.05,83.92,#357CAD,Tibeto-Burman,Chepang,Nepal
Cheremis [mrj],55.624,55.484,#7E808C,Uralic,Mari,Russia
Cherepon [cpn],6.05,-0.11,#656385,Niger-Kongo,Atlantic-Congo,Ghana
Cherokee [chr],35.5,-83.5,#AF896B,Iroquoian,Southern Iroquoian,USA
Cherokee_lower [chr-3],37.48,-82.53,#B3885A,Iroquoian,Southern Iroquoian,USA
Cherokee_Qualla [chr-2],35.5,-83.26,#B98D7C,Iroquoian,Southern Iroquoian,USA
Cheyenne [chy],43.5,-104,#BF756B,Algic,Algonquian,USA
Chiapanec [cip],16.66,-91.94,#8E8271,Otomanguean,Western Otomanguean,Mexico
Chibcha [chb-2],9.2,-74.5,#A97F72,Chibchan,Core Chibchan,Colombia
Chichewa [nya-2],-14.8,32.81,#474D76,Niger-Kongo,Atlantic-Congo,Malawi
Chichimec [pei],24.87,-103.7,#746D8A,Otomanguean,Western Otomanguean,Mexico
Chichimeco-Jonaz [pei],21.29,-100.52,#643E6A,Otomanguean,Western Otomanguean,Mexico
Chickasaw [cic],34,-88,#90905E,Muskogean,Western Muskogean,USA
Chietino [ita-44],42.35,14.17,#729D7A,Indo-European,Romance,Italy
Chifundi [swh-13],-4.57,39.43,#6A647B,Niger-Kongo,Atlantic-Congo,Tanzania
Chiguano_Izoceño [gui-2],-20,-63,#C67B65,Tupian,Tupi-Guarani,Bolivia
ChiKunda [kdn],-15.73,30.28,#5E5378,Niger-Kongo,Atlantic-Congo,Mozambique
Chilcotin [clc],52,-125,#8E835D,Dene-Yeniseic,Na-Dene,Canada
Chimane [cas-4],-14.64,-67.84,#9F8196,Moseten,Chimane,Bolivia
Chimariko [cid],41,-123,#848399,Chimariko,,USA
Chimila [cbg],10.75,-73,#5B3278,Chibchan,Core Chibchan,Colombia
Chimwiini [swh-4],1.1,43,#65644D,Niger-Kongo,Atlantic-Congo,Somalia
Chin_Daai [dao],21.1,93.65,#508FAF,Tibeto-Burman,Kuki-Chin-Naga,Myanmar
Chin_Daai_Mkuui [dao-2],21.25,93.5,#3F99B4,Tibeto-Burman,Kuki-Chin-Naga,Myanmar
Chin_Falam [cfm],22.9,93.67,#3D7D7C,Tibeto-Burman,Kuki-Chin-Naga,Myanmar
Chin_Tiddim [ctd],23.333,93.667,#5E9883,Tibeto-Burman,Kuki-Chin-Naga,Myanmar
Chinali [cih],32.5,77.83,#5A8157,Indo-European,Indo-Iranian,India
Chinantec_Chiltepec [csa],17.93,-96.17,#6DA07D,Otomanguean,Western Otomanguean,Mexico
Chinantec_Comaltepec [cco],17.57,-96.55,#579064,Otomanguean,Western Otomanguean,Mexico
Chinantec_La-Alicia [xxx-96],17.64,-96.02,#52927E,Otomanguean,Western Otomanguean,Mexico
Chinantec_Lacova [xxx-80],17.46,-95.94,#52927B,Otomanguean,Western Otomanguean,Mexico
Chinantec_Lalana [cnl],17.475,-95.875,#44AA69,Otomanguean,Western Otomanguean,Mexico
Chinantec_Latani [tpx-2],17.38,-95.91,#639375,Otomanguean,Western Otomanguean,Mexico
Chinantec_Lealao [cle],17.32,-95.93,#4F8A61,Otomanguean,Western Otomanguean,Mexico
Chinantec_Mayultianguis [xxx-99],17.92,-96.57,#639375,Otomanguean,Western Otomanguean,Mexico
Chinantec_Ojitlan [chj],18.05,-96.4,#479C76,Otomanguean,Western Otomanguean,Mexico
Chinantec_Ozumacin [chz],17.68,-96.23,#469782,Otomanguean,Western Otomanguean,Mexico
Chinantec_Palantla [cpa],17.83,-96.39,#599277,Otomanguean,Western Otomanguean,Mexico
Chinantec_Petlapa [xxx-105],17.48,-96.025,#52927B,Otomanguean,Western Otomanguean,Mexico
Chinantec_Quetzalapa [xxx-93],17.34,-95.88,#539B79,Otomanguean,Western Otomanguean,Mexico
Chinantec_Quiotepec [chq],17.6,-96.58,#3F9872,Otomanguean,Western Otomanguean,Mexico
Chinantec_Rio-Chiquito [xxx-95],17.6,-95.97,#579880,Otomanguean,Western Otomanguean,Mexico
Chinantec_Sochiapam [cso],17.825,-96.67,#5A9B75,Otomanguean,Western Otomanguean,Mexico
Chinantec_Temextitlan [cco-2],17.59,-96.55,#989858,Otomanguean,Western Otomanguean,Mexico
Chinantec_Teotalcingo [xxx-94],17.42,-95.95,#52927B,Otomanguean,Western Otomanguean,Mexico
Chinantec_Tepetotutla [cnt],17.26,-96.11,#469B6D,Otomanguean,Western Otomanguean,Mexico
Chinantec_Tlacoatzintepec [ctl],17.86,-96.6,#55986D,Otomanguean,Western Otomanguean,Mexico
Chinantec_Usila [cuc],17.89,-96.52,#498960,Otomanguean,Western Otomanguean,Mexico
Chinantec_Valle_Nacional [cvn],17.77,-96.3,#739E8E,Otomanguean,Western Otomanguean,Mexico
Chinantec_Yolox [xty],17.61,-96.57,#649E7F,Otomanguean,Western Otomanguean,Mexico
Chindamba [ndj],-8.4,36.03,#738D7C,Niger-Kongo,Atlantic-Congo,Tanzania
Chinook [chh],46,-124,#A68A81,Chinook,Lower Chinook,USA
Chinsenga [nse],-15.39,31.35,#5E537F,Niger-Kongo,Atlantic-Congo,Mozambique
ChiNyanja [nya],-15,35,#555083,Niger-Kongo,Atlantic-Congo,Malawi
Chioggiotto [ita-23],44.22,12.28,#769A81,Indo-European,Romance,Italy
Chipaya [cap],-19,-68,#6F8A97,Uru-Chipaya,,Bolivia
Chiquimulilla [xin-2],14.08,-90.38,#7792C1,Xinca,,Guatemala
Chiquitano [cax],-17.5,-62,#AB859F,Chiquitano,,Bolivia
Chiquitano_Migueleño [cax-3],-17,-60.97,#AA86A4,Chiquitano,,Bolivia
Chiricahua [apm],33.5,-108,#89715C,Dene-Yeniseic,Na-Dene,USA
Chiriguano_Chané [gui-3],-17.793,-63.18,#AF7F99,Tupian,Tupi-Guarani,Bolivia
Chiru [cdf],24.99,93.5,#62817E,Tibeto-Burman,Kuki-Chin-Naga,India
Chitimacha [ctm],29.67,-91,#9C8076,Totozoquean-Chitimacha,Chitimacha,USA
Chitoniya_Tharu [the],27.58,84.41,#487972,Indo-European,Indo-Iranian,Nepal
Chittagong [ben-2],22.37,91.8,#72784F,Indo-European,Indo-Iranian,Bangladesh
Chiwere [iow-2],40.05,-95.52,#A2868D,Siouan,Western Siouan,USA
Chöcangacakha [cgk],27.53,91.14,#36855D,Tibeto-Burman,Bodic,Bhutan
Chöcangacakha-2 [cgk-2],27.55,90.92,#488D61,Tibeto-Burman,Bodic,Bhutan
Chochenyo [cst],37.65,-121.91,#A88785,Yok-Utian,Utian,USA
Chocho [coz],17.67,-97.33,#575143,Otomanguean,Eastern Otomanguean,Mexico
Choctaw [cho],32.25,-88.5,#AA8578,Muskogean,Western Muskogean,USA
Chokobo [cbo],10.35,8.85,#556275,Niger-Kongo,Atlantic-Congo,Nigeria
Chokri [nri],26.67,93.75,#2D8887,Tibeto-Burman,Kuki-Chin-Naga,India
Chokri-2 [nri-2],25.7,94.3,#367D78,Tibeto-Burman,Kuki-Chin-Naga,India
Chokwe [cjk],-9.702,22.876,#4C4C53,Niger-Kongo,Atlantic-Congo,Democratic Republic of the Congo
Cholon [cht],-8,-77.5,#A5879A,Cholon,,Peru
Chomo [cfg],8.87,10.82,#A48B40,Niger-Kongo,Atlantic-Congo,Nigeria
Chong [cog-2],12.91,102.01,#56568A,Austroasiatic,Pearic,Thailand
Chong'an [mnp-5],27.76,118.03,#47A586,Tibeto-Burman,Sinitic,China
Chongming [wuu-35],31.67,121.5,#31A2A9,Tibeto-Burman,Sinitic,China
Chongqing [cmn-61],29.55,106.6,#48B78A,Tibeto-Burman,Sinitic,China
Chongyang [gan-3],29.55,114.17,#469F93,Tibeto-Burman,Sinitic,China
Chono [xxx-70],-46,-75,#8580A4,Chonan,Chonan Proper,Chile
Chontal [chd],18.17,-92.58,#918D8F,Mayan,Core Mayan,Mexico
Chontal [clo],16.3,-95.5,#A38088,Tequistlatecan,,Mexico
Chonyi [coh],-3.8,39.76,#4C5C6C,Niger-Kongo,Atlantic-Congo,Kenya
Chopi [cce],-24.718,34.744,#544E84,Niger-Kongo,Atlantic-Congo,Mozambique
Chori [cry],9.59,8.06,#476A96,Niger-Kongo,Atlantic-Congo,Nigeria
Chorote [crq],-22,-63,#8182B9,Matacoan,Mataguayo II,Argentina
Chorti [caa],14.8,-89.3,#A17E7F,Mayan,Core Mayan,Guatemala
Chrau [crw],10.667,107.5,#6F67A7,Austroasiatic,Bahnaric,Vietnam
Chru [cje],11.774,108.575,#7476A9,Malayo-Polynesian,Malayo-Sumbawan,Vietnam
Chuave [cjv],-6.168,145.119,#958156,Trans New Guinea,Chimbu-Wahgi,Papua New Guinea
Chuj [cac],16,-91.5,#9B7793,Mayan,Core Mayan,Mexico
Chuj_Ixtatán [cnm],15.833,-91.483,#907C90,Mayan,Core Mayan,Guatemala
Chukchansi [yok-4],36.99,-119.64,#7482BE,Yok-Utian,Yokuts,USA
Chukchi [ckt],67,-173,#99869C,Chukotko-Kamchatkan,Main Chukotko-Kamchatkan,Russia
Chulym [clw],54.32,89.55,#648784,Turkic,Common Turkic,Russia
Chumash [boi],34.5,-120.25,#6A98C3,Chumashan,South Chumashan,USA
Chumash_Barbareño [boi-2],34.46,-119.7,#6C97BE,Chumashan,South Chumashan,USA
Chumash_Cruzeño [veo-4],34.05,-119.86,#6C97BF,Chumashan,South Chumashan,USA
Chumash_Ineseño [inz],34.61,-120.09,#6C95C1,Chumashan,South Chumashan,USA
Chumash_Obispeño [veo-5],35.29,-120.67,#739CC2,Chumashan,North Chumashan,USA
Chumash_Purisimeño [veo-2],34.69,-120.43,#7099B7,Chumashan,South Chumashan,USA
Chumash_Ventureño [veo],34.22,-118.72,#7295C0,Chumashan,South Chumashan,USA
Chumash_Ventureño-Mitsqanaqan [veo-3],34.28,-119.23,#7095C0,Chumashan,South Chumashan,USA
Chumburung [ncu],8.15,-0.28,#5B7285,Niger-Kongo,Atlantic-Congo,Ghana
Chung [scq],14.004,99.55,#584685,Austroasiatic,Pearic,Laos
Chungcheong_Korean [kor-6],35.83,127.15,#7891BC,Korean,,Korea
Chuukese [chk],7.333,151.75,#8470C3,Oceanic,Micronesian,USA Federated States of Micronesia
Chuvash [chv],55.5,47.5,#8897A2,Turkic,Oghur,Russia
Chuwabu [chw],-17.36,37.1,#4B6B58,Niger-Kongo,Atlantic-Congo,Mozambique
Chuxnabán_Mixe [pxm],17,-96,#928580,Totozoquean-Chitimacha,Totozoquean,Mexico
Ciacia [cia],-5.75,122.75,#89477C,Malayo-Polynesian,Celebic,Indonesia-Sulawesi
Cicipu [awc],10.911,5.703,#6E6D5E,Niger-Kongo,Atlantic-Congo,Nigeria
Cijomvu [swh-11],-3.98,39.62,#576066,Niger-Kongo,Atlantic-Congo,Tanzania
CiLuba [lua],-6,22,#727175,Niger-Kongo,Atlantic-Congo,Democratic Republic of the Congo
Cimbrian [cim],45.62,11.13,#50827C,Indo-European,Germanic,Italy
Cisuundi [sdj],-5.56,12.19,#76617D,Niger-Kongo,Atlantic-Congo,Angola
Citak [tml],-5.509,139.218,#AF8BA1,Trans New Guinea,Asmat-Kamoro,Indonesia-Papua
Citumbuka [tum],-11,33.5,#5B7E72,Niger-Kongo,Atlantic-Congo,Malawi
Coahuilteco [xcw],28,-100,#907F8E,Coahuilteco,,USA
Cocama-Cocamilla [cod],-5,-74.3,#A486A3,Tupian,Tupi-Guarani,Peru
Cochimi [coj],27.28,-112.89,#9B858C,Yuman-Cochimi,Cochimi,Mexico
Coconucan [cca],2.55,-76.65,#959290,Barbacoan,Northern Barbacoan,Colombia
Cocopa [coc],32.5,-115,#948682,Yuman-Cochimi,Yuman,USA
Coeur d'Alene [crd],47.33,-117,#8193A6,Salish,Interior Salish,USA
Cofan [con],0.25,-77,#7F6681,Kofan,,Ecuador
Cog-rtse_rGyalrong-2 [jya-5],31.5,102,#548595,Tibeto-Burman,Na-Qiangic,China
Cognino [ita-12],45.61,7.36,#5B9A81,Indo-European,Romance,Italy
Cogtse Gyarong [jya],32.1,100.6,#4B7084,Tibeto-Burman,Na-Qiangic,China
Col [liw],-3.3,102.86,#827EA8,Malayo-Polynesian,Malayo-Sumbawan,Indonesia-Sumatra
Colac [xxx-42],-38.33,143.5,#638178,Pama-Nyungan,Kulinic,Australia
Colloquial_Tamil [tam-7],9.23,78.12,#686A43,Dravidian,South Dravidian,India
Columbian [col-2],48.22,-118.45,#8A949D,Salish,Interior Salish,USA
Comacchiese [ita-31],44.7,12.18,#669A89,Indo-European,Romance,Italy
Comanche [com],33.5,-101.5,#B883A3,Uto-Aztecan,Numic,USA
Comecrudo [xcm],26.09,-98.28,#B69093,Coahuiltecan,,Mexico
Comorian [wlc-2],-12.17,44.25,#756B6C,Niger-Kongo,Atlantic-Congo,Comoros
Comox [coo],49.75,-125,#8894AD,Salish,Central Salish,Canada
Cone [adx-4],34.58,103.5,#359C80,Tibeto-Burman,Bodic,China
Congjiang [kmc-2],25.752,108.91,#2792A5,Tai-Kadai,Kam-Tai,China
Coos [csz],43.5,-124.17,#8D868C,Coos,,USA
Cora [crn],23.333,-99,#866EBB,Uto-Aztecan,Corachol,Mexico
Cora_Ixcatan [crn-2],20.88,-103.35,#8F79C2,Uto-Aztecan,Corachol,Mexico
Cornish [cor],50.5,-4.5,#7C9076,Indo-European,Celtic,Britain
Corsican [cos],42.1,9.5,#6D7864,Indo-European,Romance,France
Cosao [xxx-25],21.62,101.567,#2C9091,Tibeto-Burman,Lolo-Burmese,China
