name,latitude,longitude,color,family,subgroup,country
!Xoon [nmn],-24,21.5,#8AC313,Tuu ,Hua,Botswana
||Ana [gnk-2],-22.2,22.4,#A97D07,Khoe ,Khoe,Botswana
||Ani [hnh],-19.3,22.5,#CB7D19,Khoe ,Khoe,Botswana
||Gana [gnk],-19,22.5,#8C7D00,Khoe ,Khoe,Botswana
||Xekwi [xeg],-23,22,#FF7E89,Tuu ,!Kwi,Botswana
|Gwi [gwj],-22.435,21.654,#BD7D10,Khoe ,Khoe,Botswana
|Xam [xam],-30.34,21.82,#BDEF90,Tuu ,!Kwi,South Africa
A'iwa [ash],-2,-74.5,#FA78A1,A'iwa ,,Peru
A'jië [aji],-21.342,165.459,#FA78A1,Oceanic,Southern Oceanic,New Caledonia
Aari [aiw],6,36.6,#FA78A1,Afro-Asiatic ,Omotic,Ethiopia
Abanyom [abm],6.499,8.647,#DB6DD7,Niger-Kongo ,Atlantic-Congo,Nigeria
Abar [mij-3],6.59,10.26,#FA78A1,Niger-Kongo ,Atlantic-Congo,Cameroon
Abau [aau],-4,141.167,#257E25,Sepik ,Abau,Papua New Guinea
Abawiri [flh-2],-3.05,139.21,#88202A,Lakes Plains ,Eastern Lakes Plains,Indonesia-Papua
Abaza [abq],44.34,41.67,#FF7E89,North-west Caucasus ,Abaza-Abkhaz,Russia
Abduyi [pes-4],29.7,52.07,#0E74B8,Indo-European ,Indo-Iranian,Iran
Abelam [abt-2],-3.83,143.17,#DB6DD7,Ndu ,Nuclear Ndu,Papua New Guinea
Abellen [abp],15.41,120.2,#027B95,Malayo-Polynesian,Philippines,Philippines
Abenaki_Western [abe],44,-72.25,#0E74B8,Algic ,Algonquian,USA
Aberdeenshire_English [sco-3],57.3,-2,#0E74B8,Indo-European ,Germanic,Britain-Scotland
Abidji [abi],5.66,-4.58,#DB6DD7,Niger-Kongo ,Atlantic-Congo,Côte d'Ivoire
Abinomn [bsa],-3,138.8,#8C7D00,Abinomn ,,Indonesia-Papua
Abipon [axb],-26,-61,#DB6DD7,Guaicuruan ,Southern Guaicuruan,Argentina
Abkhaz [abk],43,41.03,#FF7D8A,North-west Caucasus ,Abaza-Abkhaz,Abkhazia
Abkhaz_Bzyp [ady-13],43.32,40.41,#FF7E89,North-west Caucasus ,Abaza-Abkhaz,Abkhazia
Abkhaz_Sadz [ady-12],43.33,40.22,#FF7D8A,North-west Caucasus ,Abaza-Abkhaz,Abkhazia
Abron [abr],8.03,-2.8,#437D0F,Niger-Kongo ,Atlantic-Congo,Ghana
Abruzzo [nap-3],42.66,13.7,#B57CF3,Indo-European ,Romance,Italy
Abua [abn],4.8,6.654167,#0E74B8,Niger-Kongo ,Atlantic-Congo,Nigeria
Abui [abz],-8.417,124.6,#027B95,Timor-Alor-Pantar ,Alor-Pantar,Indonesia-NTT
Abujh_Maria [mrr-2],18.75,80.68,#DB6DD7,Dravidian ,South-central,India
Abun [kgr],-0.833,132,#687D02,West Papuan ,Birds Head,Indonesia-Papua
Abure [abu],5.22,-3.64,#DB6DD7,Niger-Kongo ,Atlantic-Congo,Côte d'Ivoire
Acatec [agu-2],15.7,-91.617,#FD7B95,Mayan ,Core Mayan,Guatemala
Aceh_Lhokseumawe [ace-6],5.19,97.14,#FA78A1,Malayo-Polynesian,Malayo-Sumbawan,Indonesia-Sumatra
Aceh_Pidie [ace-7],5.38,95.96,#DB6DD7,Malayo-Polynesian,Malayo-Sumbawan,Indonesia-Sumatra
Acehnese [ace],5.333,96.167,#DB6DD7,Malayo-Polynesian,Malayo-Sumbawan,Indonesia-Sumatra
Acehnese_Northeast [ace-5],4.62,97.62,#DB6DD7,Malayo-Polynesian,Malayo-Sumbawan,Indonesia-Sumatra
Acehnese_South [ace-3],4.1,96.23,#DB6DD7,Malayo-Polynesian,Malayo-Sumbawan,Indonesia-Sumatra
Acehnese_Southwest [ace-2],5.05,95.34,#0E74B8,Malayo-Polynesian,Malayo-Sumbawan,Indonesia-Sumatra
Acehnese_West [ace-4],5.47,95.26,#0E74B8,Malayo-Polynesian,Malayo-Sumbawan,Indonesia-Sumatra
Achagua [aca],4.002,-72.814,#FA78A1,Arawak ,Northern Maipuran,Colombia
Achang_Lianghe [acn ],24.8,98.3,#AACEDB,Tibeto-Burman ,Lolo-Burmese,China
Achang_Longchuan [can-2],24.25,97.833,#CDC1CD,Tibeto-Burman ,Lolo-Burmese,China
Achang_Luxi [can-3],24.527,103.764,#DB6DD7,Tibeto-Burman ,Lolo-Burmese,China
Aćharêtâʹ [phl-2],35.4,71.75,#FE7C90,Indo-European ,Indo-Iranian,Afghanistan
Aché [guq],-25.25,-55.17,#0E74B8,Tupian ,Tupi-Guarani,Paraguay
Achi [acr],15.25,-90.5,#FA78A1,Mayan ,Core Mayan,Guatemala
Achuar [acu],-3,-76,#8C7D00,Jivaroan ,Shuaric,Peru
Achumawi [acv],41.5,-121,#8CD2E0,Palaihnihan ,,USA
Acipa [acp],10.71,6.01,#0E74B8,Niger-Kongo ,Atlantic-Congo,Nigeria
Acoma [kjq-2],34.92,-107.58,#B6BD1D,Keresan ,Western Keresan,USA
Acooli [ach],3.293,32.871,#FA78A1,Nilo-Saharan ,Nilotic,Uganda
Adamawa Fulfulde [fub],8.9,15.84,#0E74B8,Niger-Kongo ,Atlantic-Congo,Cameroon
Adang [adn],-8.163,124.456,#027B95,Timor-Alor-Pantar ,Alor-Pantar,Indonesia-NTT
Adangme [ada],5.8,0.33,#DB6DD7,Niger-Kongo ,Atlantic-Congo,Ghana
Adyghe [ady],44.1,39.08,#FF7D8A,North-west Caucasus ,Circassian,Russia
Adyghe_Abzakh [ady-11],44.7,38.9,#FF7D8A,North-west Caucasus ,Circassian,Russia
Adyghe_Besleney [ady-5],44.7,40.75,#FF7E88,North-west Caucasus ,Circassian,Russia
Adyghe_Black Sea Shapsugh [ady-14],44.375,38.4,#FF7E87,North-west Caucasus ,Circassian,Russia
Adyghe_Bzhedug [ady-6],45,39.3,#FF7E88,North-west Caucasus ,Circassian,Russia
Adyghe_Cherkess [ady-9],44.25,42.05,#FF7D8A,North-west Caucasus ,Circassian,Russia
Adyghe_Hakuchi [ady-8],44.88,38,#FF7D8A,North-west Caucasus ,Circassian,Russia
Adyghe_Kfar Kama [ady-7],32.72,35.44,#FF7D8A,North-west Caucasus ,Circassian,Israel
Adyghe_Natukai [ady-3],44.4,38.35,#FF7E87,North-west Caucasus ,Circassian,Russia
Adyghe_Shapsugh [ady-2],44.3,39,#FF7E87,North-west Caucasus ,Circassian,Russia
Adyghe_Temirgoy [ady-10],45.125,39.83,#FF7D8A,North-west Caucasus ,Circassian,Russia
Adyghe_Uzunyayla [ady-4],44.25,38.77,#FF7E89,North-west Caucasus ,Circassian,Russia
Adynyamathanha [adt],-31,139.5,#9B7EFC,Pama-Nyungan ,Thura-Yura,Australia
Adyukru [adj],5.38,-4.53,#DB6DD7,Niger-Kongo ,Atlantic-Congo,Ghana
Adzera [azr],-6.417,146.25,#687D02,Oceanic,Western Oceanic,Papua New Guinea
Aeka [aez],-8.601,147.994,#027B95,Trans New Guinea ,Oro-Wharton,Papua New Guinea
Afar [aar],11.85,42,#0E74B8,Afro-Asiatic ,Cushitic,Djibouti
Afitti [aft-2],12.44,31,#0E74B8,Nilo-Saharan ,Nyimang,Sudan
Afrikaans [afr],-33.9,18.5,#027B95,Indo-European ,Germanic,South Africa
Afshar [azj-2],37.475,57.33,#0E74B8,Turkic ,South-west Turkic,Iran
Agabag [mvv-2],3.965,117.095,#0E74B8,Malayo-Polynesian,North Borneo,Indonesia-Kalimantan
Agarabi [agd],-6.25,145.917,#437D0F,Trans New Guinea ,Morobe-Eastern Highlands,Papua New Guinea
Agatu [agc],7.98,7.72,#FD7B95,Niger-Kongo ,Volta-Niger,Nigeria
Aghem [agq],6.39,10.12,#FD7B95,Niger-Kongo ,Atlantic-Congo,Cameroon
Aghu [ahh],-6.333,140,#437D0F,Trans New Guinea ,Awyu-Dumut,Indonesia-Papua
Aghu-Tharrnggala [gtu],-13.73,142.43,#DB6DD7,Pama-Nyungan ,Paman,Australia
Aglla [idu-3],6.8,7.95,#DA7DD9,Niger-Kongo ,Volta-Niger,Nigeria
Agöb [kit],-9.09,142.53,#0E74B8,South New Guinea ,East Morehead River,Papua New Guinea
Agta [agt],17.967,121.833,#027B95,Malayo-Polynesian,Philippines,Philippines
Aguaruna [agr],-5.25,-78,#8C7D00,Jivaroan ,Aguaruna,Peru
Aguatec [agu],15.4,-91.4,#FA78A1,Mayan ,Core Mayan,Guatemala
Agul [agx],41.78,47.59,#FA78A1,Nakh-Daghestanian ,Lezgic,Russia
Agul_Burkixan [agx-2],41.78,47.6,#FD7B95,Nakh-Daghestanian ,Lezgic,Russia
Agul_Burshag [agx-3],41.86,47.62,#FD7B95,Nakh-Daghestanian ,Lezgic,Russia
Agul_Fite [agx-4],41.79,47.59,#FD7B95,Nakh-Daghestanian ,Lezgic,Russia
Agul_Richa [agx-5],41.78,47.61,#FD7B95,Nakh-Daghestanian ,Lezgic,Russia
Agusan [mbb-2],8.63,125.74,#027B95,Malayo-Polynesian,Philippines,Philippines
Agutaynen [agn],11.15,120.95,#0E74B8,Malayo-Polynesian,Philippines,Philippines
Agwamin [wmi],-16.986,143.001,#DB6DD7,Pama-Nyungan ,Paman,Australia
Ahan [ahn],7.44,6.01,#DB6DD7,Niger-Kongo ,Volta-Niger,Nigeria
Ahanta [aha],4.85,-1.95,#FD7B95,Niger-Kongo ,Atlantic-Congo,Ghana
Ahi [yix],24.4,103.4,#FA78A1,Tibeto-Burman ,Lolo-Burmese,China
Ahom [aho],25,95,#0E74B8,Tai-Kadai ,South Tai-Kadai,India
Ahtna [aht],62,-145,#FA78A1,Dene-Yeniseic ,Na-Dene,USA-Alaska
Ai-cham_Diwo [aih],25.8,107,#93FD92,Tai-Kadai ,South Tai-Kadai,China
Aikaná [tba],-12.1,-60.6,#8C7D00,Aikaná ,,Brazil
Ainu [ain],43.5,142,#437D0F,Ainu ,,Japan
Ainu_Sakhalin [ain-2],49.07,142.03,#437D0F,Ainu ,,Japan
Airoran [air],-1.7,138.15,#8C7D00,Kwerba ,West Kwerba,Indonesia-Papua
Aisi [mmq],-5.35,145.15,#027B95,Trans New Guinea ,Madang,Papua New Guinea
Ait_Seghrouchen [tzm-2],33,-5,#8CD2E0,Afro-Asiatic ,Berber,Morocco
Aita_Rotokas [roo-2],-6,155.08,#437D0F,North Bougainville ,Rotokas,Papua New Guinea-Bougainville
Aiton [aio-2],24,94,#0E74B8,Tai-Kadai ,South Tai-Kadai,India
Aitutaki [rar-2],-18.872,-159.782,#437D0F,Oceanic,Central Pacific,Cook Islands
Aiwoo [nfl],-10.5,166.5,#FA78A1,Oceanic,TeMotu,Solomons_East
Aizi [ahp],5.25,-4.5,#DB6DD7,Niger-Kongo ,Atlantic-Congo,Côte d'Ivoire
Aja [ajg],8.58,25.61,#FE7C90,Niger-Kongo ,Volta-Niger,Benin
Ajumbu [muc-2],6.55,10.27,#FA78A1,Niger-Kongo ,Atlantic-Congo,Cameroon
Aka [axk],3.46,15.73,#DB6DD7,Ubangian ,,Central African Republic
Aka [hru],27.2,92.9,#FA78A1,Tibeto-Burman ,Hrusish,India
Akan [aka],6.5,-1.25,#8C7D00,Niger-Kongo ,Atlantic-Congo,Ghana
Akaselem [aks],8.89,1.37,#DB6DD7,Niger-Kongo ,Atlantic-Congo,Togo
Akawaio [ake],6,-59.5,#437D0F,Cariban ,Venezuelan,Guyana
Ake [aik],8.6,8.76,#DB6DD7,Niger-Kongo ,Atlantic-Congo,Nigeria
Akei [tsr],-15.49,166.75,#0E74B8,Oceanic,Southern Oceanic,Vanuatu
Akha [ahk],20.3,99.6,#687D02,Tibeto-Burman ,Lolo-Burmese,Thailand
Akha_Buli [ahk-6],21.2,101.15,#DB6DD7,Tibeto-Burman ,Lolo-Burmese,Laos
Akha_Chicho [ahk-7],20.92,101.4,#DB6DD7,Tibeto-Burman ,Lolo-Burmese,Laos
Akha_Senchai [ahk-2],27,96,#DB6DD7,Tibeto-Burman ,Lolo-Burmese,Myanmar
Akie [oki],-5.43,37.19,#0E74B8,Nilo-Saharan ,Nilotic,Kenya
Aklanon [akl],11.58,122.33,#027B95,Malayo-Polynesian,Philippines,Philippines
Akosse [bss],5,9.7,#0E74B8,Niger-Kongo ,Atlantic-Congo,Cameroon
Akoye [miw-2],-7.645,145.65,#437D0F,Trans New Guinea ,Morobe-Eastern Highlands,Papua New Guinea
Akpes [ibe],7.5,5.96,#DB6DD7,Niger-Kongo ,Volta-Niger,Nigeria
Akuntsu [aqz],-12.74,-60.8,#687D02,Tupian ,Tupari,Brazil
Akurio [ako],3.0132,-55.6434,#687D02,Cariban ,Guianan Carib,Suriname
Akwa [akw],-0.005,15.612,#0E74B8,Niger-Kongo ,Atlantic-Congo,Congo
Akweya [akf],7.33,8.02,#BFC7D4,Niger-Kongo ,Volta-Niger,Nigeria
Akye-Gnan [ati-2],5.48,-4.09,#FA78A1,Niger-Kongo ,Atlantic-Congo,Côte d'Ivoire
Alaala [nrz],-9,146.667,#027B95,Oceanic,Western Oceanic,Papua New Guinea
Alaba-K'abeena [alw],7.39,38.17,#0E74B8,Afro-Asiatic ,Cushitic,Ethiopia
Alabama [akz],32.7,-86.1,#0E74B8,Muskogean ,Alabama-Koasati,USA
Alacalufe_Central [alc-2],-53.528,-70.9573,#DB6DD7,Alaculufan ,,Chile
Alacalufe_Southern [alc-3],-55.2,-69.4,#DB6DD7,Alaculufan ,,Chile
Alagwa [wbj],-4.64,35.72,#FF7D8D,Afro-Asiatic ,Cushitic,Tanzania
Alamblak [amp],-4.667,143.25,#437D0F,Sepik ,Sepik Hill,Papua New Guinea
Alas_Batak [btz],2.64,98,#0E74B8,Malayo-Polynesian,Batak-Barrier Islands,Indonesia-Sumatra
Alawa [alh],-15.75,134.333,#8A7DFF,Macro-Gunwinygu ,Marran,Australia
Albanian_Cham [als-4],39.6,20.8,#907CFE,Indo-European ,Albanian,Greece
Albanian_Gheg [aln],42.43,20.73,#907CFE,Indo-European ,Albanian,Albania
Albanian_Lab [als-5],40.17,19.83,#907CFE,Indo-European ,Albanian,Albania
Albanian_Mandritsa [aln-4],41.38,26.13,#907CFE,Indo-European ,Albanian,Bulgaria
Albanian_Tosk [als],40.5,20,#B57CF3,Indo-European ,Albanian,Albania
Albanian_Upper_Reka [aln-2],41.72,20.57,#B57CF3,Indo-European ,Albanian,Montenegro
Albanian_Vaccarizzo [als-6],39.58,16.43,#A37DFA,Indo-European ,Albanian,Italy
Alekano [gah-2],-6,145.4,#027B95,Trans New Guinea ,Morobe-Eastern Highlands,Papua New Guinea
Aleut [ale],54,-166,#BDEF90,Eskimo-Aleut ,Aleut,USA-Alaska
Aleut_Atkan [ale-4],52,-174,#BDEF90,Eskimo-Aleut ,Aleut,USA-Alaska
Aleut_Attuan [ale-2],52.85,172.9,#BDEF90,Eskimo-Aleut ,Aleut,USA-Alaska
Aleut_Eastern [ale-3],54.75,-164,#BDEF90,Eskimo-Aleut ,Aleut,USA-Alaska
Aleut_Unangas [],55.3,166,#67D1DF,Eskimo-Aleut ,Aleut,USA-Alaska
Algherese [cat-4],40.55,8.32,#907CFE,Indo-European ,Romance,Italy-Sardinia
Algonquin [alq],46,-82,#687D02,Algic ,Algonquian,Canada
Ali [ykm],-3.17,142.25,#DB6DD7,Oceanic,,Papua New Guinea
Alladian [ald],5.17,-4.33,#DB6DD7,Niger-Kongo ,Atlantic-Congo,Côte d'Ivoire
Allentiac [qbt],-32,-66,#907CFE,Huarpe ,,Argentina
Alngith [aid],-12.5,142.17,#FA78A1,Pama-Nyungan ,Paman,Australia
Alo-Teqel [tql-2],-13.8,167.47,#0E74B8,Oceanic,Southern Oceanic,Vanuatu
Alor [aol],-8.245,124.412,#0E74B8,Malayo-Polynesian,Timoric,Indonesia-NTT
Alsatian [gsw-2],48.32,7.44,#DB6DD7,Indo-European ,Germanic,France
Alsea [aes],44.67,-123.93,#CDC1CD,Alsean ,,USA
Altai [alt],51,87,#907CFE,Turkic ,North-east Turkic,Russia
Altai_Kumandy [atv],51.3,87.7,#347DE6,Turkic ,North-east Turkic,Russia
Alumbis_Murut [mvv],4.799,115.496,#0E74B8,Malayo-Polynesian,North Borneo,Malaysia-Borneo
Alune [alp],-3.167,128.333,#007D8B,Malayo-Polynesian,Central Maluku,Indonesia-Maluku-north
Alur [alz],2.5,31.25,#FA78A1,Nilo-Saharan ,Nilotic,Uganda
Alutiiq [ems],58.015,-152.765,#BDEF90,Eskimo-Aleut ,Eskimo,USA-Alaska
Alyawarr [aly],-24.6,134.5,#977EFD,Pama-Nyungan ,Arandic,Australia
Alyutor [alr],61,165,#907CFE,Chukotko-Kamchatkan ,Main Chukotko-Kamchatkan,Russia
Ama [amm],-4.168,141.671,#0E74B8,Left May ,,Papua New Guinea
Amahai_Soahuku [amq],-3.332,128.949,#027B95,Malayo-Polynesian,Central Maluku,Indonesia-Maluku-north
Amahuaca [amc],-10.8,-73.5,#8C7D00,Panoan ,Main Panoan,Peru
Amaimon [ali],-5.193,145.325,#0E74B8,Trans New Guinea ,Madang,Papua New Guinea
Amam [wer-2],-7.85,146.95,#027B95,Trans New Guinea ,Oro-Wharton,Papua New Guinea
Amami_Ryukyu [ams],28,129,#6BC214,Japonic ,Ryukyuan,Japan-Ryukyu
Amanab [amn],-3.5,141.167,#437D0F,Trans New Guinea ,Border,Papua New Guinea
Amanuban [aoz-3],-9.82,124.47,#027B95,Malayo-Polynesian,Timoric,Indonesia-NTT
Amanutun [aoz-2],-9.69,124.83,#0E74B8,Malayo-Polynesian,Timoric,Indonesia-NTT
Amara [aie],-5.533,148.667,#027B95,Oceanic,Western Oceanic,Papua New Guinea-Bismarcks
Amarakaeri [amr],-12.6938,-70.3235,#437D0F,Harakmbet ,Harakmbut,Peru
Amarasi [aaz],-10.08,124.33,#0E74B8,Malayo-Polynesian,Timoric,Indonesia-NTT
Amba_Nembao [utp],-11.27,166.48,#0E74B8,Oceanic,,Solomons_East
Ambae_West [omb],-15.5,167.75,#DB6DD7,Oceanic,Southern Oceanic,Vanuatu
Ambai [amk],-1.917,136.533,#437D0F,Malayo-Polynesian,Eastern Malayo-Polynesian,Indonesia-Papua
Ambel [xmt-2],-0.05,130.7,#0E74B8,Malayo-Polynesian,Eastern Malayo-Polynesian,Indonesia-Papua
Ambelau [mhs-4],-3.89,127.205,#0E74B8,Malayo-Polynesian,Central Maluku,Indonesia-Maluku-north
Ambele [ael],5.94,9.62,#DB6DD7,Niger-Kongo ,Atlantic-Congo,Cameroon
Amblong [alm],-15.497,166.926,#0E74B8,Oceanic,Southern Oceanic,Vanuatu
Ambrym_Southeast [tvk-2],-16.33,168.08,#027B95,Oceanic,Southern Oceanic,Vanuatu
Ambulas [abt],-3.75,143.083,#0E74B8,Ndu ,Nuclear Ndu,Papua New Guinea
Amdo [adx],36,94,#FA78A1,Tibeto-Burman ,Bodic,China
Ameland [frs-2],53.45,5.77,#027B95,Indo-European ,Germanic,Netherlands
Amele_Haija [aey],-5.25,145.75,#0E74B8,Trans New Guinea ,Madang,Papua New Guinea
Amele_Huar [aey-3],-5.287,145.718,#0E74B8,Trans New Guinea ,Madang,Papua New Guinea
Amele_Jagahala [aey-2],-5.264,145.642,#0E74B8,Trans New Guinea ,Madang,Papua New Guinea
Amfo'an [aoz-4],-9.45,123.9,#DB6DD7,Malayo-Polynesian,Timoric,Indonesia-NTT
Amharic [amh],10,38,#0E74B8,Afro-Asiatic ,Semitic,Ethiopia
Ami [amy],-14,130,#0E74B8,Western Daly ,Maranunggu,Australia
Amis [ami],23.333,121.333,#8C7D00,Austronesian ,East Formosan,Taiwan
Amo [amo],10.33,8.67,#DB6DD7,Niger-Kongo ,Atlantic-Congo,Nigeria
Amoy [nan],24.5,118,#6A018A,Tibeto-Burman ,Sinitic,China
Ampale [apz],-6.753,146.107,#687D02,Trans New Guinea ,Morobe-Eastern Highlands,Papua New Guinea
Amuesha [ame],-10,-73,#FD7B95,Arawak ,Western Maipuan,Peru
Amundava [adw],-10.9942,-63.0642,#8C7D00,Tupian ,Tupi-Guarani,Brazil
Amurdak [amg],-12.022,132.892,#867EFF,Iwaidjan ,Amurdak,Australia
Amuzgo [amu],16.83,-98,#FD7B95,Otomanguean ,Eastern Otomanguean,Mexico
Amuzgo_Huixtepec [amu-3],16.5,-98.1,#FA78A1,Otomanguean ,Eastern Otomanguean,Mexico
Amuzgo_San_Pedro [azg],16.85,-98,#8C7D00,Otomanguean ,Eastern Otomanguean,Mexico
Amuzgo_Xochistlahuaca [amu-2],16.79,-98.24,#FD7B95,Otomanguean ,Eastern Otomanguean,Mexico
Amwi [aml],25.209,92.068,#0E74B8,Austroasiatic ,Khasi-Palaung,India
Anaguta [nar],9.964,8.731,#DB6DD7,Niger-Kongo ,Atlantic-Congo,Nigeria
Anakalang [akg],-9.67,119.67,#0E74B8,Malayo-Polynesian,Flores-Sawu-Sumba,Indonesia-NTT
Anal [anm],24.33,93.99,#67D1DF,Tibeto-Burman ,Kuki-Chin-Naga,India
Anamuxra [imi],-4.667,145,#687D02,Trans New Guinea ,Madang,Papua New Guinea
Andalusian [spa-3],37.5,-3.6,#0E74B8,Indo-European ,Romance,Spain
Andi [ani],42.79,46.27,#FF7D8D,Nakh-Daghestanian ,Avar-Andi,Russia
Andi_Tad-Magitil [ani-2],42.75,46.25,#FF7D8D,Nakh-Daghestanian ,Avar-Andi,Russia
Andoa [anb],-2.9,-76.4051,#CB7D19,Zaparoan ,Iquito-Arabela,Peru
Andoké [ano],0,-72,#687D02,Andoké ,,Colombia
Anejom [aty],-20.25,169.833,#DB6DD7,Oceanic,Southern Oceanic,Vanuatu
Anem [anz],-5.667,149,#027B95,Anem ,,Papua New Guinea-Bismarcks
Aneme_Wake [aby],-9.733,148.52,#437D0F,Southeast Papuan ,Owen Stanley Ranges,Papua New Guinea
Anfillo [myo],8.57,34.65,#0E74B8,Afro-Asiatic ,Omotic,Ethiopia
Anfu [gan-20],27.38,114.62,#DB6DD7,Tibeto-Burman ,Sinitic,China
Angaatiha [agm],-7.22,146.25,#0E74B8,Trans New Guinea ,Morobe-Eastern Highlands,Papua New Guinea
Angal [age],-6,143.6,#347DE6,Trans New Guinea ,Engan,Papua New Guinea
Angal_Heneng [akh],-6.13,143.42,#347DE6,Trans New Guinea ,Engan,Papua New Guinea
Angami [njm],25.667,94.5,#AACEDB,Tibeto-Burman ,Kuki-Chin-Naga,India
Angas [anc],9.75,8.75,#0E74B8,Afro-Asiatic ,Chadic,Nigeria
Anggor [agg],-3.667,141.167,#437D0F,Trans New Guinea ,Border,Papua New Guinea
Anggreso [kwe-2],-2.17,138.25,#8C7D00,Kwerba ,Nuclear Kwerba,Indonesia-Papua
Angkamuthi [avm],-11.5,142.25,#DB6DD7,Pama-Nyungan ,Paman,Australia
Angkola_Batak [akb],1.518,99.531,#0E74B8,Malayo-Polynesian,Batak-Barrier Islands,Indonesia-Sumatra
Anguthimri [xxx-3],-12.333,141.833,#FE7C90,Pama-Nyungan ,Paman,Australia
Ani_Phowa [ypn],23.6,103.3,#FD7B95,Tibeto-Burman ,Lolo-Burmese,China
Anib [kni],9.55,8.6,#0E74B8,Niger-Kongo ,Atlantic-Congo,Nigeria
Anii [blo],9.003,1.669,#FD7B95,Niger-Kongo ,Atlantic-Congo,Benin
Anindilyagwa [aoi],-14,136.5,#AB7EF8,Macro-Gunwinygu ,East Arnhem,Australia
Anindilyagwa_East [aoi-2],-13.86,136.81,#B57EF3,Macro-Gunwinygu ,East Arnhem,Australia
Aniwa [fut],-19.256,169.6,#687D02,Oceanic,Central Pacific,Vanuatu
Anjam [boj],-5.441,145.737,#DB6DD7,Trans New Guinea ,Madang,Papua New Guinea
Ankave [aak],-7.137,145.744,#437D0F,Trans New Guinea ,Morobe-Eastern Highlands,Papua New Guinea
Anlong [],25.1,105.44,#907CFE,Tai-Kadai ,North Tai-Kadai,China
Anmatyerr_East [amx],-22.256,131.5,#9B7EFC,Pama-Nyungan ,Arandic,Australia
Anmatyerr_West [amx-2],-21,135,#9B7EFC,Pama-Nyungan ,Arandic,Australia
Anong [nun],27.2,98.8,#BFC7D4,Tibeto-Burman ,Nungish,China
Ansus [and],-1.73,135.806,#437D0F,Malayo-Polynesian,Eastern Malayo-Polynesian,Indonesia-Papua
Anta [tci-3],-8.65,141.52,#8C7D00,South New Guinea ,West Morehead River,Indonesia-Papua
Antakarinya [ant],-27.12,134.84,#8A7DFF,Pama-Nyungan ,Wati,Australia
Antioquian [xxx-164],7,-73,#687D02,Chibchan ,Core Chibchan,Colombia
Anuak [anu],7.18,34.097,#0E74B8,Nilo-Saharan ,Nilotic,South Sudan
Anufo [cko],10.218,0.33,#DB6DD7,Niger-Kongo ,Atlantic-Congo,Ghana
Añun [pbg],11,-71.62,#687D02,Arawak ,Northern Maipuran,Venezuela
Anuta [aud],-11.611,169.85,#437D0F,Oceanic,Central Pacific,Solomons_East
Anyi [gan-17],28.84,115.6,#DB6DD7,Tibeto-Burman ,Sinitic,China
Anyin [any],5.9,-2.9,#687D02,Niger-Kongo ,Atlantic-Congo,Côte d'Ivoire
Anywa [anu-2],7.3,33,#DB6DD7,Nilo-Saharan ,Nilotic,Sudan
Aore [aor],-15.577,167.181,#DB6DD7,Oceanic,Southern Oceanic,Vanuatu
Apache_Western [apw],33.9,-109.55,#FA78A1,Dene-Yeniseic ,Na-Dene,USA
Apalachee [xap],30.04,-84.17,#0E74B8,Muskogean ,Alabama-Koasati,USA
Apalai [apy],0,-54,#437D0F,Cariban ,Apalai,Brazil
Apali [ena],-5.088,145.017,#0E74B8,Trans New Guinea ,Madang,Papua New Guinea
Apatani [apt],27.4,93.8,#0E74B8,Tibeto-Burman ,Macro-Tani,India
Apiaká [api],-7.9484,-57.7365,#437D0F,Tupian ,Tupi-Guarani,Brazil
Apinaye [apn],-6.25,-48,#8C7D00,Macro-Je ,Je,Brazil
Apma [app],-15.775,168.158,#DB6DD7,Oceanic,Southern Oceanic,Vanuatu
Apma_Suru Kavian [app-2],-15.61,168.14,#DB6DD7,Oceanic,Southern Oceanic,Vanuatu
Apurinã [apu],-9,-67,#8C7D00,Arawak ,Southern Maipuran,Brazil
Aputai [apx],-7.888,126.505,#027B95,Malayo-Polynesian,Timoric,Indonesia-NTT
Arabana [ard],-28,137,#9B7EFC,Pama-Nyungan ,Karnic,Australia
Arabela [arl],-2,-75.17,#437D0F,Zaparoan ,Iquito-Arabela,Peru
Arabic [arb],30,42,#B57CF3,Afro-Asiatic ,Semitic,Saudi Arabia
Arabic_Abéché [ayl-4],13.83,20.83,#AACEDB,Afro-Asiatic ,Semitic,Libya
Arabic_Abha [acw-4],18.22,42.51,#607CFB,Afro-Asiatic ,Semitic,Saudi Arabia
Arabic_Afghanistan [acm-3],36.7,67.12,#DB6DD7,Afro-Asiatic ,Semitic,Afghanistan
Arabic_Algerian [arq],36.7,3.1,#B57CF3,Afro-Asiatic ,Semitic,Algeria
Arabic_Andalusian [xaa],35.767,-5.8,#907CFE,Afro-Asiatic ,Semitic,Spain
Arabic_Baghdad [acm-5],33.33,44.38,#0E74B8,Afro-Asiatic ,Semitic,Iran
Arabic_Bareqi [acw-7],18.93,41.94,#907CFE,Afro-Asiatic ,Semitic,Saudi Arabia
Arabic_Basra [acm],30.5,47.825,#AACEDB,Afro-Asiatic ,Semitic,Iraq
Arabic_Bukhara [abh],39.77,64.43,#DB6DD7,Afro-Asiatic ,Semitic,Uzbekistan
Arabic_Chad [shu-4],14,19,#0E74B8,Afro-Asiatic ,Semitic,Chad
Arabic_Coastal-Dhofari [acx],20.7,58.2,#0E74B8,Afro-Asiatic ,Semitic,Oman
Arabic_Cypriot [acy],34.343,33.011,#027B95,Afro-Asiatic ,Semitic,Cyprus
Arabic_Egyptian [arz],30,30,#027B95,Afro-Asiatic ,Semitic,Egypt
Arabic_Fezzan [ayl-3],26.33,13.43,#8CD2E0,Afro-Asiatic ,Semitic,Libya
Arabic_Gulf [afb],24,54,#B57CF3,Afro-Asiatic ,Semitic,United Arab Emirates
Arabic_Hadhrami_coast [jye-2],14.95,50.34,#607CFB,Afro-Asiatic ,Semitic,Yemen
Arabic_Hadhrami_wadi [jye-3],16.05,49,#607CFB,Afro-Asiatic ,Semitic,Yemen
Arabic_Harb [acw-5],25.81,42.87,#FD7B95,Afro-Asiatic ,Semitic,Saudi Arabia
Arabic_Hassaniya [mey],16.6,-7.25,#907CFE,Afro-Asiatic ,Semitic,Mauritania
Arabic_Hejazi [acw],21.543,41.173,#DB6DD7,Afro-Asiatic ,Semitic,Saudi Arabia
Arabic_Hejazi_Al'Ula [acw-3],26.627,37.917,#DB6DD7,Afro-Asiatic ,Semitic,Saudi Arabia
Arabic_Hejazi_Badr [acw-6],23.78,38.79,#DB6DD7,Afro-Asiatic ,Semitic,Saudi Arabia
Arabic_Ilbahariyya [arz],5.18,5.52,#41C8D4,Afro-Asiatic ,Semitic,Egypt
Arabic_JabalRazih [jye-4],16.92,43.29,#907CFE,Afro-Asiatic ,Semitic,Yemen
Arabic_Jijel [ary-2],36.82,5.75,#B57CF3,Afro-Asiatic ,Semitic,Algeria
Arabic_Jordanian [ajp-2],32,36,#DB6DD7,Afro-Asiatic ,Semitic,Jordan
Arabic_Judeo-Tunisian [ajt],33.87,10.85,#67D1DF,Afro-Asiatic ,Semitic,Tunisia
Arabic_Khawetna [arb-3],36.42,41.225,#8CD2E0,Afro-Asiatic ,Semitic,Turkey
Arabic_Khuzestan [acm-2],31.33,48.69,#FA78A1,Afro-Asiatic ,Semitic,Iran
Arabic_Lebanese [apc-2],33.883,35.502,#027B95,Afro-Asiatic ,Semitic,Lebanon
Arabic_Levantine_al-Karak [ajp-7],31.2,35.7,#DB6DD7,Afro-Asiatic ,Semitic,Jordan
Arabic_Levantine_Amman [ajp-6],31.9,35.9,#DB6DD7,Afro-Asiatic ,Semitic,Jordan
Arabic_Levantine_Homs [ajp-4],34.7,36.7,#DB6DD7,Afro-Asiatic ,Semitic,Syria
Arabic_Levantine_Jerusalem [ajp-5],31.8,35.2,#0E74B8,Afro-Asiatic ,Semitic,Israel
Arabic_Levantine_Northern_coast [ajp-8],34.9,35.9,#0E74B8,Afro-Asiatic ,Semitic,Syria
Arabic_Levantine_Northern_inland [ajp-9],33.1,35.7,#DB6DD7,Afro-Asiatic ,Semitic,Syria
Arabic_Levantine_Outer-south [ajp-11],31.3,34.6,#DB6DD7,Afro-Asiatic ,Semitic,Israel
Arabic_Levantine_Southern [ajp-10],31.7,34.9,#FA78A1,Afro-Asiatic ,Semitic,Israel
Arabic_Libyan [ayl],32,20.25,#607CFB,Afro-Asiatic ,Semitic,Libya
Arabic_Libyan_Western [ayl-2],32.5,13,#607CFB,Afro-Asiatic ,Semitic,Libya
Arabic_Mardin [apc-3],37.363,40.91,#FA78A1,Afro-Asiatic ,Semitic,Turkey
Arabic_Mauritanian [ary-4],18.083,-15.986,#B57CF3,Afro-Asiatic ,Semitic,Mauritania
Arabic_Mesopotamian [acm-4],33,44,#DB6DD7,Afro-Asiatic ,Semitic,Israel
Arabic_Moroccan [ary],34,-7,#93FD92,Afro-Asiatic ,Semitic,Morocco
Arabic_Muscat [acx-2],23.63,58.55,#DB6DD7,Afro-Asiatic ,Semitic,Oman
Arabic_Najdi [acw-2],23,45.5,#DB6DD7,Afro-Asiatic ,Semitic,Saudi Arabia
Arabic_Omani [acx-3],23.589,58.556,#607CFB,Afro-Asiatic ,Semitic,Oman
Arabic_Oran [arq-2],35.7,-0.63,#DB6DD7,Afro-Asiatic ,Semitic,Algeria
Arabic_Palestinian [ajp],31.769,35.6,#FA78A1,Afro-Asiatic ,Semitic,Palestine
Arabic_Qatari [afb-4],25.3,51.52,#907CFE,Afro-Asiatic ,Semitic,United Arab Emirates
Arabic_Sa'idi [aec],25,32.75,#0E74B8,Afro-Asiatic ,Semitic,Egypt
Arabic_Saudi [ars],24.48,40,#607CFB,Afro-Asiatic ,Semitic,Saudi Arabia
Arabic_Sudanese [apd],15.5,32.56,#907CFE,Afro-Asiatic ,Semitic,Sudan
Arabic_Syrian [apc],33,37,#93FD92,Afro-Asiatic ,Semitic,Syria
Arabic_Traras-Msirda [ary-3],35.18,-1.65,#907CFE,Afro-Asiatic ,Semitic,Algeria
Arabic_Tunisian [aeb],36,10,#67D1DF,Afro-Asiatic ,Semitic,Tunisia
Arabic_Yemeni [jye],14,47,#607CFB,Afro-Asiatic ,Semitic,Yemen
Arabic_Yemeni_Adeni [acq],11.5,43,#B57CF3,Afro-Asiatic ,Semitic,Yemen
Arabic_Yemeni_Hadhrami [ayh],16.67,49.5,#607CFB,Afro-Asiatic ,Semitic,Yemen
Arabic_Yemeni_Tihamiyya [arb-6],13.083,43.833,#607CFB,Afro-Asiatic ,Semitic,Yemen
Arabic_Yemeni_Zabidi [acq-2],14.2,43.317,#907CFE,Afro-Asiatic ,Semitic,Yemen
Arabic; North Israel Bedouin [ajp-12],32.83,35.33,#AACEDB,Afro-Asiatic ,Semitic,Israel
Aragonese [arg],41,-1,#607CFB,Indo-European ,Romance,Spain
Araki [akr],-15.629,166.957,#DB6DD7,Oceanic,Southern Oceanic,Vanuatu
Arakmbut [hug],-13.27,-71.21,#437D0F,Harakmbet ,Harakmbut,Peru
Aralle-Tabulahan [atq],-2.756,119.203,#027B95,Malayo-Polynesian,Greater South Sulawesi,Indonesia-Sulawesi
Arammba [stk],-8.25,141.5,#687D02,South New Guinea ,West Morehead River,Papua New Guinea
Arandai [jbj],-2.17,133,#687D02,Trans New Guinea ,South Birds Head,Indonesia-Papua
Aranese [oci-4],42.7,0.795,#907CFE,Indo-European ,Romance,Spain
Araona [aro],-12.333,-67.75,#DB6DD7,Tacanan ,Araona-Tacana,Bolivia
Arapaho [arp],39.565,-105.345,#687D02,Algic ,Algonquian,USA
Arapesh_Muhiang [aoj],-3.564,142.9,#0E74B8,Torricelli ,Kombio-Arapesh,Papua New Guinea
Arara_do_Acra [mcd-2],-8.841,-72.315,#8C7D00,Panoan ,Main Panoan,Brazil
Arara_do_Mato_Grosso [mcd-3],-9.5,-60,#687D02,Arara_do_Mato_Grosso ,,Brazil
Arara_do_Para [aap-2],-4.24,-53.34,#0E74B8,Cariban ,Pekodian,Brazil
Arára_Pará [aap],-4.2422,-53.3745,#0E74B8,Cariban ,Pekodian,Brazil
Araucanian lg [arn-2],-43,-73.5,#A37DFA,Araucanian ,,Chile
Arawak [arw],-8,-37.3,#027B95,Arawak  ,Northern Maipuran,Brazil
Araweté [awt],-4.142017,-52.416914,#687D02,Tupian ,Tupi-Guarani,Brazil
Arbanasi [aln-3],44.11,15.23,#907CFE,Indo-European ,Albanian,Croatia
Arbëresh [als-3],37.995,13.283,#B57CF3,Indo-European ,Albanian,Italy
Arbore [arv],4.92,36.8,#0E74B8,Afro-Asiatic ,Cushitic,Ethiopia
Archi [aqc],42.07,46.86,#FF7E89,Nakh-Daghestanian ,Lezgic,Russia
Arctic Bay_Inuit [ikt-5],73.036,-85.15,#0E74B8,Eskimo-Aleut ,Eskimo,Canada
Are [mwc],-9.67,150,#687D02,Oceanic,Western Oceanic,Papua New Guinea
Are'are [alu],-9.342,161.203,#437D0F,Oceanic,Southeast Solomonic,Solomons
Arem [aem],18.15,105.5,#DB6DD7,Austroasiatic ,Vietic,Laos
Argobba [agj],8.9,39.92,#0E74B8,Afro-Asiatic ,Semitic,Ethiopia
Arguni [agf],-2.667,132.5,#687D02,Malayo-Polynesian,Eastern Malayo-Polynesian,Indonesia-Papua
Ari [aac],-7.916,142.34,#437D0F,Papuan Gulf ,Gogodala-Suki,Papua New Guinea
Aribwatsa [laz],-6.667,146.917,#687D02,Oceanic,Western Oceanic,Papua New Guinea
Aribwaungg [ylu],-6.592,146.874,#DB6DD7,Oceanic,Western Oceanic,Papua New Guinea
Arifama-Miniafia [aai],-9.142,149.279,#437D0F,Oceanic,Western Oceanic,Papua New Guinea
Arikapu [ark],-13,-62.5,#687D02,Macro-Je ,Jabutí,Brazil
Arikara [ari],40,-97,#687D02,Caddoan ,Northern Caddoan,USA
Aringa [luc],3,31,#FA78A1,Nilo-Saharan ,Central Sudanic,Uganda
Aritinngithigh [rrt],-13,141.67,#DB6DD7,Pama-Nyungan ,Paman,Australia
Arizona Tewa [tew],35.8,-110.4,#0E74B8,Kiowa-Tanoan ,Tewa,USA
Armenian [hye],40,45,#DB6DD7,Indo-European ,Armenian,Armenia
Armenian_Agulis [hye-5],38.95,45.98,#DB6DD7,Indo-European ,Armenian,Azerbaijan
Armenian_Aslanberg [hye-9],41.2,30.5,#DB6DD7,Indo-European ,Armenian,Turkey
Armenian_Kharpert [hye-8],38.67,39.22,#DB6DD7,Indo-European ,Armenian,Armenia
Armenian_Khodorjur [hye-4],40.73,41.2,#DB6DD7,Indo-European ,Armenian,Turkey
Armenian_Malatya [hye-7],38.35,38.3,#DB6DD7,Indo-European ,Armenian,Turkey
Armenian_Sebastia [hye-6],39.75,37.02,#DB6DD7,Indo-European ,Armenian,Armenia
Armenian_Van [hye-10],38.49,43.38,#DB6DD7,Indo-European ,Armenian,Turkey
Armenian_Western [hye-2],40,40,#DB6DD7,Indo-European ,Armenian,Turkey
Armenian_Yerevan [hye-11],40.18,44.52,#DB6DD7,Indo-European ,Armenian,Armenia
Aromanian [rup],42,23,#DB6DD7,Indo-European ,Romance,Bulgaria
Aromanian-2 [rup-2],39.77,21.1,#907CFE,Indo-European ,Romance,Greece
Arop-Lokep [apr],-5.333,147.083,#027B95,Oceanic,Western Oceanic,Papua New Guinea
Arosi [aia],-10.333,161.5,#687D02,Oceanic,Southeast Solomonic,Solomons
Arpitan [frp-4],45.17,5.72,#907CFE,Indo-European ,Romance,France
Arrernte_Central [are],-22.85,133.7,#9B7EFC,Pama-Nyungan ,Arandic,Australia
Arrernte_Eastern [are-2],-23.292,134.445,#9B7EFC,Pama-Nyungan ,Arandic,Australia
Arrernte_Mparntwe [aer],-24,136,#9B7EFC,Pama-Nyungan ,Arandic,Australia
Arrernte_Pertame [xxx-82],-24.5,132,#9B7EFC,Pama-Nyungan ,Arandic,Australia
Arvanitika [als-2],38.42,23.08,#907CFE,Indo-European ,Albanian,Greece
As [asz],-0.722,131.787,#027B95,Malayo-Polynesian,Eastern Malayo-Polynesian,Indonesia-Papua
Asaro_Upper [aso],-5.967,145.292,#0E74B8,Trans New Guinea ,Morobe-Eastern Highlands,Papua New Guinea
Asharon [acz],10.8,30.3,#FD7B95,Talodi-Heiban ,Talodi,Sudan
Ashe [ahs],9.37,7.39,#8C7D00,Niger-Kongo ,Atlantic-Congo,Nigeria
Asheninka_Apurucayali [cpc],-10.018,-74.793,#8C7D00,Arawak ,Southern Maipuran,Peru
Ashéninka_Perené [prq],-10.8734,-75.245,#A97D07,Arawak ,Southern Maipuran,Peru
Ashéninka_Pichis [cpu],-9.9833,-74.9833,#8C7D00,Arawak ,Southern Maipuran,Peru
Ashéninka_Ucayali-Yurúa [cpb],-10.1619,-74.0234,#A97D07,Arawak ,Southern Maipuran,Brazil
Ashkun [ask],34.84,70.37,#CC7DE5,Indo-European ,Indo-Iranian,Afghanistan
Ashuku [nza-2],6.98,10.71,#8C7D00,Niger-Kongo ,Atlantic-Congo,Nigeria
Ashuslay [cag-2],-23.5,-60.5,#FD7B95,Matacoan ,Mataguayo I,Paraguay
Asi [bno-2],12.95,122.08,#027B95,Malayo-Polynesian,Malayo-Sumbawan,Philippines
Asienara [asi],-3.75,133.33,#437D0F,Trans New Guinea ,Asmat-Kamoro,Indonesia-Papua
Asmat [asc],-5.3,138.3,#687D02,Trans New Guinea ,Asmat-Kamoro,Indonesia-Papua
Asmat_North [nks],-5,138.5,#437D0F,Trans New Guinea ,Asmat-Kamoro,Indonesia-Papua
Assiniboine [asb],49,-100,#687D02,Siouan ,Western Siouan,Canada
Asturian [ast],43.33,-6,#607CFB,Indo-European ,Romance,Spain
Asuri [asr],23.04,84.54,#DB6DD7,Austroasiatic ,Munda,India
Asurini [asu],-3.3,-49.3,#8C7D00,Tupian ,Tupi-Guarani,Brazil
Asuriní_Tocantins [asu-2],-3.3,-50,#687D02,Tupian ,Tupi-Guarani,Brazil
Asuriní_Xingú [asn-2],-4.13,-52.32,#8C7D00,Tupian ,Tupi-Guarani,Brazil
Ata [ata],-5.667,151,#027B95,Ata ,,Papua New Guinea-Bismarcks
Ata_Manobo [atd],7.845,125.506,#027B95,Malayo-Polynesian,Philippines,Philippines
Atacameño [kuz],-23,-69,#FA78A1,Atacameño  ,,Chile
Atadei [slp-4],-8.46,123.555,#0E74B8,Malayo-Polynesian,Timoric,Indonesia-NTT
Atakapa [aqp],30,-93,#0E74B8,Atakapa ,,USA
Atamanu [jal],-3.396,129.313,#027B95,Malayo-Polynesian,Central Maluku,Indonesia-Maluku-north
Atampaya [amz],-11.33,142.5,#DB6DD7,Pama-Nyungan ,Paman,Australia
Atayal [tay],24.5,121,#DB6DD7,Austronesian ,Atayalic,Taiwan
Atchin [upv],-16,167.333,#687D02,Oceanic,Southern Oceanic,Vanuatu
Ateso [teo],1.915,33.955,#0E74B8,Nilo-Saharan ,Nilotic,Uganda
Athpare [aph],26.75,87.33,#0E74B8,Tibeto-Burman ,Kiranti,Nepal
Atikamekw [atj],48,-74,#687D02,Algic ,Algonquian,Canada
Atong [aot],25.5,90.5,#0E74B8,Tibeto-Burman ,Bodo-Garo,India
Atsawaka [atc],-14.17,-69.5,#8C7D00,Panoan ,Main Panoan,Peru
Atsi [atb-2],28,93.5,#8CD2E0,Tibeto-Burman ,Lolo-Burmese,India
Atsugewi [atw],40.75,-121,#8AC313,Palaihnihan ,,USA
Atta_Pamplona-1 [att-2],18.46,121.341,#437D0F,Malayo-Polynesian,Philippines,Philippines
Atta_Pamplona-2 [att],18.458,121.342,#0E74B8,Malayo-Polynesian,Philippines,Philippines
Attie [ati],6,-3.82,#FD7B95,Niger-Kongo ,Atlantic-Congo,Côte d'Ivoire
Au [avt],-3.5,142.083,#437D0F,Torricelli ,Central,Papua New Guinea
Auhelawa [kud],-10.284,151.02,#DB6DD7,Oceanic,,Papua New Guinea
Aulua [aul],-16.33,167.694,#DB6DD7,Oceanic,Southern Oceanic,Vanuatu
Aurland [nob-3],60.87,7.23,#DB6DD7,Indo-European ,Germanic,Norway
Austral [aut],-23.377,-149.498,#687D02,Oceanic,Central Pacific,French Polynesia
Auyana [auy],-6.523,145.708,#437D0F,Trans New Guinea ,Morobe-Eastern Highlands,Papua New Guinea
Auye [auu],-3.495,136.002,#437D0F,Trans New Guinea ,Western Trans New Guinea,Indonesia-Papua
Avá-Canoeiro [avv],-13.166403,-47.928611,#8C7D00,Tupian ,Tupi-Guarani,Brazil
Avar [ava],42.54,46.7,#FD7B95,Nakh-Daghestanian ,Avar-Andi,Russia
Avatime [avn],6.85,0.44,#D77A23,Niger-Kongo ,Atlantic-Congo,Ghana
Avava [tmb],-16.224,167.523,#DB6DD7,Oceanic,Southern Oceanic,Vanuatu
Aveteian [xxx-101],-16.443,167.43,#0E74B8,Oceanic,Southern Oceanic,Vanuatu
Avikam [avi],5.16,-5.25,#8B008A,Niger-Kongo ,Atlantic-Congo,Côte d'Ivoire
Avok [xxx-37],-16.53,167.7,#FA78A1,Oceanic,Southern Oceanic,Vanuatu
Avok_Maxbaxo [xxx-172],-16.496,167.665,#FD7B95,Oceanic,Southern Oceanic,Vanuatu
Avokaya [avu],5,30.2,#FA78A1,Nilo-Saharan ,Central Sudanic,Sudan
Awa [awb],-6.75,145.667,#687D02,Trans New Guinea ,Morobe-Eastern Highlands,Papua New Guinea
Awa Pit [kwi],0.75,-78.5,#DB6DD7,Barbacoan ,Northern Barbacoan,Ecuador
Awabakal [awk],-33.05,151.55,#0E74B8,Pama-Nyungan ,Yuin-Kuri,Australia
Awad Bing [bcu],-5.584,146.349,#027B95,Oceanic,Western Oceanic,Papua New Guinea
Awadhi [awa],27.5,81.5,#8CD2E0,Indo-European ,Indo-Iranian,India
Awak [awo],9.86,11.33,#DB6DD7,Niger-Kongo ,Atlantic-Congo,Nigeria
Awar [aya],-4,144.625,#687D02,Lower Sepik-Ramu ,Ramu,Papua New Guinea
Awara [awx],-6.094,146.441,#0E74B8,Oceanic,Western Oceanic,Papua New Guinea
Awbono [awh],-5.119,139.201,#437D0F,Bayono-Awbono ,,Indonesia-Papua
Aweer [bob-2],-1.717,40.967,#0E74B8,Afro-Asiatic ,Cushitic,Kenya
Awera [awr],-2.677,136.242,#437D0F,Lakes Plains ,Western Lakes Plains,Indonesia-Papua
Awetí [awe],-12.926,-54.277,#0E74B8,Tupian ,Aweti,Brazil
Awiakay [afp-2],-4.672,143.712,#0E74B8,Arafundi ,,Papua New Guinea
Awin [awi],-5.833,142.5,#027B95,Trans New Guinea ,Awin-Pa,Papua New Guinea
Awing [azo],5.88,10.24,#687D02,Niger-Kongo ,Atlantic-Congo,Cameroon
Awiya [som-2],10.851,36.892,#FE7C90,Afro-Asiatic ,Cushitic,Ethiopia
Awngi [awn],10.83,36.67,#FD7B95,Afro-Asiatic ,Cushitic,Ethiopia
Awngthim [gwm],-12.54,141.98,#FA78A1,Pama-Nyungan ,Paman,Australia
Awtuw [kmn],-3.5,141.917,#027B95,Sepik ,Ram,Papua New Guinea
Awutu [afu],5.42,-0.6,#DB6DD7,Niger-Kongo ,Atlantic-Congo,Ghana
Awyi [auw],-3,140.75,#437D0F,Trans New Guinea ,Border,Papua New Guinea
Axamb [ahb],-16.507,167.703,#FD7B95,Oceanic,Southern Oceanic,Vanuatu
Axi [yix-2],24.4,103.44,#FD7B95,Tibeto-Burman ,Lolo-Burmese,China
Axininca [cpc-2],-9,-75,#8C7D00,Arawak ,Southern Maipuran,Peru
Axvax [akv],42.379,46.384,#FD7B95,Nakh-Daghestanian ,Avar-Andi,Russia
Ayere [aye],7.52,6.02,#DB6DD7,Niger-Kongo ,Volta-Niger,Nigeria
Aymara [ayr],-16,-69.5,#907CFE,Aymaran ,,Peru
Aymara_Carangas [ayr-3],-18.45,-67.45,#907CFE,Aymaran ,,Bolivia
Aymara_Chile [ayc],-19.15,-69.4,#907CFE,Aymaran ,,Chile
Aymara_Muylaq' [ayr-2],-16.675,-70.712,#907CFE,Aymaran ,,Peru
Äynu [aib],38.069,76.227,#DB6DD7,Turkic ,South-east Turkic,China
Ayoré [ayo],-20.5,-59.25,#6BC214,Zamucoan ,,Paraguay
Ayu [ayu],9.26,8.6,#DB6DD7,Niger-Kongo ,Atlantic-Congo,Nigeria
Azerbaijani [azj],40.5,48.5,#DB6DD7,Turkic ,South-west Turkic,Azerbaijan
Azerbaijani_Tabriz [azj-3],38.07,46.3,#0E74B8,Turkic ,South-west Turkic,Azerbaijan
Azeri [azb],40.67,47.75,#DB6DD7,Turkic ,South-west Turkic,Azerbaijan
Azha [aza],23.37,104.25,#FD7B95,Tibeto-Burman ,Lolo-Burmese,China
Azhe [yiz],24.2,103.6,#DA7DD9,Tibeto-Burman ,Lolo-Burmese,China
Ba:ngingi_Sama [sse],6.133,121.805,#0E74B8,Malayo-Polynesian,Barito,Philippines
Baagandji [drl],-32,142.533,#9B7EFC,Pama-Nyungan ,Yarli-Baagandji,Australia
Baangi [bqx],10.81,5.73,#FA78A1,Niger-Kongo ,Atlantic-Congo,Nigeria
Baarin [mon-4],43.53,118.67,#0E74B8,Mongolic ,Core Mongolic,China
Baatonum [bba-2],9.63,3,#0E74B8,Niger-Kongo ,Atlantic-Congo,Benin
Baba [bbw],6.11,10.52,#DB6DD7,Niger-Kongo ,Atlantic-Congo,Cameroon
Babanki [bbk],6.104,10.311,#DB6DD7,Niger-Kongo ,Atlantic-Congo,Cameroon
Babar_North [bcd],-7.83,129.58,#437D0F,Malayo-Polynesian,Southeast Maluku,Indonesia-Maluku-south
Babar_Southeast [vbb],-7.92,129.67,#027B95,Malayo-Polynesian,Southeast Maluku,Indonesia-Maluku-south
Babatana [baa],-7.397,157.37,#0E74B8,Oceanic,Western Oceanic,Solomons
Babine-Witsuwit'en [bcr],55,-127,#FE7C90,Dene-Yeniseic ,Na-Dene,Canada
Babungo [bav],6.12,10.42,#0E74B8,Niger-Kongo ,Atlantic-Congo,Cameroon
Babuza [bzg-2],24,120.58,#0E74B8,Austronesian ,East Formosan,Taiwan
Bachamal [xxx-72],-13.17,130.17,#8A7DFF,Wagaydyic ,Wadjiginy,Australia
Bada [bhz],-1.793,120.313,#027B95,Malayo-Polynesian,Celebic,Indonesia-Sulawesi
Bade [bde],12.79,10.66,#FA78A1,Afro-Asiatic ,Chadic,Nigeria
Bade-2 [],12,12,#0E74B8,Afro-Asiatic ,Chadic,Nigeria
Badimaya [bia],-27.667,119,#9B7EFC,Pama-Nyungan ,Kardu,Australia
Badjala [xby],-25.084,152.529,#0E74B8,Pama-Nyungan ,Waka-Kabic,Australia
Badyara [pbp],11.633,-13.4,#0E74B8,Niger-Kongo ,Atlantic-Congo,Guinea
Baelelea [bvc],-8.453,160.66,#0E74B8,Oceanic,Southeast Solomonic,Solomons
Baenggu [bvd],-8.506,160.706,#0E74B8,Oceanic,Southeast Solomonic,Solomons
Baetora [btr],-15.258,168.166,#027B95,Oceanic,Southern Oceanic,Vanuatu
Bafang [cmn-76],35.6,103.217,#FA78A1,Tibeto-Burman ,Sinitic,China
Bafanji [bfj-2],5.84,10.46,#DB6DD7,Niger-Kongo ,Atlantic-Congo,Cameroon
Bafo [bwt],6.351,10.229,#0E74B8,Niger-Kongo ,Atlantic-Congo,Cameroon
Bafut [bfd],6.083,10.0999,#FA78A1,Niger-Kongo ,Atlantic-Congo,Cameroon
Baga_Koga [bgo],10.13,-13.95,#DB6DD7,Niger-Kongo ,Atlantic-Congo,Guinea
Baga_Mboteni [bcg],10.83,-14.55,#0E74B8,Niger-Kongo ,Atlantic-Congo,Guinea
Baga_Sitemu [bsp],10.48,-14.48,#DB6DD7,Niger-Kongo ,Atlantic-Congo,Guinea
Bagheli [bfy],24.35,81.43,#8CD2E0,Indo-European ,Indo-Iranian,India
Bagirmi [bmi],10.2,17,#FA78A1,Nilo-Saharan ,Central_Sudanic,Chad
Bagri [bgq],29.6,74.3,#8CD2E0,Indo-European ,Indo-Iranian,India
Bagulal [kva],42.56,46.17,#FE7C90,Nakh-Daghestanian ,Avar-Andi,Russia
Bagusa [kwe-3],-1.905,137.932,#8C7D00,Kwerba ,Nuclear Kwerba,Indonesia-Papua
Baharnah [afb-2],26.03,50.55,#0E74B8,Afro-Asiatic ,Semitic,Bahrain
Bahinemo [bjh],-4.435,142.726,#027B95,Sepik ,Sepik Hill,Papua New Guinea
Bahing [bhj],27.27,86.56,#0E74B8,Tibeto-Burman ,Kiranti,Nepal
Bahnar [bdq],14,108.5,#607CFB,Austroasiatic ,Bahnaric,Vietnam
Bai [bca],26,100,#FA78A1,Tibeto-Burman ,Bai,China
Bai_Eryuan [bca-2],26.12,99.95,#FA78A1,Tibeto-Burman ,Bai,China
Bai_Heqing [bca-3],26.56,100.18,#DB6DD7,Tibeto-Burman ,Bai,China
Bai_Lanping [bca-4],26.45,99.42,#DB6DD7,Tibeto-Burman ,Bai,China
Bai_Luobenzhuo [bca-5],26.42,98.89,#E8C88A,Tibeto-Burman ,Bai,China
Bai_Qiliqiao [bca-6],25.65,100.18,#DB6DD7,Tibeto-Burman ,Bai,China
Bai_Xiangyun [bca-7],25.48,100.55,#DB6DD7,Tibeto-Burman ,Bai,China
Bai_Yunlong [bca-8],25.88,99.37,#DB6DD7,Tibeto-Burman ,Bai,China
Bai_Zhoucheng [bca-9],24.48,101.34,#DB6DD7,Tibeto-Burman ,Bai,China
Baikeno [bkx],-9.3,124.32,#027B95,Malayo-Polynesian,Timoric,Timor leste
Baima [bqh],30.32,107.34,#FD7B95,Tibeto-Burman ,Bodic,China
Bainapi [dby],-7.904,142.715,#437D0F,Papuan Gulf ,Strickland,Papua New Guinea
Baining [gcc-2],-4.6,152,#027B95,Baining ,,Papua New Guinea-Bismarcks
Baiso [bsw-2],6.45,37.77,#FA78A1,Afro-Asiatic ,Cushitic,Somalia
Bajau_Semporna [ssb],4.5,118.5,#027B95,Malayo-Polynesian,Barito,Indonesia-Kalimantan
Bajau_Sulawesi [bdl],-3.75,122.5,#027B95,Malayo-Polynesian,Barito,Indonesia-Sulawesi
Bajuni [swh-3],-1,42.04,#DB6DD7,Niger-Kongo ,Bantoid,Comoros
Baka [bdh],4.8,31.6,#FE7C90,Nilo-Saharan ,Central Sudanic,Sudan
Baka [bkc],2.16,13.78,#DB6DD7,Ubangian ,Sere-Mba,Cameroon
Bakairí [bkq],-14,-55,#027B95,Cariban ,Pekodian,Brazil
Bakairí_West [bkq-2],-14.7302,-56.2479,#027B95,Cariban ,Pekodian,Brazil
Bakaka [bqz],4.8,9.8,#0E74B8,Niger-Kongo ,Atlantic-Congo,Cameroon
Bakhtiari [ldd],31.92,50.86,#DB6DD7,Indo-European ,Indo-Iranian,Iran
Baki [bki],-16.717,168.138,#DB6DD7,Oceanic,Southern Oceanic,Vanuatu
Bakoko [bkh],4.2,9.67,#0E74B8,Niger-Kongo ,Atlantic-Congo,Cameroon
Bakole [kme],4.44,8.97,#FD7B95,Niger-Kongo ,Atlantic-Congo,Cameroon
Balami [new-3],27.8,85.25,#67D1DF,Tibeto-Burman ,Newaric,Nepal
Balangao [blw],17.167,120.333,#027B95,Malayo-Polynesian,Philippines,Philippines
Balanta [ble],12,-15,#DB6DD7,Niger-Kongo ,Atlantic-Congo,Guinea-Bissau
Balantak [blz],-0.82,123.431,#027B95,Malayo-Polynesian,Celebic,Indonesia-Sulawesi
Balante_Sofa [bjt],12.54,-15.67,#DB6DD7,Niger-Kongo ,Atlantic-Congo,Guinea-Bissau
Balearic [cat-3],39.5,3,#907CFE,Indo-European ,Romance,Spain
Balendru [led],1.968,30.485,#FE7C90,Nilo-Saharan ,Central_Sudanic,Democratic Republic of the Congo
Bali-Vitu [wiv],-4.733,149.283,#027B95,Oceanic,Western Oceanic,Papua New Guinea-Bismarcks
Balinese [ban],-8.583,115.25,#DB6DD7,Malayo-Polynesian,Malayo-Sumbawan,Indonesia-NTB
Balingian [mel-6],2.92,112.53,#0E74B8,Malayo-Polynesian,Malayo-Sumbawan,Malaysia-Borneo
Balochi [bgp-2],27,63.5,#FA78A1,Indo-European ,Indo-Iranian,Pakistan
Balti [bft],35.2,76,#CC7DE5,Tibeto-Burman ,Bodic,Pakistan
Baluchi [bgp],28,62,#DB6DD7,Indo-European ,Indo-Iranian,Iran
Bambalang [bmo],5.86,10.54,#FD7B95,Niger-Kongo ,Atlantic-Congo,Cameroon
Bambara [bam],12.5,-7.5,#0E74B8,Mande ,Western Mande,Mali
Bamenyam [bce],5.77,10.33,#B57CF3,Niger-Kongo ,Atlantic-Congo,Cameroon
Bamu [bcf],-8,143.833,#437D0F,Kiwaian ,Bamu,Papua New Guinea
Bamun [bax],5.726,10.904,#0E74B8,Niger-Kongo ,Atlantic-Congo,Cameroon
Bamunka [bvm],6,10.51,#DB6DD7,Niger-Kongo ,Atlantic-Congo,Cameroon
Bana [bcw],10.42,13.58,#DB6DD7,Afro-Asiatic ,Chadic,Cameroon
Banam Bay [vrt-2],-16.41,167.78,#8C7D00,Oceanic,Southern Oceanic,Vanuatu
Banda [bnd],-5.25,133.17,#0E74B8,Malayo-Polynesian,Central Maluku,Indonesia-Maluku-north
Banda [bpd],2,22,#DB6DD7,Ubangian ,Banda,Central African Republic
Banda_Ndele [bfl],8.03,23.9,#DB6DD7,Ubangian ,Banda,Central African Republic
Bandi [bza],7.74,-10.17,#DB6DD7,Mande ,Western Mande,Liberia
Bandiaal [bqj],13.02,-15.32,#0E74B8,Niger-Kongo ,Atlantic-Congo,Senegal
Bandjalang [bdy],-28.75,153,#0E74B8,Pama-Nyungan ,Yugambeh-Bundjalung,Australia
Bandjalang-2 [bdy-2],-28.39,152.61,#0E74B8,Pama-Nyungan ,Yugambeh-Bundjalung,Australia
Bandjalang-Gidabal [bdy-3],-28.25,152,#0E74B8,Pama-Nyungan ,Yugambeh-Bundjalung,Australia
Banggai [bgz],-1.42,123.17,#027B95,Malayo-Polynesian,Celebic,Indonesia-Sulawesi
Banggime [dbb],14.78,-3.76,#027B95,Banggime ,,Mali
Bangolan [bgj],6.05,10.45,#687D02,Niger-Kongo ,Atlantic-Congo,Cameroon
Bangru [hru-3],27.9,93.35,#0E74B8,Tibeto-Burman ,Hrusish,India
Bangubangu [bnx],-4.689,27.693,#0E74B8,Niger-Kongo ,Atlantic-Congo,Democratic Republic of the Congo
Baniwa_Central [bwi-2],1.4091,-68.1358,#FA78A1,Arawak ,Northern Maipuran,Brazil
Baniwa_do_Içana [bwi],2.18,-67.77,#8AC313,Arawak ,Northern Maipuran,Brazil
Baniwa_Rio_Negro [bwi-3],0.053,-67.43,#0E74B8,Arawak ,Northern Maipuran,Brazil
Banjar [bjn],0.75,115.79,#DB6DD7,Malayo-Polynesian,Malayo-Sumbawan,Indonesia-Kalimantan
Banjari [lmn-2],16.5,77.455,#907CFE,Indo-European ,Indo-Iranian,India
Bankariya [cdm-2],27.5,85,#AACEDB,Tibeto-Burman ,Chepang,Nepal
Bankon [abb],4.37,9.64,#FD7B95,Niger-Kongo ,Atlantic-Congo,Cameroon
Banoni [bcm],-6.417,155.25,#8C7D00,Oceanic,Western Oceanic,Papua New Guinea-Bougainville
Bantang [pho-5],21.75,102.25,#0E74B8,Tibeto-Burman ,Lolo-Burmese,Laos
Bantawa [bap],27.2,87.1,#0E74B8,Tibeto-Burman ,Kiranti,Nepal
Banten [sun-2],-6.35,106.1,#DB6DD7,Malayo-Polynesian,Malayo-Sumbawan,Indonesia-Java
Bantik [bnq],1.564,124.859,#027B95,Malayo-Polynesian,Celebic,Indonesia-Sulawesi
Bantoanon [bno],12.784,122.049,#027B95,Malayo-Polynesian,Philippines,Philippines
Banyaduq [byd],0.5,110,#0E74B8,Malayo-Polynesian,Malayo-Sumbawan,Indonesia-Kalimantan
Banyum [bab],11.5,-16.5,#0E74B8,Niger-Kongo ,Atlantic-Congo,Guinea-Bissau
Banyun [bcb-2],12.75,-16.3,#0E74B8,Niger-Kongo ,Atlantic-Congo,Senegal
Baoan [peh],35.05,102.1,#FD7B95,Mongolic ,Core Mongolic,China
Baoan [yue-12],22.55,113.9,#0E74B8,Tibeto-Burman ,Sinitic,China
Baoan_Dahejia [peh-2],35.72,102.88,#FA78A1,Mongolic ,Core Mongolic,China
Baoan_Dongxiang [peh-5],35.6,103.22,#FD7B95,Mongolic ,Core Mongolic,China
Baoan_Kangjia [peh-4],35.04,101.25,#FA78A1,Mongolic ,Core Mongolic,China
Baoan_Ñantoq [peh-3],35.41,102.08,#FA78A1,Mongolic ,Core Mongolic,China
Bará [bao],0.1,-70.45,#54262F,Tucanoan ,East Tucanoan,Colombia
Baraba [tat-2],55.333,78.333,#DB6DD7,Turkic ,North-west Turkic,Russia
Barai [bbb],-9.417,148,#687D02,Southeast Papuan ,Owen Stanley Ranges,Papua New Guinea
Barain_Giliya [bva-2],12.08,18.58,#0E74B8,Afro-Asiatic ,Chadic,Chad
Barain_Jalking [bva-3],12.22,18.8,#0E74B8,Afro-Asiatic ,Chadic,Chad
Barain_Jalkiya [bva],12.18,18.68,#0E74B8,Afro-Asiatic ,Chadic,Chad
Barain_Komiya [bva-4],12.17,18.75,#0E74B8,Afro-Asiatic ,Chadic,Chad
Baram [brd],27.95,85,#DB6DD7,Tibeto-Burman ,Western Himalayan,Nepal
Barang-barang [lji],-6.4,120.5,#DB6DD7,Malayo-Polynesian,Greater South Sulawesi,Indonesia-Sulawesi
Barapasi [brp],-2.247,136.995,#437D0F,Geelvink Bay ,,Indonesia-Papua
Barasano [bsn],-0.25,-70.75,#6F212B,Tucanoan ,East Tucanoan,Colombia
Bardi [bcj],-16.58,122.92,#8A7DFF,Nyulnyul ,West Nyulnyul,Australia
Baré [bae],1.6,-66.8,#88DD29,Arawak ,Northern Maipuran,Venezuela
Bareke [mpr],-8.543,158.113,#0E74B8,Oceanic,Western Oceanic,Solomons
Bargam [mlp-2],-4.87,145.76,#027B95,Trans New Guinea ,Madang,Papua New Guinea
Bari [bfa],3.8,31,#FA78A1,Nilo-Saharan ,Nilotic,South Sudan
Barí [mot],9,-73.5,#437D0F,Chibchan ,Core Chibchan,Venezuela
Bariai [bch],-5.497,148.63,#027B95,Oceanic,,Papua New Guinea
Bariba [bba],10.217,2.667,#027B95,Niger-Kongo ,Atlantic-Congo,Benin
Bariji [bjc],-9.211,148.401,#687D02,Southeast Papuan ,Owen Stanley Ranges,Papua New Guinea
Barok [bjk],-3.48,152.19,#027B95,Oceanic,Western Oceanic,Papua New Guinea-Bismarcks
Barranquenho [por-2],38.13,-6.975,#347DE6,Indo-European ,Romance,Portugal
Barrow_Point [bpt],-14.373,144.63,#FD7B95,Pama-Nyungan ,Paman,Australia
Baruga [bjz],-9.328,148.734,#687D02,Trans New Guinea ,Oro-Wharton,Papua New Guinea
Barunggam [xxx-64],-26.25,151.25,#0E74B8,Pama-Nyungan ,Waka-Kabic,Australia
Barupu [wra],-3.083,142.083,#437D0F,Skou ,Eastern Skou,Papua New Guinea
Baruya [byr],-6.917,145.833,#027B95,Trans New Guinea ,Morobe-Eastern Highlands,Papua New Guinea
Basaa [bas],5,10.15,#DB6DD7,Niger-Kongo ,Atlantic-Congo,Cameroon
Basari [bsc],12.25,-13,#DB6DD7,Niger-Kongo ,Atlantic-Congo,Senegal
Basay [byq-2],25,121.86,#907CFE,Austronesian ,East Formosan,Taiwan
Basay_Trobriawan [byq],25,122,#687D02,Austronesian ,East Formosan,Taiwan
Basel [gsw-4],47.56,7.59,#FA78A1,Indo-European ,Germanic,Switzerland
Bashkarik [gwc-2],35.358,72.137,#B57CF3,Indo-European ,Indo-Iranian,Pakistan
Bashkir [bak],53,58,#DB6DD7,Turkic ,North-west Turkic,Russia
Basila [ade],8.17,0.62,#FD7B95,Niger-Kongo ,Atlantic-Congo,Benin
Basketo [bst],6.384,36.651,#93FD92,Afro-Asiatic ,Omotic,Ethiopia
Basque [eus],43.2,-3,#CC7DE5,Basque ,,Spain
Bassossi [bsi],5.24,9.52,#DB6DD7,Niger-Kongo ,Atlantic-Congo,Cameroon
Bata [bta],9.7,12.5,#DB6DD7,Afro-Asiatic ,Chadic,Nigeria
Batak_Dairi [btd],2.546,98.3,#0E74B8,Malayo-Polynesian,Batak-Barrier Islands,Indonesia-Sumatra
Batak_Karo [btx],3,98.167,#0E74B8,Malayo-Polynesian,Batak-Barrier Islands,Indonesia-Sumatra
Batak_Palawan [bya],10.115,119.214,#027B95,Malayo-Polynesian,Philippines,Philippines
Batang [khg-5],30.57,98.97,#BDEF90,Tibeto-Burman ,Bodic,China
Batanga [bnm],2.09,9.75,#DB6DD7,Niger-Kongo ,Atlantic-Congo,Equatorial Guinea
Bateg [btq],5,102.5,#0E74B8,Austroasiatic ,Aslian,Malaysia
Bathari [bhm],17.6,56,#027B95,Afro-Asiatic ,Semitic,Oman
Batsbi [bbl-2],42.05,45.31,#FD7B95,Nakh-Daghestanian ,Nakh,Georgia
Batuley [bay],-5.8,134.75,#0E74B8,Malayo-Polynesian,Southeast Maluku,Indonesia-Maluku-south
Bau [bbd],-5.213,145.556,#687D02,Trans New Guinea ,Madang,Papua New Guinea
Baukan_Murut [bnb],5.273,116.519,#027B95,Malayo-Polynesian,North Borneo,Malaysia-Borneo
Baule [bci],7.5,-5,#DB6DD7,Niger-Kongo ,Atlantic-Congo,Côte d'Ivoire
Baure [brg],-15,-64,#687D02,Arawak ,Southern Maipuran,Bolivia
Bauro [bxa],-10.647,161.858,#687D02,Oceanic,Southeast Solomonic,Solomons
Bauzi [bvz],-2.5,137.667,#0E74B8,Geelvink Bay ,,Indonesia-Papua
Bavarian [bar-3],46.73,12.28,#FD7B95,Indo-European ,Germanic,Italy
Bawm [bgr],22.5,92.25,#FA78A1,Tibeto-Burman ,Kuki-Chin-Naga,India
Bayso [bsw],6.28,37.76,#5BF992,Afro-Asiatic ,Cushitic,Somalia
Bayso-2 [bsw-3],6.456,37.745,#8CD2E0,Afro-Asiatic ,Cushitic,Ethiopia
Bayungu [bxj],-23.3,113.7,#9B7EFC,Pama-Nyungan ,Kanyara-Mantharta,Australia
Bduul [ajp-3],30.33,35.44,#67D1DF,Afro-Asiatic ,Semitic,Syria
Bedamini [beo],-6.321,142.489,#437D0F,Trans New Guinea ,Bosavi,Papua New Guinea
Bedayuh [bth],1.01,110.51,#DB6DD7,Malayo-Polynesian,Land Dayak,Malaysia
Bedik [tnr],12.75,-12.467,#DB6DD7,Niger-Kongo ,Atlantic-Congo,Senegal
Befang [bby],6.28,10.03,#FA78A1,Niger-Kongo ,Atlantic-Congo,Cameroon
Begak [dbj-2],5.25,118.833,#0E74B8,Malayo-Polynesian,North Borneo,Malaysia-Borneo
Beihai [yue-6],21.47,109.1,#DB6DD7,Tibeto-Burman ,Sinitic,China
Beja [bej],18,36,#FA78A1,Afro-Asiatic ,Cushitic,Sudan
Bekwarra [bkv],6.74,8.86,#DB6DD7,Niger-Kongo ,Atlantic-Congo,Nigeria
Bekwil [],1.72,14.65,#DB6DD7,Niger-Kongo ,Atlantic-Congo,Cameroon
Bela [bxd-2],24.33,98.4,#DB6DD7,Tibeto-Burman ,Lolo-Burmese,Myanmar
Belait [beg],4.382,114.462,#DB6DD7,Malayo-Polynesian,North Borneo,Brunei
Belanda Boor [bxb],6.5,28,#FA78A1,Nilo-Saharan ,Nilotic,Sudan
Belarussian [bel],54,27,#DA7DD9,Indo-European ,Balto-Slavic,Belarus
Belep [yly],-19.75,163.67,#DB6DD7,Oceanic,Southern Oceanic,New Caledonia
Belhare [byw],27,87.25,#0E74B8,Tibeto-Burman ,Kiranti,Nepal
Beli [blm],6.75,29.75,#FA78A1,Nilo-Saharan ,Central Sudanic,Sudan
Bella Coola [blc],52.5,-126.67,#FE7C90,Salish ,Bella Coola,Canada
Bellona [mnv-2],-11.296,159.79,#687D02,Oceanic,Central Pacific,Solomons
Belneng [xxx-174],9.15,9.51,#0E74B8,Afro-Asiatic ,Chadic,Nigeria
Bemal [bmh],-5.234,145.475,#027B95,Trans New Guinea ,Madang,Papua New Guinea
Bemba [bem],-11,31,#0E74B8,Niger-Kongo ,Atlantic-Congo,Zambia
Bembe [bmb],-4,14,#DB6DD7,Niger-Kongo ,Atlantic-Congo,Democratic Republic of the Congo
Bena [bez],-9.27,35.04,#0E74B8,Niger-Kongo ,Atlantic-Congo,Tanzania
Bena-Bena [bef],-6.114,145.567,#027B95,Trans New Guinea ,Morobe-Eastern Highlands,Papua New Guinea
Bench [bcq],7,35.75,#FA78A1,Afro-Asiatic ,Omotic,Ethiopia
Bende [bdp],-6,30.5,#687D02,Niger-Kongo ,Atlantic-Congo,Tanzania
Beng [nhb],7.83,-4.25,#DB6DD7,Mande ,Eastern Mande,Côte d'Ivoire
Benga [bng],1.2,9.5,#FA78A1,Niger-Kongo ,Atlantic-Congo,Equatorial Guinea
Bengali [ben],22.5,90,#8C7D00,Indo-European ,Indo-Iranian,Bangladesh
Bengali_Barisal [ben-8],22.7,90.37,#687D02,Indo-European ,Indo-Iranian,Bangladesh
Bengali_east [ben-6],24.4,90.28,#687D02,Indo-European ,Indo-Iranian,Bangladesh
Bengali_west [ben-7],23.4,89.45,#8C7D00,Indo-European ,Indo-Iranian,Bangladesh
Bengni [adi-3],28.66,93.37,#0E74B8,Tibeto-Burman ,Macro-Tani,China
Beothuk [bue],48,-55,#687D02,Beothuk ,,Canada
Berik [bkl],-2.25,138.92,#FA78A1,Trans New Guinea ,Orya-Tor,Indonesia-Papua
Berlinerisch [deu-3],52.5,13.15,#DB6DD7,Indo-European ,Germanic,Germany
Bernese [gsw-3],46.83,7.62,#FD7B95,Indo-European ,Germanic,Switzerland
Berom [bom-2],9.67,8.81,#DB6DD7,Niger-Kongo ,Atlantic-Congo,Nigeria
Berrichon [fra-15],47.08,2.38,#347DE6,Indo-European ,Romance,France
Berta [wti],10.67,34.5,#FA78A1,Nilo-Saharan ,Berta,Ethiopia
Besemah [pse],-4.2,103,#0E74B8,Malayo-Polynesian,Malayo-Sumbawan,Indonesia-Sumatra
Bésiro [xxx-16],-16.6375,-61.9271,#8C7D00,Arawak ,Southern Maipuran,Bolivia
Besoa [bep],-1.599,120.379,#027B95,Malayo-Polynesian,Celebic,Indonesia-Sulawesi
Betawi [bew],-6.21,107.02,#DB6DD7,Malayo-Polynesian,Malayo-Sumbawan,Indonesia-Java
Bété [btg],6.25,-6.25,#DB6DD7,Niger-Kongo ,Atlantic-Congo,Côte d'Ivoire
Bete [byf],7.05,9.748,#027B95,Niger-Kongo ,Atlantic-Congo,Nigeria
Betta Kurumba [xub],11.58,76.55,#B57CF3,Dravidian ,South Dravidian,India
Bewani [pgi],-3.024,141.167,#007D8B,Trans New Guinea ,Border,Papua New Guinea
Bezhta [kap],42.133,46.128,#FD7B95,Nakh-Daghestanian ,Tsezic,Russia
Bhaṭe-sa zib [xxx-154],34.94,72.88,#FE7C90,Indo-European ,Indo-Iranian,Afghanistan
Bhatibari [ben-4],26.48,89.54,#DB6DD7,Indo-European ,Indo-Iranian,India
Bhele [bhy],0.25,28.67,#DB6DD7,Niger-Kongo ,Atlantic-Congo,Democratic Republic of the Congo
Bhili [bhb],22,73,#AACEDB,Indo-European ,Indo-Iranian,India
Bhili_Mahikantha [bhb-2],23.83,72.5,#8CD2E0,Indo-European ,Indo-Iranian,India
Bhoi [kha-5],25.9,91.88,#0E74B8,Austroasiatic ,Khasi-Palaung,India
Bhojpuri [bho],26.8,85.3,#8CD2E0,Indo-European ,Indo-Iranian,India
Bhojpuri_Nagpuria [bho-4],23.36,85.33,#8CD2E0,Indo-European ,Indo-Iranian,India
Bhojpuri_Northern [bho-2],26.76,83.37,#8CD2E0,Indo-European ,Indo-Iranian,India
Bhojpuri_Western [bho-3],25.32,83.01,#8CD2E0,Indo-European ,Indo-Iranian,India
Bhumij [muw],21.333,86.5,#FA78A1,Austroasiatic ,Munda,India
Biafada [bif],11.47,-15.13,#DB6DD7,Niger-Kongo ,Atlantic-Congo,Guinea-Bissau
Biage [bdf],-9.158,147.664,#027B95,Southeast Papuan ,Owen Stanley Ranges,Papua New Guinea
Biak [bhw],-1.14,136,#437D0F,Malayo-Polynesian,Eastern Malayo-Polynesian,Indonesia-Papua
Biak-west [bhw-2],-0.835,135.59,#257E25,Malayo-Polynesian,Eastern Malayo-Polynesian,Indonesia-Papua
Biali [beh],11.04,1.08,#027B95,Niger-Kongo ,Atlantic-Congo,Benin
Bian_Marind [bpv],-7.222,140.548,#027B95,Anim ,Marind-Yaqay,Indonesia-Papua
Biangai [big],-7.33,146.75,#347DE6,Trans New Guinea ,Oro-Wharton,Papua New Guinea
Biao [byk-3],23.9,112.2,#DB6DD7,Tai-Kadai ,,China
Biao_Dagang [byk-2],23.81,112.135,#FA78A1,Tai-Kadai ,,China
Biao_Yonggu [byk],23.72,112.07,#DB6DD7,Tai-Kadai ,,China
Biaomin Yao [bmt],23.6,111.75,#93FD92,Hmong-Mien ,Mienic,China
Biatah [bth-2],1.264,110.32,#687D02,Malayo-Polynesian,Land Dayak,Indonesia-Kalimantan
Bidjara [bym],-24.5,146.592,#FA78A1,Pama-Nyungan ,Greater Maric,Australia
Bierebo [bnk],-16.667,168.131,#DB6DD7,Oceanic,Southern Oceanic,Vanuatu
Bieria [brj],-16.807,168.194,#027B95,Oceanic,Southern Oceanic,Vanuatu
Bih [rad-2],12.48,108.025,#0E74B8,Malayo-Polynesian,Malayo-Sumbawan,Vietnam
Bijago [bjg],11.28,-15.83,#CB7D19,Niger-Kongo ,Atlantic-Congo,Guinea-Bissau
Bijago_Orango [bjg-2],11.034,-16.146,#BD7D10,Niger-Kongo ,Atlantic-Congo,Guinea-Bissau
Bikele [biw],3.66,12.86,#DB6DD7,Niger-Kongo ,Atlantic-Congo,Cameroon
Bikol [bcl],13.333,123.5,#027B95,Malayo-Polynesian,Philippines,Philippines
Biksi [yet],-4.013,140.494,#027B95,Yetfa-Biksi ,,Papua New Guinea
Bila [bip],1.17,28.76,#DB6DD7,Niger-Kongo ,Atlantic-Congo,Democratic Republic of the Congo
Bilba [bpz],-10.67,123.34,#0E74B8,Malayo-Polynesian,Timoric,Indonesia-NTT
Bilbil [brz],-5.26,145.76,#027B95,Oceanic,Western Oceanic,Papua New Guinea
Biliau [bcu-2],-5.65,146.3,#027B95,Oceanic,,Papua New Guinea
Bilin [byn],15.9,38.3,#FD7B95,Afro-Asiatic ,Cushitic,Eritrea
Bilinara [nbj],-16,131.667,#8A7DFF,Pama-Nyungan ,Ngumbin-Yapa,Australia
Biloxi [bll],32.25,-90,#687D02,Siouan ,Western Siouan,USA
Bilua [blb],-7.75,156.667,#0E74B8,Solomons East Papuan ,,Solomons
Bima [bhp],-8.545,118.677,#0E74B8,Malayo-Polynesian,Bima,Indonesia-NTB
Bimin [bhl],-5.43,141.942,#687D02,Trans New Guinea ,Ok,Papua New Guinea
Bimoba [bim],10.46,0.06,#DB6DD7,Niger-Kongo ,Atlantic-Congo,Ghana
Bina [bmn],-10.249,149.683,#437D0F,Oceanic,Western Oceanic,Papua New Guinea
Binandere [bhg],-8.167,147.917,#687D02,Trans New Guinea ,Oro-Wharton,Papua New Guinea
Binbinga [wmb-2],-16.17,135,#A37DFA,Mirndi ,Ngurlun,Australia
Bine [bon],-9.05,142.884,#0E74B8,Eastern Trans Fly ,,Papua New Guinea
Bini_Edo [bin],6.42,5.83,#0E74B8,Niger-Kongo ,Atlantic-Congo,Nigeria
Bini-2 [bin-2],6.41,5.7,#0E74B8,Niger-Kongo ,Atlantic-Congo,Nigeria
Binigura [pnv],-22.488,116.506,#9B7EFC,Pama-Nyungan ,Kanyara-Mantharta,Australia
Bininj Gun-Wok [gup],-12.5,133.75,#907CFE,Macro-Gunwinygu ,Gunwingyuan proper,Australia
Bintulu [bny],3.83,113.67,#0E74B8,Malayo-Polynesian,North Borneo,Malaysia-Borneo
Binukid [bkd],8.3,125,#027B95,Malayo-Polynesian,Philippines,Philippines
Binumarien [bjr],-6.25,146.08,#437D0F,Trans New Guinea ,Morobe-Eastern Highlands,Papua New Guinea
Binyang [cmn-36],23.22,108.82,#0E74B8,Tibeto-Burman ,Sinitic,China
Bipi [biq],-2.109,146.4,#DB6DD7,Oceanic,Western Oceanic,Papua New Guinea
Birao [brr],-9.746,160.515,#0E74B8,Oceanic,Southeast Solomonic,Solomons
Birgid [btf],13,27,#0E74B8,Afro-Asiatic ,Chadic,Sudan
Biri [bvi],7.55,6.233,#FD7B95,Ubangian ,Sere-Mba,Nigeria
Biri [bzr],-20.5,146.5,#DB6DD7,Pama-Nyungan ,Greater Maric,Australia
Birifor [biv],9.29,-2.73,#907CFE,Niger-Kongo ,Atlantic-Congo,Ghana
Biritai [bqq],-3,137.6,#393038,Lakes Plains ,Tariku,Indonesia-Papua
Birom [bom],9.67,8.83,#8C7D00,Niger-Kongo ,Atlantic-Congo,Nigeria
Bisa [bib],11.783,0.366,#027B95,Mande ,Eastern Mande,Burkina Faso
Bisayah_Sarawak [bsb],5.33,115.5,#0E74B8,Malayo-Polynesian,North Borneo,Malaysia-Borneo
Bishnupriya [bpy],25.08,92.92,#0E74B8,Indo-European ,Indo-Iranian,India
Bisiacco [vec-2],45.95,12.45,#DB6DD7,Indo-European ,Romance,Italy
Bissa [bib-2],10.43,-1.67,#027B95,Mande ,Eastern Mande,Burkina Faso
Bisu [bii],19.75,100,#8CD2E0,Tibeto-Burman ,Lolo-Burmese,Thailand
Biya [mij-6],6.615,10.18,#FA78A1,Niger-Kongo ,Atlantic-Congo,Cameroon
Bizkaian [eus-3],43.25,-2.98,#B57CF3,Basque ,,Spain
Bjokapakha [tsj-5],26.965,91.045,#DB6DD7,Tibeto-Burman ,Bodic,Bhutan
Blablanga [blp],-8.17,159.42,#41C8D4,Oceanic,Western Oceanic,Solomons
Blablanga_Ghove [blp-2],-8.33,159.5,#8CD2E0,Oceanic,Western Oceanic,Solomons
Black_Tai [blt-2],19.75,105,#0E74B8,Tai-Kadai ,South Tai-Kadai,Vietnam
Blackfoot [bla],50,-112.67,#687D02,Algic ,Algonquian,Canada
Blagar [beu],-8.33,124.25,#027B95,Timor-Alor-Pantar ,Alor-Pantar,Indonesia-NTT
Blang [blr],23.3,100,#0E74B8,Austroasiatic ,Khasi-Palaung,China
Boazi [kvg],-7,141.25,#0E74B8,Anim ,Boazi,Papua New Guinea
Boazi_Kuni [kvg-2],-6.913,141.326,#0E74B8,Anim ,Boazi,Papua New Guinea
Bobangi [bni],0,17.8,#0E74B8,Niger-Kongo ,Atlantic-Congo,Democratic Republic of the Congo
Bobo-Fing [bbo],11.83,-4.42,#0E74B8,Mande ,Western Mande,Burkina Faso
Bobongko [bgb],-0.5,121.75,#0E74B8,Malayo-Polynesian,Celebic,Indonesia-Sulawesi
Bobot [bty],-3.33,130.17,#0E74B8,Malayo-Polynesian,Central Maluku,Indonesia-Maluku-north
Bocota [sab],9.34,-82.24,#027B95,Chibchan ,Core Chibchan,Panama
Bodo_Madare_North [boy],12.42,-4.48,#DB6DD7,Ubangian ,Banda,Burkina Faso
Bodo_Madare_South [boy-2],11.54,-4.26,#0E74B8,Ubangian ,Banda,Burkina Faso
Bogaya [boq],-5.621,142.231,#0E74B8,Trans New Guinea ,Duna-Bogaya,Papua New Guinea
Bohemian [ces-3],50,13,#B57CF3,Indo-European ,Balto-Slavic,Czech Republic
Boholano [ceb-2],9.9,124.2,#DB6DD7,Malayo-Polynesian,Philippines,Philippines
Bohutu [bxh],-10.5,150.33,#DB6DD7,Oceanic,Western Oceanic,Papua New Guinea
Boiken [bzf],-3.525,143.415,#0E74B8,Ndu ,Boiken,Papua New Guinea
Bokar [adi-2],29,94.35,#0E74B8,Tibeto-Burman ,Macro-Tani,India
Boko [bkp],10.52,3.72,#0E74B8,Mande ,Eastern Mande,Benin
Bokyi [bky],6.1,9.06,#FA78A1,Niger-Kongo ,Atlantic-Congo,Nigeria
Bola [bnp],-5.5,150,#027B95,Oceanic,Western Oceanic,Papua New Guinea-Bismarcks
Bola [bxd-3],24.45,98.6,#DB6DD7,Tibeto-Burman ,Lolo-Burmese,China
Bolaang-Mongondow [mog],0.55,124,#687D02,Malayo-Polynesian,Philippines,Indonesia-Sulawesi
Bole [bol],11.007,10.747,#DB6DD7,Afro-Asiatic ,Chadic,Nigeria
Bolgo [bvo],10.9,18.81,#0E74B8,Niger-Kongo ,Atlantic-Congo,Chad
Bolinao [smk],16.341,119.893,#027B95,Malayo-Polynesian,Philippines,Philippines
Bologna [ita-3],44.51,11.35,#DB6DD7,Indo-European ,Romance,Italy
Bolyu [ply],24.78,105.35,#FA78A1,Austroasiatic ,Mangic,China
Bom [bmf],9.28,-11.6,#DB6DD7,Niger-Kongo ,Atlantic-Congo,Sierra Leone
Bomitaba [zmx],1.7,17.37,#687D02,Niger-Kongo ,Atlantic-Congo,Congo
Bonan [peh-6],35.7,103,#FA78A1,Mongolic ,Core Mongolic,China
Bonda [bfw-2],19,82.75,#DB6DD7,Austroasiatic ,Munda,India
Bondei [bou],-5.082,38.432,#0E74B8,Niger-Kongo ,Atlantic-Congo,Tanzania
Bongaigaon [asm-2],26.48,90.56,#027B95,Indo-European ,Indo-Iranian,India
Bonggi [bdg],7.3,117.2,#0E74B8,Malayo-Polynesian,North Borneo,Philippines
Bongo [bot],7.5,28,#FA78A1,Nilo-Saharan ,Central_Sudanic,Sudan
Boni [bob],0.5,43,#DB6DD7,Afro-Asiatic ,Cushitic,Somalia
Bonifacino [lij-6],41.39,9.16,#907CFE,Indo-European ,Romance,France
Bontok [bnc],17.083,120.917,#437D0F,Malayo-Polynesian,Philippines,Philippines
Bor [bvf],5.605,27.472,#DB6DD7,Afro-Asiatic ,Chadic,South Sudan
Bora [boa],-2.25,-71.75,#BD7D10,Boran ,Bora,Peru
Bori [adi-7],28.2,94.6,#0E74B8,Tibeto-Burman ,Macro-Tani,India
Bornholmsk [scy],55,15,#0E74B8,Indo-European ,Germanic,Denmark
Boro [brx],26.75,92,#437D0F,Tibeto-Burman ,Bodo-Garo,India
Boro [bwo],10.66,35.34,#027B95,Afro-Asiatic ,Omotic,Ethiopia
Borong Kosorong [ksr],-6.534,147.502,#DB6DD7,Trans New Guinea ,Morobe-Eastern Highlands,Papua New Guinea
Boróro [bor],-15,-52,#687D02,Macro-Je ,Bororo,Brazil
Bororo-2 [bor-2],-16.6,-55.2,#687D02,Macro-Je ,Bororo,Brazil
Boruca [brn],9.001,-83.325,#8C7D00,Chibchan ,Core Chibchan,Costa Rica
Bosavi [bco-2],-6.425,142.765,#027B95,Trans New Guinea ,Bosavi,Papua New Guinea
Bosnian [bos],44,18,#B57CF3,Indo-European ,Balto-Slavic,Bosnia
Botin_Samban [kbx-2],-4.33,144.17,#0E74B8,Ap Ma ,,Papua New Guinea
Botlikh [bph],42.66,46.22,#FE7C90,Nakh-Daghestanian ,Avar-Andi,Russia
Bourbonnais [fra-9],46.57,3.33,#347DE6,Indo-European ,Romance,France
Bouyei [pcc-3],25.817,107.55,#DB6DD7,Tai-Kadai ,North Tai-Kadai,China
Bouyei_west [pcc-2],25.75,107.333,#FA78A1,Tai-Kadai ,North Tai-Kadai,China
Brabants [nld-9],50.75,4.65,#027B95,Indo-European ,Germanic,Belgium
Brag-g.yab [khg-2],30.65,97.55,#CC7DE5,Tibeto-Burman ,Bodic,China
Brahui [brh],29,67,#907CFE,Dravidian ,North Dravidian,Pakistan
Brajbhasha [bra],27.49,77.67,#8CD2E0,Indo-European ,Indo-Iranian,India
Brao [brb],14,107,#5BF992,Austroasiatic ,Bahnaric,Vietnam
Brao_Krung [brb-3],13.8,107.005,#5BF992,Austroasiatic ,Bahnaric,Cambodia
Breton [bre],47.65,-2.75,#607CFB,Indo-European ,Celtic,France
Breton_Kerneveg [bre-2],48,-4.1,#607CFB,Indo-European ,Celtic,France
Breton_Leoneg [bre-3],48.6,-4.3,#607CFB,Indo-European ,Celtic,France
Breton_Tregiereg [bre-4],48.5,-3.125,#607CFB,Indo-European ,Celtic,France
Bribri [bzd],9.5,-83,#DB6DD7,Chibchan ,Core Chibchan,Costa Rica
Brokpa [sgt],27.33,92,#DB6DD7,Tibeto-Burman ,Bodic,Bhutan
Bru_Western [brv],16.75,104.75,#0E74B8,Austroasiatic ,Katuic,Laos
Brugge [vls-2],51.22,3.23,#027B95,Indo-European ,Germanic,Netherlands
Bruu [bru],17.167,104.333,#0E74B8,Austroasiatic ,Katuic,Thailand
Bu [jid],9.05,8.66,#0E74B8,Niger-Kongo ,Atlantic-Congo,Nigeria
Buamu [box],11.17,-3.5,#0E74B8,Niger-Kongo ,Atlantic-Congo,Burkina Faso
Buang_Central [bzh],-6.855,146.774,#DB6DD7,Oceanic,Western Oceanic,Papua New Guinea
Bube [bvb],3.5,8.7,#0E74B8,Niger-Kongo ,Bantoid,Equatorial Guinea
Bubia [bbx-2],4.02,9.22,#DB6DD7,Niger-Kongo ,Atlantic-Congo,Cameroon
Budong-bundong [bdx],-2.171,119.328,#027B95,Malayo-Polynesian,Greater South Sulawesi,Indonesia-Sulawesi
Buduma [bdm],13.6,14,#DB6DD7,Afro-Asiatic ,Chadic,Chad
Budux [bdk],41.19,48.37,#FD7B95,Nakh-Daghestanian ,Lezgic,Russia
Bugan [bbh],23.75,105,#DB6DD7,Austroasiatic ,Mangic,China
Bughotu [bgt],-8.478,159.808,#027B95,Oceanic,Southeast Solomonic,Solomons
Bugis [bug],-4,120,#0E74B8,Malayo-Polynesian,Greater South Sulawesi,Indonesia-Sulawesi
Bugun [bgn],27.3,92.35,#DB6DD7,Tibeto-Burman ,Kho-Bwa,India
Buhid [bku],12.574,121.25,#027B95,Malayo-Polynesian,Philippines,Philippines
Buin [buo],-6.75,155.833,#437D0F,South Bougainville ,Buin,Papua New Guinea-Bougainville
Bukar_Sadong [sdo],0.97,110.66,#0E74B8,Malayo-Polynesian,Land Dayak,Malaysia-Borneo
Bukat [bvk],1.29,113.25,#0E74B8,Malayo-Polynesian,Land Dayak,Malaysia-Borneo
Bukawa [buk],-6.732,147.359,#027B95,Oceanic,Western Oceanic,Papua New Guinea
Bukit [bvu],-2.75,115.64,#0E74B8,Malayo-Polynesian,Malayo-Sumbawan,Indonesia-Kalimantan
Bukitan [bkn],2.35,114.89,#0E74B8,Malayo-Polynesian,Malayo-Sumbawan,Malaysia-Borneo
Bukiyip_Arapesh [ape],-3.667,142.5,#0E74B8,Torricelli ,Kombio-Arapesh,Papua New Guinea
Bukusu [bxk],1.02,35,#027B95,Niger-Kongo ,Atlantic-Congo,Kenya
Bularnu [yil],-21.5,137.5,#9B7EFC,Pama-Nyungan ,Warluwaric,Australia
Bulgarian [bul],43,25,#FA78A1,Indo-European ,Balto-Slavic,Bulgaria
Bulgarian_Banat [bul-3],45.7,20.9,#FA78A1,Indo-European ,Balto-Slavic,Bulgaria
Bulgarian_Boboshevo [bul-6],42.15,23,#FA78A1,Indo-European ,Balto-Slavic,Bulgaria
Bulgarian_Erkech [bul-7],42.84,27.58,#FA78A1,Indo-European ,Balto-Slavic,Bulgaria
Bulgarian_Gabare [bul-8],43.316,21.92,#FA78A1,Indo-European ,Balto-Slavic,Bulgaria
Bulgarian_Lovec [bul-9],43.14,24.71,#FA78A1,Indo-European ,Balto-Slavic,Bulgaria
Bulgarian_Moesian [bul-2],42.7,27.75,#6B7DFE,Indo-European ,Balto-Slavic,Bulgaria
Bulgarian_Momchilovci [bul-10],41.66,24.77,#FA78A1,Indo-European ,Balto-Slavic,Bulgaria
Bulgarian_North-west [bul-5],43.6,23.18,#FA78A1,Indo-European ,Balto-Slavic,Bulgaria
Bulgarian_Nova Nadezda [bul-11],42.02,25.72,#FA78A1,Indo-European ,Balto-Slavic,Bulgaria
Buli [bzq],0.833,128.5,#0E74B8,Malayo-Polynesian,Eastern Malayo-Polynesian,Indonesia-Maluku-north
Bulu [bum],2.917,11.15,#DB6DD7,Niger-Kongo ,Atlantic-Congo,Cameroon
Bum [bmv],6.49,10.42,#DB6DD7,Niger-Kongo ,Atlantic-Congo,Cameroon
Buma [tkw],-11.63,166.83,#DB6DD7,Oceanic,TeMotu,Solomons_East
Bumang [bvp],22.5,96.5,#0E74B8,Austroasiatic ,Khasi-Palaung,Laos
Bumbita_Arapesh [aon],-3.667,142.833,#0E74B8,Torricelli ,Kombio-Arapesh,Papua New Guinea
Bumthang [kjz],27.8,90.8,#B57CF3,Tibeto-Burman ,Bodic,Bhutan
Bumthang_Ura [kjz-2],27.48,90.905,#907CFE,Tibeto-Burman ,Bodic,Bhutan
Bunama [bdd],-10.064,151.075,#8C7D00,Oceanic,Western Oceanic,Papua New Guinea
Bunan [bfu],32.61,76.91,#FA78A1,Tibeto-Burman ,Western Himalayan,India
Bunaq [bfn],-9.1,125.15,#0E74B8,Timor-Alor-Pantar ,Mainland,Indonesia-NTT
Bunaq_Lolotoen [bfn-2],-9.161,125.26,#027B95,Timor-Alor-Pantar ,Mainland,Timor leste
Bunaq_South [bfn-3],-9.227,125.393,#027B95,Timor-Alor-Pantar ,Mainland,Timor leste
Bundeli [bns],23.18,79.95,#8CD2E0,Indo-European ,Indo-Iranian,India
Bunganditj [xbg],-36.5,141,#9B7EFC,Pama-Nyungan ,Kulinic,Australia
Bungku [bkz],-3,122.33,#027B95,Malayo-Polynesian,Celebic,Indonesia-Sulawesi
Bunu [buh],25.5,108.7,#BFC7D4,Hmong-Mien ,Hmongic,China
Bunu_Dongnu [bwx],23.88,108.08,#E8C88A,Hmong-Mien ,Hmongic,China
Bunu_Nunu [bwx-2],23.799,110.178,#907CFE,Hmong-Mien ,Hmongic,China
Bunuba [bck],-17.75,125.75,#A37DFA,Bunuban ,,Australia
Bunun [bnn],23.5,121,#0E74B8,Austronesian ,Bunun,Taiwan
Bunun_Isbukun [bnn-2],23.459,121.056,#0E74B8,Austronesian ,Bunun,Taiwan
Buol [blf],1,121.5,#DB6DD7,Malayo-Polynesian,Philippines,Indonesia-Sulawesi
Bura [bwr],10.611,12.195,#DB6DD7,Afro-Asiatic ,Chadic,Nigeria
Burarra [bvr],-12.25,134.667,#907CFE,Macro-Gunwinygu ,Maningrida,Australia
Burji [bji],5.5,37.9,#DB6DD7,Afro-Asiatic ,Cushitic,Ethiopia
Burmbar [vrt],-16.372,167.749,#687D02,Oceanic,Southern Oceanic,Vanuatu
Burmese [mya],20,96,#8CD2E0,Tibeto-Burman ,Lolo-Burmese,Myanmar
Burmese_Arakan [mya-4],20.14,92.9,#8CD2E0,Tibeto-Burman ,Lolo-Burmese,Myanmar
Burmese_Intha [mya-3],20.55,96.92,#67D1DF,Tibeto-Burman ,Lolo-Burmese,Myanmar
Burmese_Myeik [mya-2],12.43,98.6,#DB6DD7,Tibeto-Burman ,Lolo-Burmese,Myanmar
Burmese_Palaw [mya-6],13.12,98.68,#DB6DD7,Tibeto-Burman ,Lolo-Burmese,Myanmar
Burmese_Tavoyan [mya-5],14.08,98.2,#8CD2E0,Tibeto-Burman ,Lolo-Burmese,Myanmar
Burmeso [bzu],-2.447,138.209,#687D02,Burmeso ,,Indonesia-Papua
Buru [mhs],-3.7,126.4,#0E74B8,Malayo-Polynesian,Central Maluku,Indonesia-Maluku-north
Burum [bmu],-6.484,147.311,#DB6DD7,Trans New Guinea ,Morobe-Eastern Highlands,Papua New Guinea
Burum_Mindik [bmu-3],-6.47,147.44,#DB6DD7,Trans New Guinea ,Morobe-Eastern Highlands,Papua New Guinea
Burun [bdi-2],10.8,33.8,#DB6DD7,Nilo-Saharan ,Nilotic,Sudan
Burushaski [bsk],36.5,74.5,#FE7C90,Burushaski ,,Pakistan
Buruwai [asi-2],-3.55,133.33,#437D0F,Trans New Guinea ,Asmat-Kamoro,Indonesia-Papua
Buryat [bxm],52,108,#027B95,Mongolic ,Core Mongolic,Russia
Busa [bqp],9.67,4,#0E74B8,Mande ,Eastern Mande,Nigeria
Busa-2 [bqp-2],9.91,4.4,#687D02,Mande ,Eastern Mande,Nigeria
Busami [bsm],-1.8,135.95,#437D0F,Malayo-Polynesian,Eastern Malayo-Polynesian,Indonesia-Papua
Bushong [buf],-4.67,21.3,#0E74B8,Niger-Kongo ,Atlantic-Congo,Democratic Republic of the Congo
Busoa [bup],-5.62,122.616,#DB6DD7,Malayo-Polynesian,Celebic,Indonesia-Sulawesi
Butmas_Tur [bnr],-15.376,167.028,#0E74B8,Oceanic,Southern Oceanic,Vanuatu
Buwal [bhs],10.5,13.86,#FA78A1,Afro-Asiatic ,Chadic,Cameroon
Buxing [bgk-2],21.48,101.57,#DB6DD7,Austroasiatic ,Khasi-Palaung,China
Buyang [yha],24,104.8,#BFC7D4,Tai-Kadai ,North Tai-Kadai,China
Buyi_Hezhang [xxx-130],27.12,104.73,#907CFE,Tai-Kadai ,North Tai-Kadai,China
Buyuan_Jino [jiy],22.05,101,#0E74B8,Tibeto-Burman ,Lolo-Burmese,China
Bwaidoka [bwd],-9.479,150.311,#DB6DD7,Oceanic,Western Oceanic,Papua New Guinea
Byansi [bee],30.17,80.5,#8CD2E0,Tibeto-Burman ,Western Himalayan,India
C'lela [dri],11.47,5.27,#DA7DD9,Niger-Kongo ,Atlantic-Congo,Nigeria
Caac [msq],-20.42,164.42,#93FD92,Oceanic,Southern Oceanic,New Caledonia
Cabecar [cjp],9.91,-83.68,#FA78A1,Chibchan ,Core Chibchan,Costa Rica
Cabiyarí [cbb],-0.1302,-70.6927,#8C7D00,Arawak ,Northern Maipuran,Colombia
Cacaopera [ccr],13.74,-88.11,#027B95,Misumalpan ,Sumalpan,Nicaragua
Caddo [cad],33.33,-93.5,#8C7D00,Caddoan ,Caddo,USA
Cahita [opt-2],27.9,-109,#DB6DD7,Uto-Aztecan ,Cahitan,Mexico
Cahuilla [chl],33.75,-117.75,#B57CF3,Uto-Aztecan ,North Uto-Aztecan,USA
Caijia_Niujiaojing [xxx-135],27.067,104.297,#B57CF3,Tibeto-Burman ,Caijia,China
Caijia_Xingfa [xxx-134],26.934,104.863,#DB6DD7,Tibeto-Burman ,Caijia,China
Cakchiquel [ckf],14.5,-91,#FA78A1,Mayan ,Core Mayan,Guatemala
Calabrian [scn-2],38.148,16.18,#907CFE,Indo-European ,Romance,Italy
Calabrian-2 [scn-4],38.92,16.6,#907CFE,Indo-European ,Romance,Italy
Callahuaya [caw],-15,-69,#907CFE,Puquina ,,Bolivia
Calusa [xxx-175],27.76,-82.55,#0E74B8,Tunica ,,USA
Camling [rab],27.3,86.8,#67D1DF,Tibeto-Burman ,Kiranti,Nepal
Campa [cni],-12,-74,#A97D07,Arawak ,Southern Maipuran,Peru
Campalagian [cml],-4.02,119.62,#0E74B8,Malayo-Polynesian,Greater South Sulawesi,Indonesia-Sulawesi
Camsá [kbh],1,-77,#B57CF3,Camsá ,,Colombia
Camuno [lmo-6],45.943,10.28,#0E74B8,Indo-European ,Romance,Italy
Canamari [knm-2],-6.46,-68.78,#687D02,Katukinan ,,Brazil
Canarian [spa-10],28,-15.4,#0E74B8,Indo-European ,Romance,Cape Verde Islands
Candoshi [cbu],-4.17,-77,#A97D07,Candoshi ,,Peru
Canela-Krahô [ram],-6.5,-45,#0E74B8,Macro-Je ,Je,Brazil
Cantabrian_East [spa-7],43.3,-4.1,#607CFB,Indo-European ,Romance,Spain
Cantabrian_West [spa-6],43.3,-3.9,#607CFB,Indo-European ,Romance,Spain
Cantonese [yue],22.333,114,#DB6DD7,Tibeto-Burman ,Sinitic,China
Cantonese_Nanning [yue-4],22.817,108.317,#DB6DD7,Tibeto-Burman ,Sinitic,China
Canzés [lmo-4],45.85,9.27,#DB6DD7,Indo-European ,Romance,Italy
Cao Bang [nty],23.18,105.41,#0E74B8,Tai-Kadai ,South Tai-Kadai,China
Caodeng_rGyalrong [jya-2],32.2,101.8,#FF7D8D,Tibeto-Burman ,Na-Qiangic,China
Capanahua [kaq],-7,-74,#8C7D00,Panoan ,Main Panoan,Peru
Cappadocian [cpg],38.66,34.85,#907CFE,Indo-European ,Graeco-Phrygian,Turkey
Caquinte [cot],-11.7092,-73.9252,#A97D07,Arawak ,Southern Maipuran,Peru
Car [caq],9.167,92.75,#0E74B8,Austroasiatic ,Nicobar,India_Andaman-Nicobars
Cara [cfd],10.13,8.75,#907CFE,Niger-Kongo ,Atlantic-Congo,Nigeria
Carapana [cbc],0.45,-71,#6F212B,Tucanoan ,East Tucanoan,Colombia
Carib [car],7.85,-59,#437D0F,Cariban ,Guianan Carib,Guyana
Carib_Suriname [crb-2],5.7,-55.932,#437D0F,Arawak ,Northern Maipuran,Suriname
Carib_Venezuela [crb-3],7.969,-65.67,#437D0F,Arawak ,Northern Maipuran,Venezuela
Caribean Spanish [spa-11],18.5,-69.9,#027B95,Indo-European ,Romance,Dominican Republic
Carijona [cbd-2],0.148,-70.708,#687D02,Cariban ,Guianan Carib,Colombia
Carolinian [cal],15,146,#DB6DD7,Oceanic,Micronesian,USA Federated States of Micronesia
Carrier [crx],53.5,-125,#FE7C90,Dene-Yeniseic ,Na-Dene,Canada
Cashibo-Cacataibo [cbr],-9.1,-75.5,#A97D07,Panoan ,Main Panoan,Peru
Cashinahua [cbs],-10.5,-71.75,#8C7D00,Panoan ,Main Panoan,Peru
Castellanese [sdn-2],40.913,8.71,#B57CF3,Indo-European ,Romance,Italy-Sardinia
Catalan [cat],41.4,2.02,#907CFE,Indo-European ,Romance,Spain
Catalan_Northern [cat-5],42.7,2.9,#907CFE,Indo-European ,Romance,France
Catawba [chc],34,-81,#687D02,Siouan ,Eastern Siouan,USA
Cauho [pho-6],21.4,102,#5BF992,Tibeto-Burman ,Lolo-Burmese,Laos
Cavineña [cav],-12.25,-67.5,#FD7B95,Tacanan ,Araona-Tacana,Bolivia
Cayapa [cbi],1.2,-78.75,#B57CF3,Barbacoan ,Southern Barbacoan,Ecuador
Cayapo [txu-2],-7.77,-51.67,#687D02,Macro-Je ,Je,Brazil
Cayuga [cay],42.75,-76.75,#437D0F,Iroquoian ,Northern Iroquoian,USA
Cayuvava [cyb],-12.5,-67,#687D02,Cayuvava ,,Bolivia
Ce [ruk],10,8.67,#DB6DD7,Niger-Kongo ,Atlantic-Congo,Nigeria
Cebuano [ceb],10,124,#0E74B8,Malayo-Polynesian,Philippines,Philippines
Cemuhi [cam],-20.833,165,#DB6DD7,Oceanic,Southern Oceanic,New Caledonia
Central !Kung [nmn-3],-19.57,18.12,#E1D28C,Tuu ,Hua,Botswana
Central Banda [tor],6.64,22.76,#DB6DD7,Ubangian ,Banda,Central African Republic
Central-Eastern Niger Fulfulde [fuq],15.09,8.43,#0E74B8,Niger-Kongo ,Atlantic-Congo,Niger
Cerma [cme],10.25,-4.85,#DB6DD7,Niger-Kongo ,Atlantic-Congo,Burkina Faso
Cha'palaachi [cbi-2],0.838,-78.877,#CC7DE5,Barbacoan ,Southern Barbacoan,Ecuador
Chacobo [cao],-12.25,-65,#8C7D00,Panoan ,Southern Panoan,Bolivia
Chadong [cdy],25.2,110.2,#AACEDB,Tai-Kadai ,South Tai-Kadai,China
Chaha [sgw],8.2,38,#687D02,Afro-Asiatic ,Semitic,Ethiopia
Chakali [cli],9.83,-1.9,#DB6DD7,Niger-Kongo ,Atlantic-Congo,Ghana
Chakavian [hrv-2],45.17,14.85,#DB6DD7,Indo-European ,Balto-Slavic,Croatia
Chakhar [mon-3],44.94,115.38,#0E74B8,Mongolic ,Core Mongolic,Mongolia
Chakhar-2 [mon-5],43,115,#DB6DD7,Mongolic ,Core Mongolic,China
Chakma [ccp],22.9,92.23,#0E74B8,Indo-European ,Indo-Iranian,Bangladesh
Chakosi [cko-2],10.36,0.48,#DB6DD7,Niger-Kongo ,Atlantic-Congo,Ghana
Chali [tgf],27.3,91.26,#B57CF3,Tibeto-Burman ,Bodic,Bhutan
Chaling [gan-19],28.81,113.64,#FA78A1,Tibeto-Burman ,Sinitic,China
Cham_Eastern [cjm],10.93,108.1,#0E74B8,Malayo-Polynesian,Malayo-Sumbawan,Vietnam
Cham_Western [cja],12,105.5,#0E74B8,Malayo-Polynesian,Malayo-Sumbawan,Cambodia
Chama [ese-6],-11.33,-66.25,#8C7D00,Tacanan ,Ese'ejja,Bolivia
Chamacoco [ceg],-22.3578,-59.7197,#0E74B8,Zamucoan ,,Paraguay
Chamalal_Gigatil [cji],42.54,46.06,#FD7B95,Nakh-Daghestanian ,Avar-Andi,Russia
Chamalal_Nizhnee_Gakvari [cji-2],42.53,46.05,#FD7B95,Nakh-Daghestanian ,Avar-Andi,Russia
Chamba [ndi-2],8.19,11.74,#DB6DD7,Niger-Kongo ,Atlantic-Congo,Cameroon
Chambri [can],-4.167,143.083,#437D0F,Lower Sepik-Ramu ,Lower Sepik,Papua New Guinea
Chamicuro [ccc],-5.114,-75.736,#B57CF3,Arawak ,Western Maipuan,Peru
Chamorro [cha],13.583,145,#DB6DD7,Malayo-Polynesian,Chamorro,Guam
Chaná [qsi],-34,-55,#0E74B8,Charruan ,,Uruguay
Chang [chg],26.23,94.817,#0E74B8,Tibeto-Burman ,Kuki-Chin-Naga,India
Changchow [nan-5],24.75,117.833,#DB6DD7,Tibeto-Burman ,Sinitic,China
Changchun [cmn-57],43.88,125.32,#FA78A1,Tibeto-Burman ,Sinitic,China
Changle [cmn-37],25.92,119.55,#DB6DD7,Tibeto-Burman ,Sinitic,China
Changpaoyao [bmt-2],25.417,107.88,#BFC7D4,Hmong-Mien ,Mienic,China
Changsha [hsn],28,113,#A97D07,Tibeto-Burman ,Sinitic,China
Changting [hak-7],25.83,116.35,#DB6DD7,Tibeto-Burman ,Sinitic,China
Changzhi [cjy-6],36.167,113,#DB6DD7,Tibeto-Burman ,Sinitic,China
Changzhou [wuu-31],31.783,119.967,#8A7DFF,Tibeto-Burman ,Sinitic,China
Channel_English [eng-11],49.44,-2.367,#0E74B8,Indo-European ,Germanic,Britain-Channel isles
Chantyal [chx],28.75,83.5,#DB6DD7,Tibeto-Burman ,Bodic,Nepal
Chaoyang [nan-26],23.32,116.48,#0E74B8,Tibeto-Burman ,Sinitic,China
Chaozhou [nan-2],23.667,116.667,#0E74B8,Tibeto-Burman ,Sinitic,China
Chaplino [ess-2],65,-173,#5BF992,Eskimo-Aleut ,Eskimo,Russia
Chaplino_Alaska [ess-3],63.5,-170.5,#BDEF90,Eskimo-Aleut ,Eskimo,USA-Alaska
Chara [cra],6.617,36.238,#93FD92,Afro-Asiatic ,Omotic,Ethiopia
Charleroi [wln-2],50.41,4.45,#0E74B8,Indo-European ,Romance,Belgium
Chatino [ctp],16.5,-97.25,#027B95,Otomanguean ,Eastern Otomanguean,Mexico
Chatino_Tataltepec [cta],16.3,-97.55,#CC7DE5,Otomanguean ,Eastern Otomanguean,Mexico
Chatino_Yaitepec [ctp-2],16.225,-97.27,#027B95,Otomanguean ,Eastern Otomanguean,Mexico
Chatino_Zenzontepec [czn],17.34,-92.34,#B57CF3,Otomanguean ,Eastern Otomanguean,Mexico
Chattisgarhi [hne],21.25,81.25,#DB6DD7,Indo-European ,Indo-Iranian,India
Chaudangsi [cdn],29.7,80.48,#AACEDB,Tibeto-Burman ,Western Himalayan,India
Che [ruk-2],10.03,8.65,#DB6DD7,Niger-Kongo ,Atlantic-Congo,Nigeria
Che'_Wong [cwg],3.833,102,#5BF992,Austroasiatic ,Aslian,Malaysia
Chechen [che],43.13,45.54,#CC7DE5,Nakh-Daghestanian ,Nakh,Russia
Cheke_Holo_Maringe [mrn],-8.5,159.67,#67D1DF,Oceanic,Western Oceanic,Solomons
Chemakum [xch],48.08,-122.93,#FE7C90,Chimakuan ,,USA
Chemehuevi [ute-3],34.33,-115.17,#8AC313,Uto-Aztecan ,Numic,USA
Chemnitz [nds-4],50.83,12.92,#0E74B8,Indo-European ,Germanic,Germany
Chenapian [cjn],-4.25,142.33,#687D02,Sepik ,Iwam-Wogamus,Papua New Guinea
Chenchu [cde],15.88,79.25,#DB6DD7,Dravidian ,South-central,India
Cheng [jeg],15,107.167,#DB6DD7,Austroasiatic ,Bahnaric,Laos
Chengdu [cmn-14],30.6,104.1,#8C7D00,Tibeto-Burman ,Sinitic,China
Chengfeng [xxx-109],29.685,113.49,#AACEDB,Hmong-Mien ,Hmongic,China
Chengqiao [wuu-5],31.63,121.4,#FA78A1,Tibeto-Burman ,Sinitic,China
Chenxian [hsn-18],26.34,113.285,#DB6DD7,Tibeto-Burman ,Sinitic,China
Chenzhou [hsn-16],25.77,113.01,#DB6DD7,Tibeto-Burman ,Sinitic,China
Chepang [cdm],28.05,83.92,#70D5DE,Tibeto-Burman ,Chepang,Nepal
Cheremis [mrj],55.624,55.484,#B57CF3,Uralic ,Mari,Russia
Cherepon [cpn],6.05,-0.11,#FA78A1,Niger-Kongo ,Atlantic-Congo,Ghana
Cherokee [chr],35.5,-83.5,#027B95,Iroquoian ,Southern Iroquoian,USA
Cherokee_lower [chr-2],37.48,-82.53,#0E74B8,Iroquoian ,Southern Iroquoian,USA
Cherokee_Qualla [chr-3],35.5,-83.26,#027B95,Iroquoian ,Southern Iroquoian,USA
Cheyenne [chy],43.5,-104,#437D0F,Algic ,Algonquian,USA
Chiapanec [cip],16.66,-91.94,#0E74B8,Otomanguean ,Western Otomanguean,Mexico
Chibcha [xxx-149],9.2,-74.5,#0E74B8,Chibchan ,Core Chibchan,Colombia
Chichewa [nya-2],-14.8,32.81,#DB6DD7,Niger-Kongo ,Atlantic-Congo,Malawi
Chichimec [pei],24.87,-103.7,#93FD92,Otomanguean ,Western Otomanguean,Mexico
Chickasaw [cic],34,-88,#0E74B8,Muskogean ,Western Muskogean,USA
Chiguano_Izoceño [gui-2],-20,-63,#6F212B,Tupian ,Tupi-Guarani,Bolivia
Chilcotin [clc],52,-125,#FF7D8B,Dene-Yeniseic ,Na-Dene,Canada
Chimane [cas-5],-14.64,-67.84,#8C7D00,Moseten ,Chimane,Bolivia
Chimariko [cid],41,-123,#BDEF90,Chimariko ,,USA
Chimila [cbg],10.75,-73,#FA78A1,Chibchan ,Core Chibchan,Colombia
Chimwiini [swh-2],1.1,43,#907CFE,Niger-Kongo ,Atlantic-Congo,Somalia
Chin_Daai [dao],21.1,93.65,#2CE08E,Tibeto-Burman ,Kuki-Chin-Naga,Myanmar
Chin_Daai_Mkuui [dao-2],21.25,93.5,#41C8D4,Tibeto-Burman ,Kuki-Chin-Naga,Myanmar
Chin_Falam [cfm],22.9,93.67,#AACEDB,Tibeto-Burman ,Kuki-Chin-Naga,Myanmar
Chin_Tiddim [ctd],23.333,93.667,#027B95,Tibeto-Burman ,Kuki-Chin-Naga,Myanmar
Chinali [cih],32.5,77.83,#93FD92,Indo-European ,Indo-Iranian,India
Chinantec_Chiltepec [csa],17.93,-96.17,#0E74B8,Otomanguean ,Western Otomanguean,Mexico
Chinantec_Comaltepec [cco],17.57,-96.55,#0E74B8,Otomanguean ,Western Otomanguean,Mexico
Chinantec_La-Alicia [xxx-169],17.64,-96.02,#0E74B8,Otomanguean ,Western Otomanguean,Mexico
Chinantec_Lacova [xxx-165],17.46,-95.94,#0E74B8,Otomanguean ,Western Otomanguean,Mexico
Chinantec_Lalana [cnl],17.475,-95.875,#0E74B8,Otomanguean ,Western Otomanguean,Mexico
Chinantec_Latani [tpx-2],17.38,-95.91,#0E74B8,Otomanguean ,Western Otomanguean,Mexico
Chinantec_Lealao [cle],17.32,-95.93,#607CFB,Otomanguean ,Western Otomanguean,Mexico
Chinantec_Mayultianguis [xxx-170],17.92,-96.57,#0E74B8,Otomanguean ,Western Otomanguean,Mexico
Chinantec_Ojitlan [chj],18.05,-96.4,#DB6DD7,Otomanguean ,Western Otomanguean,Mexico
Chinantec_Ozumacin [chz],17.68,-96.23,#607CFB,Otomanguean ,Western Otomanguean,Mexico
Chinantec_Palantla [cpa],17.83,-96.39,#0E74B8,Otomanguean ,Western Otomanguean,Mexico
Chinantec_Petlapa [xxx-171],17.48,-96.025,#0E74B8,Otomanguean ,Western Otomanguean,Mexico
Chinantec_Quetzalapa [xxx-166],17.34,-95.88,#0E74B8,Otomanguean ,Western Otomanguean,Mexico
Chinantec_Quiotepec [chq],17.6,-96.58,#0E74B8,Otomanguean ,Western Otomanguean,Mexico
Chinantec_Rio-Chiquito [xxx-168],17.6,-95.97,#0E74B8,Otomanguean ,Western Otomanguean,Mexico
Chinantec_Sochiapan [cso],17.825,-96.67,#0E74B8,Otomanguean ,Western Otomanguean,Mexico
Chinantec_Temextitlan [cco-2],17.59,-96.55,#027B95,Otomanguean ,Western Otomanguean,Mexico
Chinantec_Teotalcingo [xxx-167],17.42,-95.95,#0E74B8,Otomanguean ,Western Otomanguean,Mexico
Chinantec_Tepetotutla [cnt],17.26,-96.11,#0E74B8,Otomanguean ,Western Otomanguean,Mexico
Chinantec_Tlacoatzintepec [ctl],17.86,-96.6,#0E74B8,Otomanguean ,Western Otomanguean,Mexico
Chinantec_Usila [cuc],17.89,-96.52,#FA78A1,Otomanguean ,Western Otomanguean,Mexico
Chinantec_Valle_Nacional [cvn],17.77,-96.3,#0E74B8,Otomanguean ,Western Otomanguean,Mexico
Chinantec_Yolox [xty],17.61,-96.57,#027B95,Otomanguean ,Western Otomanguean,Mexico
Chindamba [ndj],-8.4,36.03,#0E74B8,Niger-Kongo ,Atlantic-Congo,Tanzania
Chinook [chh],46,-124,#FA78A1,Chinook ,Lower Chinook,USA
ChiNyanja [nya],-15,35,#DB6DD7,Niger-Kongo ,Atlantic-Congo,Malawi
Chipaya [cap],-19,-68,#DA7DD9,Uru-Chipaya ,,Bolivia
Chipewyan [chp],59,-106,#FE7C90,Dene-Yeniseic ,Na-Dene,Canada
Chiquimulilla [xin-6],14.08,-90.38,#8CD2E0,Xinca ,,Guatemala
Chiquitano [cax],-17.5,-62,#8C7D00,Chiquitano ,,Bolivia
Chiricahua [apm],33.5,-108,#FA78A1,Dene-Yeniseic ,Na-Dene,USA
Chiriguano_Chané [gui-3],-17.793,-63.18,#8C7D00,Tupian ,Tupi-Guarani,Bolivia
Chiru [cdf],24.99,93.5,#0E74B8,Tibeto-Burman ,Kuki-Chin-Naga,India
Chitimacha [ctm],29.67,-91,#8C7D00,Totozoquean-Chitimacha ,Chitimacha,USA
Chittagong [ben-2],22.37,91.8,#DB6DD7,Indo-European ,Indo-Iranian,Bangladesh
Chiwere [iow-2],40.05,-95.52,#0E74B8,Siouan ,Western Siouan,USA
Chöcangacakha [cgk],27.53,91.14,#B57CF3,Tibeto-Burman ,Bodic,Bhutan
Chöcangacakha-2 [cgk-2],27.55,90.92,#607CFB,Tibeto-Burman ,Bodic,Bhutan
Chochenyo [cst],37.65,-121.91,#FA78A1,Yok-Utian ,Utian,USA
Chocho [coz],17.67,-97.33,#FA78A1,Otomanguean ,Eastern Otomanguean,Mexico
Choctaw [cho],32.25,-88.5,#0E74B8,Muskogean ,Western Muskogean,USA
Chokobo [cbo],10.35,8.85,#DB6DD7,Niger-Kongo ,Atlantic-Congo,Nigeria
Chokri [nri],26.67,93.75,#8CD2E0,Tibeto-Burman ,Kuki-Chin-Naga,India
Chokri-2 [nri-2],25.7,94.3,#AACEDB,Tibeto-Burman ,Kuki-Chin-Naga,India
Chokwe [cjk],-9.702,22.876,#0E74B8,Niger-Kongo ,Atlantic-Congo,Democratic Republic of the Congo
Chol [cti],17.49,-92.47,#DB6DD7,Mayan ,Core Mayan,Mexico
Cholon [cht],-8,-77.5,#907CFE,Cholon ,,Peru
Chomo [cfg],8.87,10.82,#6A018A,Niger-Kongo ,Atlantic-Congo,Nigeria
Chong [cog],12.91,102.01,#0E74B8,Austroasiatic ,Pearic,Thailand
Chongming [wuu-32],31.67,121.5,#8CD2E0,Tibeto-Burman ,Sinitic,China
Chongqing [cmn-48],29.55,106.6,#DB6DD7,Tibeto-Burman ,Sinitic,China
Chongyang [gan-10],29.55,114.17,#8C7D00,Tibeto-Burman ,Sinitic,China
Chono [xxx-39],-46,-75,#607CFB,Chonan ,Chonan Proper,Chile
Chontal [chd],18.17,-92.58,#DB6DD7,Mayan ,Core Mayan,Mexico
Chontal [clo],16.3,-95.5,#DB6DD7,Tequistlatecan ,,Mexico
Chonyi [coh],-3.8,39.76,#FD7B95,Niger-Kongo ,Atlantic-Congo,Kenya
Chopi [cce],-24.718,34.744,#A97D07,Niger-Kongo ,Atlantic-Congo,Mozambique
Chori [cry],9.59,8.06,#FE7C90,Niger-Kongo ,Atlantic-Congo,Nigeria
Chorote [crq],-22,-63,#67D1DF,Matacoan ,Mataguayo II,Argentina
Chorti [caa],14.8,-89.3,#DB6DD7,Mayan ,Core Mayan,Guatemala
Chrau [crw],10.667,107.5,#0E74B8,Austroasiatic ,Bahnaric,Vietnam
Chru [cje],11.774,108.575,#0E74B8,Malayo-Polynesian,Malayo-Sumbawan,Vietnam
Chuave [cjv],-6.168,145.119,#437D0F,Trans New Guinea ,Chimbu-Wahgi,Papua New Guinea
Chuj [cac],16,-91.5,#DB6DD7,Mayan ,Core Mayan,Mexico
Chuj_Ixtatán [cnm],15.833,-91.483,#FA78A1,Mayan ,Core Mayan,Guatemala
Chukchansi [yok-4],36.99,-119.64,#AACEDB,Yok-Utian ,Yokuts,USA
Chukchi [ckt],67,-173,#0E74B8,Chukotko-Kamchatkan ,Main Chukotko-Kamchatkan,Russia
Chulym [clw],54.32,89.55,#887EFF,Turkic ,North-east Turkic,Russia
Chumash [boi],34.5,-120.25,#AACEDB,Chumashan ,South Chumashan,USA
Chumash_Barbareño [boi-2],34.46,-119.7,#AACEDB,Chumashan ,South Chumashan,USA
Chumash_Cruzeño [veo-4],34.05,-119.86,#AACEDB,Chumashan ,South Chumashan,USA
Chumash_Ineseño [inz],34.61,-120.09,#AACEDB,Chumashan ,South Chumashan,USA
Chumash_Obispeño [veo-3],35.29,-120.67,#8CD2E0,Chumashan ,North Chumashan,USA
Chumash_Purisimeño [veo-5],34.69,-120.43,#AACEDB,Chumashan ,South Chumashan,USA
Chumash_Ventureño [veo-6],34.22,-118.72,#BDEF90,Chumashan ,South Chumashan,USA
Chumash_Ventureño-Mitsqanaqan [veo-2],34.28,-119.23,#BDEF90,Chumashan ,South Chumashan,USA
Chumburung [ncu],8.15,-0.28,#DB6DD7,Niger-Kongo ,Atlantic-Congo,Ghana
Chung [scq],14.004,99.55,#DB6DD7,Austroasiatic ,Pearic,Laos
Chungcheong_Korean [kor-4],35.83,127.15,#687D02,Korean ,,Korea
Chuukese [chk],7.333,151.75,#DB6DD7,Oceanic,Micronesian,USA Federated States of Micronesia
Chuvash [chv],55.5,47.5,#607CFB,Turkic ,Oghur,Russia
Chuwabu [chw],-17.34,37.12,#DB6DD7,Niger-Kongo ,Atlantic-Congo,Mozambique
Chuxnabán_Mixe [pxm],17,-96,#DB6DD7,Totozoquean-Chitimacha ,Totozoquean,Mexico
Ciacia [cia],-5.75,122.75,#DB6DD7,Malayo-Polynesian,Celebic,Indonesia-Sulawesi
Cicipu [awc],10.911,5.703,#DB6DD7,Niger-Kongo ,Atlantic-Congo,Nigeria
CiLuba [lua],-6,22,#0E74B8,Niger-Kongo ,Atlantic-Congo,Democratic Republic of the Congo
Cimbrian [cim],45.62,11.13,#CC7DE5,Indo-European ,Germanic,Italy
Citak [tml],-5.509,139.218,#687D02,Trans New Guinea ,Asmat-Kamoro,Indonesia-Papua
Citumbuka [tum],-11,33.5,#0E74B8,Niger-Kongo ,Atlantic-Congo,Malawi
Classical Malay [xxx-96],2.2,102.5,#DB6DD7,Malayo-Polynesian,Malayo-Sumbawan,Malaysia
Coahuilteco [xcw],28,-100,#B57CF3,Coahuilteco ,,USA
Cocama-Cocamilla [cod],-5,-74.3,#A97D07,Tupian ,Tupi-Guarani,Peru
Cochimi [coj],27.28,-112.89,#907CFE,Yuman-Cochimi ,Cochimi,Mexico
Coconucan [cca],2.55,-76.65,#907CFE,Barbacoan ,Northern Barbacoan,Colombia
Cocopa [coc],32.5,-115,#B57CF3,Yuman-Cochimi ,Yuman,USA
Coeur d'Alene [crd],47.33,-117,#BFC7D4,Salish ,Interior Salish,USA
Cofan [con],0.25,-77,#8C7D00,Kofan ,,Ecuador
Cog-rtse_rGyalrong-2 [jya-4],31.5,102,#FD7B95,Tibeto-Burman ,Na-Qiangic,China
Cogtse Gyarong [jya],32.1,100.6,#FD7B95,Tibeto-Burman ,Na-Qiangic,China
Col [liw],-3.3,102.86,#0E74B8,Malayo-Polynesian,Malayo-Sumbawan,Indonesia-Sumatra
Colac [xxx-73],-38.33,143.5,#9B7EFC,Pama-Nyungan ,Kulinic,Australia
Colloquial_Tamil [tam-2],9.23,78.12,#B57CF3,Dravidian ,South Dravidian,India
Columbian [col-2],48.22,-118.45,#CDC1CD,Salish ,Interior Salish,USA
Comanche [com],33.5,-101.5,#8C7D00,Uto-Aztecan ,Numic,USA
Comecrudo [xxx-133],26.09,-98.28,#DB6DD7,Coahuiltecan ,,Mexico
Comorian [wlc],-12.25,43.75,#FA78A1,Niger-Kongo ,Atlantic-Congo,Comoros
Comox [coo],49.75,-125,#DEB7C1,Salish ,Central Salish,Canada
Cone [adx-3],34.58,103.5,#FA78A1,Tibeto-Burman ,Bodic,China
Congjiang [kmc],25.752,108.91,#CDC1CD,Tai-Kadai ,South Tai-Kadai,China
Coos [csz],43.5,-124.17,#FE7C90,Coos ,,USA
Cora [crn],23.333,-99,#CC7DE5,Uto-Aztecan ,Corachol,Mexico
Cora_Ixcatan [crn-2],20.88,-103.35,#FD7B95,Uto-Aztecan ,Corachol,Mexico
Cornish [cor],50.5,-4.5,#0E74B8,Indo-European ,Celtic,Britain
Corsican [cos],42.1,9.5,#DA7DD9,Indo-European ,Romance,France
Cosao [xxx-137],21.62,101.567,#FA78A1,Tibeto-Burman ,Lolo-Burmese,China
Cotabato_Manobo_Kalamansig [mta],6.421,124.29,#027B95,Malayo-Polynesian,Philippines,Philippines
Cowlitz [cow],46.5,-123.17,#FE7C90,Salish ,Tsamosan,USA
Cree_East [crl],50.42,-73.87,#8C7D00,Algic ,Algonquian,Canada
Cree_Moose [crm],51.33,-80.5,#0E74B8,Algic ,Algonquian,Canada
Cree_Plains [crk],54,-116,#687D02,Algic ,Algonquian,Canada
Cree_Swampy [csw],54.5,-84,#687D02,Algic ,Algonquian,Canada
Cree_Woods [cwd],58,-102,#687D02,Algic ,Algonquian,Canada
Creek [mus],30.41,-85.2,#0E74B8,Muskogean ,Creek,USA
Cremonese [lmo-7],45.13,10.03,#607CFB,Indo-European ,Romance,Italy
Croatian [hrv],45.5,17.3,#B57CF3,Indo-European ,Balto-Slavic,Croatia
Cross_River_Mbembe [mfn],6.17,8.24,#DB6DD7,Niger-Kongo ,Atlantic-Congo,Nigeria
Crow [cro],45.5,-108,#687D02,Siouan ,Western Siouan,USA
Cua [cua],15.167,108.667,#0E74B8,Austroasiatic ,Bahnaric,Vietnam
Cubeo [cub],1.33,-70.5,#6B0759,Tucanoan ,Central,Colombia
Cuiba [cui-2],6.5,-70.5,#8C7D00,Guahiban ,,Colombia
Cuicatec [xtu],17.98,-96.72,#687D02,Otomanguean ,Eastern Otomanguean,Mexico
Cuitlatec [qpb],18.1,-100.34,#DB6DD7,Cuitlatec ,,Mexico
Cup'ik [esu-2],61.525,-165.65,#5BF992,Eskimo-Aleut ,Eskimo,USA-Alaska
Cupeño [cup],33.17,-116.5,#B57CF3,Uto-Aztecan ,North Uto-Aztecan,USA
Cuvok [cuv],10.7,14,#0E74B8,Afro-Asiatic ,Chadic,Cameroon
Czech [ces],50,14.5,#B57CF3,Indo-European ,Balto-Slavic,Czech Republic
Da'a [kzf],-1.356,119.549,#0E74B8,Malayo-Polynesian,Celebic,Indonesia-Sulawesi
Daakaka [bpa],-16.269,167.964,#0E74B8,Oceanic,Southern Oceanic,Vanuatu
Daakie [ptv-2],-16.32,168.04,#0E74B8,Oceanic,Southern Oceanic,Vanuatu
Daats'íin [xxx-153],12.6,35.8,#FA78A1,Nilo-Saharan ,Gumuz,Ethiopia
Daba [dbq],10.1,13.8,#FF7D8D,Afro-Asiatic ,Chadic,Cameroon
Dabu [hak-22],24.35,116.7,#FA78A1,Tibeto-Burman ,Sinitic,China
Dadibi [mps],-6.55,144.58,#437D0F,Papuan Gulf ,Tua River,Papua New Guinea
Dadua [gal-2],-8.135,125.638,#027B95,Malayo-Polynesian,Timoric,Timor leste
Dafang [cmn-31],27.29,105.66,#DB6DD7,Tibeto-Burman ,Sinitic,China
Daga [dgz],-10,149.25,#157C39,Southeast Papuan ,Dagan,Papua New Guinea
Dagaare [dga],11.5,-2.5,#8CD2E0,Niger-Kongo ,Atlantic-Congo,Burkina Faso
Dagbani [dag],9.58,-0.5,#0E74B8,Niger-Kongo ,Atlantic-Congo,Ghana
Dagur [dta],48,124,#DB6DD7,Mongolic ,Core Mongolic,China
Dahalik [dlk],15.75,40.25,#FA78A1,Afro-Asiatic ,Semitic,Eritrea
Dahalo [dal],-2.217,40.483,#FF7E89,Afro-Asiatic ,Cushitic,Kenya
Dai [dij],-7.5,129.5,#437D0F,Malayo-Polynesian,Southeast Maluku,Indonesia-Maluku-south
Dai_Jinping [khb-2],22.78,103.225,#DB6DD7,Tai-Kadai ,South Tai-Kadai,China
Daju_Dar-Fur [daj],12.25,25.25,#0E74B8,Nilo-Saharan ,Dajuic,Sudan
Dakota [dak],43.1,-98.4,#BD7D10,Siouan ,Western Siouan,USA
Dakpa [dka],27.38,91.5,#B57CF3,Tibeto-Burman ,Bodic,Bhutan
Dalabon [ngk],-14.25,134,#907CFE,Macro-Gunwinygu ,Gunwingyuan proper,Australia
Dalat [mel-2],2.74,111.94,#0E74B8,Malayo-Polynesian,Malayo-Sumbawan,Malaysia-Borneo
Dalian [cmn-8],38.91,121.61,#FA78A1,Tibeto-Burman ,Sinitic,China
Dalmatian [dlm],45.35,14.5,#027B95,Indo-European ,Romance,Croatia
Damal [uhn],-4,137.5,#DB6DD7,Trans New Guinea ,Western Trans New Guinea,Indonesia-Papua
Damal_Wa [uhn-2],-4.185,137.275,#DB6DD7,Trans New Guinea ,Western Trans New Guinea,Indonesia-Papua
Damana [mbp],10.9,-73.6,#437D0F,Chibchan ,Core Chibchan,Colombia
Damar_East [dmr],-7.25,128.52,#DB6DD7,Malayo-Polynesian,Southeast Maluku,Indonesia-Maluku-south
Damar_West [drn],-7,128.5,#0E74B8,Malayo-Polynesian,West Damar,Indonesia-Maluku-south
Dameli [dml],35.375,71.693,#FD7B95,Indo-European ,Indo-Iranian,Pakistan
Dami [dad],-5.315,145.613,#027B95,Oceanic,Western Oceanic,Papua New Guinea
Damin [xxx-7],-16.4,139.35,#B57CF3,Tangkic ,Lardil,Australia
Dampelas [dms],0.2,120,#DB6DD7,Malayo-Polynesian,Celebic,Indonesia-Sulawesi
Damu [adi-11],27.63,94.35,#BFC7D4,Tibeto-Burman ,Macro-Tani,India
Dan [dnj],7.5,-8,#DB6DD7,Mande ,Eastern Mande,Côte d'Ivoire
Danau [dnu],22.333,99.333,#DB6DD7,Austroasiatic ,Khasi-Palaung,Myanmar
Dandami_Maria [daq],19.1,82.06,#DB6DD7,Dravidian ,South-central,India
Danezaa [bea],57,-120,#BD7D10,Dene-Yeniseic ,Na-Dene,Canada
Dangaléat_Western [daa],12.17,18.33,#DB6DD7,Afro-Asiatic ,Chadic,Chad
Danggaura_Tharu [thl],28.1,82.3,#67D1DF,Indo-European ,Indo-Iranian,Nepal
Dangla [daa-2],12.15,18.25,#0E74B8,Afro-Asiatic ,Chadic,Chad
Dani [dni],-4,138.917,#DB6DD7,Trans New Guinea ,Western Trans New Guinea,Indonesia-Papua
Dani_Aikhe [dni-3],-3.95,138.97,#DB6DD7,Trans New Guinea ,Western Trans New Guinea,Indonesia-Papua
Dani_Bele [dni-2],-3.93,138.73,#027B95,Trans New Guinea ,Western Trans New Guinea,Indonesia-Papua
Dani_Gorge [dnt],-4.33,139.13,#0E74B8,Trans New Guinea ,Western Trans New Guinea,Indonesia-Papua
Dani_Hablifoeri [dni-4],-3.640848,138.759428,#0E74B8,Trans New Guinea ,Western Trans New Guinea,Indonesia-Papua
Dani_Mugogo [dni-5],-3.97,138.8,#027B95,Trans New Guinea ,Western Trans New Guinea,Indonesia-Papua
Dani_Wodo [wlw],-3.816,138.718,#0E74B8,Trans New Guinea ,Western Trans New Guinea,Indonesia-Papua
Danish [dan],56,10,#027B95,Indo-European ,Germanic,Denmark
Danisi [shg],-20.206,25.26,#DC7E28,Khoe ,Khoe,Botswana
Danyang [wuu-33],32,119.6,#DB6DD7,Tibeto-Burman ,Sinitic,China
Danzhai [cmn-56],26.244,107.895,#8C7D00,Tibeto-Burman ,Sinitic,China
Danzhou_Chen [nan-48],19.88,109.35,#0E74B8,Tibeto-Burman ,Sinitic,China-Hainan
Danzhou_DF [nan-36],19.71,109.275,#DB6DD7,Tibeto-Burman ,Sinitic,China-Hainan
Danzhou_Gan [gan-3],34.52,112.06,#DB6DD7,Tibeto-Burman ,Sinitic,China-Hainan
Danzhou_Literary_Ting [nan-49],19.52,109.58,#DB6DD7,Tibeto-Burman ,Sinitic,China-Hainan
Danzhou_Ting [nan-37],19.75,109.4,#DB6DD7,Tibeto-Burman ,Sinitic,China-Hainan
Dao_Ngan_Tay [tyz],22.3,102.5,#0E74B8,Tai-Kadai ,South Tai-Kadai,Vietnam
Dapeng [hak-31],22.6,114.51,#0E74B8,Tibeto-Burman ,Sinitic,China
Darai [dry],27.85,84.1,#DB6DD7,Indo-European ,Indo-Iranian,Nepal
Darang [mhu-2],28.47,97.56,#8CD2E0,Tibeto-Burman ,Digarish,India
Darang-2 [mhu-3],28.67,97.47,#AACEDB,Tibeto-Burman ,Digarish,China
Dargi [dar-2],42.27,47.34,#FD7B95,Nakh-Daghestanian ,Lak-Dargwa,Russia
Dargwa [dar],42.15,47.4,#FA78A1,Nakh-Daghestanian ,Lak-Dargwa,Russia
Dargwa_Kubachi [dar-3],42.09,47.6,#FA78A1,Nakh-Daghestanian ,Lak-Dargwa,Russia
Dari [prs],36.01,70.026,#DB6DD7,Indo-European ,Indo-Iranian,Afghanistan
Darkinyung [xda],-33.57,151.31,#DB6DD7,Pama-Nyungan ,Yuin-Kuri,Australia
Darma [drd],29.84,80.517,#FA78A1,Tibeto-Burman ,Western Himalayan,India
Dasenech [dsh],4.802,36.05,#0E74B8,Afro-Asiatic ,Cushitic,Ethiopia
Datian_Houlu [nan-21],25.8,117.75,#8B008A,Tibeto-Burman ,Sinitic,China
Datian_Qianlu [nan-20],25.7,117.85,#6A018A,Tibeto-Burman ,Sinitic,China
Datooga [tcc],-4.75,36.67,#DB6DD7,Nilo-Saharan ,Nilotic,Tanzania
Dâw [kwa],-0.15,-67.05,#67D1DF,Nadahup ,Vaupés,Brazil
Dawawa [dww],-10.151,149.968,#687D02,Oceanic,,Papua New Guinea
Dawera-Daweloor [ddw],-7.759,130.04,#027B95,Malayo-Polynesian,Southeast Maluku,Indonesia-Maluku-south
Daxing_Miao [hea-4],27.88,109.29,#EDC089,Hmong-Mien ,Hmongic,China
Dazaga [dzg],15.74,15.85,#0E74B8,Nilo-Saharan ,Saharan,Chad
De'ang_Guangka [rbb],24.833,99.75,#AACEDB,Austroasiatic ,Khasi-Palaung,China
Debri [dil],12.04,29.66,#FD7B95,Nilo-Saharan ,Nubian,Sudan
Dedua [ded],-6.381,147.576,#8C7D00,Trans New Guinea ,Morobe-Eastern Highlands,Papua New Guinea
Defaka [afn],4.58,7.5,#DB6DD7,Ijoid ,Defaka,Nigeria
Deg [mzw],8.44,-2.29,#DB6DD7,Niger-Kongo ,Atlantic-Congo,Ghana
Deg Xinag [ing],62.07,-160,#FF7D8D,Dene-Yeniseic ,Na-Dene,USA-Alaska
Dege [khg-6],31.817,98.667,#BDEF90,Tibeto-Burman ,Bodic,China
Degema [deg],4.75,6.75,#DB6DD7,Niger-Kongo ,Atlantic-Congo,Nigeria
Dehong [tdd],24,98,#0E74B8,Tai-Kadai ,South Tai-Kadai,China
Deirate [tad-2],-3,137.17,#88202A,Lakes Plains ,Tariku,Indonesia-Papua
Dekwana [mch],4.5,-63.5,#437D0F,Cariban ,Guianan Carib,Venezuela
Dela-Oenale [row],-10.92,123,#027B95,Malayo-Polynesian,Timoric,Indonesia-NTT
Delaware [unm],41.5,-74.67,#0E74B8,Algic ,Algonquian,USA
Demisa [dei],-2.55,136.69,#687D02,Geelvink Bay ,,Indonesia-Papua
Denaina [tfn],62,-150,#DB6DD7,Dene-Yeniseic ,Na-Dene,USA-Alaska
Dengebu [dec],10.6,29.9,#DB6DD7,Talodi-Heiban ,Talodi,Sudan
Dengka [dnk],-10.775,122.89,#027B95,Malayo-Polynesian,Timoric,Indonesia-NTT
Dení [dny],-6,-68,#687D02,Arawá ,,Brazil
Deni [stc],-10.83,166.08,#DB6DD7,Oceanic,,Solomons_East
Denjongkha [sip],27.5,88.5,#AACEDB,Tibeto-Burman ,Bodic,India
Dényá [anv],5.963,9.309,#DB6DD7,Niger-Kongo ,Atlantic-Congo,Cameroon
Dermuha [kpp],17.79,95.34,#607CFB,Tibeto-Burman ,Karen,Myanmar
Desano [des],0.579,-69.067,#54262F,Tucanoan ,East Tucanoan,Colombia
Deti [shg-3],-20,25,#A97D07,Khoe ,Khoe,Botswana
Deuri [der],27.23,94.1,#0E74B8,Tibeto-Burman ,Bodo-Garo,India
Deventer [nld-13],52.25,6.15,#027B95,Indo-European ,Germanic,Netherlands
Dghwede [dgh],11.06,13.78,#DB6DD7,Afro-Asiatic ,Central,Nigeria
Dhalandji [dhl],-22.7,115.2,#9B7EFC,Pama-Nyungan ,Kanyara-Mantharta,Australia
Dhao [nfa],-10.83,122.75,#FA78A1,Malayo-Polynesian,Flores-Sawu-Sumba,Indonesia-NTT
Dharawal [tbh],-34.5,150.5,#DB6DD7,Pama-Nyungan ,Yuin-Kuri,Australia
Dharawala [bym-2],-26.2,144.8,#DB6DD7,Pama-Nyungan ,Yuin-Kuri,Australia
Dharuk [xxx-8],-33.1,151.75,#907CFE,Pama-Nyungan ,Yuin-Kuri,Australia
Dharumbal [bjy],-22.75,150,#0E74B8,Pama-Nyungan ,Rockhampton,Australia
Dhatki [mki],24.9,70.2,#CC7DE5,Indo-European ,Indo-Iranian,Pakistan
Dhimal [dhi],26.6,86.75,#67D1DF,Tibeto-Burman ,Bodic,Nepal
Dhimba [dhm],-17.3,13.44,#DB6DD7,Niger-Kongo ,Bantoid,Namibia
Dhivehi [div],10.6,73,#8A7DFF,Indo-European ,Indo-Iranian,Maldives
Dhudhuroa [ddr],-36.5,148,#DB6DD7,Pama-Nyungan ,Gippsland,Australia
Dhurgal [xxx-74],-35.67,150,#DB6DD7,Pama-Nyungan ,Yuin-Kuri,Australia
Dhuwal [duj-2],-12.78,136.01,#B57CF3,Pama-Nyungan ,Yolngu,Australia
Dia [dia-2],-3.476,142.413,#027B95,Torricelli ,Wapei,Papua New Guinea
Dianbai [nan-33],21.7,111.18,#0E74B8,Tibeto-Burman ,Sinitic,China
Dibabawon_Manobo [mbd],7.83,126,#027B95,Malayo-Polynesian,Philippines,Philippines
Dibole [bvx],1.08,17.23,#0E74B8,Niger-Kongo ,Atlantic-Congo,Congo
Dida [dic],5.518,-5.245,#FA78A1,Niger-Kongo ,Atlantic-Congo,Côte d'Ivoire
Didinga [did],4.33,33.6,#FE7C90,Nilo-Saharan ,Surmic,Sudan
Dido [ddo-2],42.1,46.05,#FD7B95,Nakh-Daghestanian ,Tsezic,Russia
Didra [tdr],14.527,108.251,#0E74B8,Austroasiatic ,Bahnaric,Vietnam
Didra-2 [tdr-3],14.722,108.1255,#0E74B8,Austroasiatic ,Bahnaric,Vietnam
Diebu_Dianga [khg],27.76,99.83,#FA78A1,Tibeto-Burman ,Bodic,China
Diegueño [dih],32.67,-116.17,#CC7DE5,Yuman-Cochimi ,Yuman,USA
Digaru Mishmi [mhu],28.2,96.2,#0E74B8,Tibeto-Burman ,Digarish,India
Digo [dig],-4.62,39.18,#0E74B8,Niger-Kongo ,Bantoid,Comoros
Dii [dur],8.07,13.882,#5BF992,Niger-Kongo ,Atlantic-Congo,Cameroon
Diidxazá [zai-10],16.553,-94.947,#DB6DD7,Otomanguean ,Zapotecan,Mexico
Dilaohua Yongan Bobai [yue-26],22.329,109.717,#DB6DD7,Tibeto-Burman ,Sinitic,China
Dimasa [dis],25.33,93,#027B95,Tibeto-Burman ,Bodo-Garo,India
Dime [dim],6.25,36.33,#DB6DD7,Afro-Asiatic ,Omotic,Ethiopia
Dimili [diq],38,40,#DB6DD7,Indo-European ,Indo-Iranian,Turkey
Dingri [bod-4],28.567,86.633,#CC7DE5,Tibeto-Burman ,Bodic,China
Dinik [aft],12.458,30.751,#DB6DD7,Nilo-Saharan ,Nyimang,Sudan
Dinka [dip],8.5,28,#DB6DD7,Nilo-Saharan ,Nilotic,South Sudan
Diodio [ddi],-9.42,150.16,#907CFE,Oceanic,,Papua New Guinea
Diola [dyo],13,-16,#0E74B8,Niger-Kongo ,Atlantic-Congo,Senegal
Diola-Husuy [dyo-2],12.58,-16.3,#0E74B8,Niger-Kongo ,Atlantic-Congo,Senegal
Dirak_Mae [mme-2],-15.99,167.29,#0E74B8,Oceanic,Southern Oceanic,Vanuatu
Ditammri [tbz-2],10.16,1.18,#8C7D00,Niger-Kongo ,Atlantic-Congo,Benin
Dixon_Reef [dix],-15.5,167.5,#027B95,Oceanic,Southern Oceanic,Vanuatu
Diyari [dif],-28,139,#9B7EFC,Pama-Nyungan ,Karnic,Australia
Dizi [mdx],6.17,36.5,#DB6DD7,Afro-Asiatic ,Omotic,Ethiopia
Dizin [mdx-2],6.14,35.58,#DB6DD7,Afro-Asiatic ,Omotic,Ethiopia
Djabugay [dyy],-16.65,145.5,#0E74B8,Pama-Nyungan ,Paman,Australia
Djambarrpuyngu [djr],-12,135.5,#B57CF3,Pama-Nyungan ,Yolngu,Australia
Djapu [duj],-12.667,136,#B57CF3,Pama-Nyungan ,Yolngu,Australia
Djaru [ddj],-18.75,128,#8A7DFF,Pama-Nyungan ,Ngumbin-Yapa,Australia
Djeoromitxi [jbt-2],-12.1,-63.1,#8C7D00,Macro-Je ,Jabutí,Brazil
Djinang [dji],-12.5,134.833,#907CFE,Pama-Nyungan ,Yolngu,Australia
Djingili [jig],-17.25,133.833,#A37DFA,Mirndi ,Jingulu,Australia
Dla [kbv],-3.7,142.05,#027B95,Trans New Guinea ,Border,Papua New Guinea
Doabi [pan-2],30.1,76.17,#907CFE,Indo-European ,Indo-Iranian,Pakistan
Dobel [kvo],-6.083,134.5,#027B95,Malayo-Polynesian,Southeast Maluku,Indonesia-Maluku-south
Dobu [dob],-9.75,150.83,#DB6DD7,Oceanic,Western Oceanic,Papua New Guinea
Dogon [dbu],14.5,-2.5,#0E74B8,Niger-Kongo ,Dogon,Mali
Dogri [dgo],32.03,75.4,#B57CF3,Indo-European ,Indo-Iranian,India
Dogrib [dgr],65,-115,#FD7B95,Dene-Yeniseic ,Na-Dene,Canada
Dohoi [otd],-0.5,113,#687D02,Malayo-Polynesian,Barito,Indonesia-Kalimantan
Dolgan [sah-3],70.11,94.29,#DB6DD7,Turkic ,North-east Turkic,Russia
Dolpo [dre],29,83,#FA78A1,Tibeto-Burman ,Bodic,Nepal
Dom [doa],-6,144.917,#027B95,Trans New Guinea ,Chimbu-Wahgi,Papua New Guinea
Dompo [doy],8.18,-2.29,#FA78A1,Niger-Kongo ,Atlantic-Congo,Ghana
Domung [dev],-5.82,146.68,#687D02,Trans New Guinea ,Morobe-Eastern Highlands,Papua New Guinea
Dong [doc],26,109,#B57CF3,Tai-Kadai ,South Tai-Kadai,China
Dong'an [hsn-9],26.4,111.3,#DB6DD7,Tibeto-Burman ,Sinitic,China
Dongguan [yue-15],22.844,114.164,#DB6DD7,Tibeto-Burman ,Sinitic,China
Dongolawi [doo],18,32,#0E74B8,Nilo-Saharan ,Nubian,Sudan
Dongwang [khg],28.25,99.55,#BDEF90,Tibeto-Burman ,Bodic,China
Dori'o [dor],-9.2,160.83,#0E74B8,Oceanic,Southeast Solomonic,Solomons
Dorig [wwo],-14.35,167.57,#0E74B8,Oceanic,Southern Oceanic,Vanuatu
