name,latitude,longitude,color,family,subgroup,country
!Xoon [nmn],-24,21.5,#002F77,Tuu,Hua,Botswana
’Weenhayek [mtp],-21.99,-63.6,#AA5EAE,Matacoan,Mataguayo II,Bolivia
||Ana [gnk],-22.2,22.4,#143960,Khoe,Khoe,Botswana
||Ani [hnh],-19.3,22.5,#2F4B73,Khoe,Khoe,Botswana
||Gana [gnk-2],-19,22.5,#11435E,Khoe,Khoe,Botswana
||Xekwi [xeg],-23,22,#4D3B96,Tuu,!Kwi,Botswana
|Gwi [gwj],-22.435,21.654,#2C576D,Khoe,Khoe,Botswana
|Xam [xam],-30.34,21.82,#2A4D7A,Tuu,/Xam,South Africa
A'iwa [ash],-2,-74.5,#825857,A'iwa,,Peru
A'jië [aji],-21.342,165.459,#6C8BCC,Oceanic,Southern Oceanic,New Caledonia
Aari [aiw],6,36.6,#AA976B,Afro-Asiatic,Omotic,Ethiopia
Aashing [adi-10],28.99,94.9,#5F8F9F,Tibeto-Burman,Macro-Tani,India
Abanyom [abm],6.499,8.647,#70C282,Niger-Kongo,Atlantic-Congo,Nigeria
Abar [mij-3],6.59,10.26,#92C796,Niger-Kongo,Atlantic-Congo,Cameroon
Abau [aau],-4,141.167,#6DA736,Sepik,Abau,Papua New Guinea
Abawiri [flh],-3.05,139.21,#83B320,Lakes Plains,Eastern Lakes Plains,Indonesia-Papua
Abaza [abq],44.34,41.67,#D510A5,Northwest Caucasus,Abaza-Abkhaz,Russia
Abduyi [pes-4],29.7,52.07,#976E52,Indo-European,Indo-Iranian,Iran
Abelam [abt-2],-3.83,143.17,#55659B,Ndu,Nuclear Ndu,Papua New Guinea
Abellen [abp],15.41,120.2,#566F5E,Malayo-Polynesian,Philippines,Philippines
Abenaki_Western [abe],44,-72.25,#767749,Algic,Algonquian,USA
Aberdeenshire_English [sco-4],57.3,-2,#9E9F7E,Indo-European,Germanic,Britain
Abidji [abi],5.66,-4.58,#7BB46F,Niger-Kongo,Atlantic-Congo,Côte d'Ivoire
Abinomn [bsa],-3,138.8,#75733F,Abinomn,,Indonesia-Papua
Abipon [axb],-26,-61,#68566B,Guaicuruan,Southern Guaicuruan,Argentina
Abkhaz [abk],43,41.03,#CA15A2,Northwest Caucasus,Abaza-Abkhaz,Abkhazia
Abkhaz_Bzyp [ady-13],43.32,40.41,#D512AD,Northwest Caucasus,Abaza-Abkhaz,Abkhazia
Abkhaz_Sadz [ady-12],43.33,40.22,#CD0FA5,Northwest Caucasus,Abaza-Abkhaz,Abkhazia
Abron [abr],8.03,-2.8,#7DC849,Niger-Kongo,Atlantic-Congo,Ghana
Abruzzo [nap],42.66,13.7,#8C9DC0,Indo-European,Romance,Italy
Abua [abn],4.8,6.654167,#87CA93,Niger-Kongo,Atlantic-Congo,Nigeria
Abui [abz],-8.417,124.6,#649849,Timor-Alor-Pantar,Alor-Pantar,Indonesia-NTT
Abujh_Maria [mrr-2],18.75,80.68,#5E5E98,Dravidian,South-Central Dravidian,India
Abun [kgr],-0.833,132,#7FB762,West Papuan,Birds Head,Indonesia-Papua
Abure [abu],5.22,-3.64,#7AC17B,Niger-Kongo,Atlantic-Congo,Côte d'Ivoire
Acatec [agu-2],15.7,-91.617,#9D5172,Mayan,Core Mayan,Guatemala
Aceh_Lhokseumawe [ace-7],5.19,97.14,#7DB6C8,Malayo-Polynesian,Malayo-Sumbawan,Indonesia-Sumatra
Aceh_Pidie [ace-2],5.38,95.96,#7AB2C9,Malayo-Polynesian,Malayo-Sumbawan,Indonesia-Sumatra
Acehnese [ace],5.333,96.167,#7DB3C1,Malayo-Polynesian,Malayo-Sumbawan,Indonesia-Sumatra
Acehnese_Northeast [ace-6],4.62,97.62,#82B7BB,Malayo-Polynesian,Malayo-Sumbawan,Indonesia-Sumatra
Acehnese_South [ace-4],4.1,96.23,#80B8BA,Malayo-Polynesian,Malayo-Sumbawan,Indonesia-Sumatra
Acehnese_Southwest [ace-3],5.05,95.34,#80B8B9,Malayo-Polynesian,Malayo-Sumbawan,Indonesia-Sumatra
Acehnese_West [ace-5],5.47,95.26,#81BAB9,Malayo-Polynesian,Malayo-Sumbawan,Indonesia-Sumatra
Achagua [aca],4.002,-72.814,#80615C,Arawak,Northern Maipuran,Colombia
Achang_Lianghe [acn-2],24.8,98.3,#9CC3CD,Tibeto-Burman,Lolo-Burmese,China
Achang_Longchuan [can-2],24.25,97.833,#A2C2E0,Tibeto-Burman,Lolo-Burmese,China
Achang_Luxi [can-3],24.527,103.764,#94D39E,Tibeto-Burman,Lolo-Burmese,China
Aćharêtâʹ [phl-2],35.4,71.75,#97A8BA,Indo-European,Indo-Iranian,Afghanistan
Aché [guq],-25.25,-55.17,#629057,Tupian,Tupi-Guarani,Paraguay
Achi [acr],15.25,-90.5,#8C5265,Mayan,Core Mayan,Guatemala
Achuar [acu],-3,-76,#676261,Jivaroan,Shuaric,Peru
Achumawi [acv],41.5,-121,#B05191,Palaihnihan,,USA
Acipa [acp],10.71,6.01,#C39079,Niger-Kongo,Atlantic-Congo,Nigeria
Acoma [kjq-2],34.92,-107.58,#BA8AB8,Keresan,Western Keresan,USA
Acooli [ach],3.293,32.871,#62A6AF,Nilo-Saharan,Eastern Sudanic,Uganda
Adamawa Fulfulde [fub],8.9,15.84,#81BB91,Niger-Kongo,Atlantic-Congo,Cameroon
Adang [adn],-8.163,124.456,#618F5D,Timor-Alor-Pantar,Alor-Pantar,Indonesia-NTT
Adangme [ada],5.8,0.33,#88C885,Niger-Kongo,Atlantic-Congo,Ghana
Adim [yay],5.81,8.03,#8F9656,Niger-Kongo,Atlantic-Congo,Nigeria
Adyghe [ady],44.1,39.08,#CE1C95,Northwest Caucasus,Ubykh-Circassian,Russia
Adyghe_Abzakh [ady-11],44.7,38.9,#D21B97,Northwest Caucasus,Ubykh-Circassian,Russia
Adyghe_Besleney [ady-5],44.7,40.75,#D3189B,Northwest Caucasus,Ubykh-Circassian,Russia
Adyghe_Black Sea Shapsugh [ady-14],44.375,38.4,#E015AD,Northwest Caucasus,Ubykh-Circassian,Russia
Adyghe_Bzhedug [ady-6],45,39.3,#DB1FA6,Northwest Caucasus,Ubykh-Circassian,Russia
Adyghe_Cherkess [ady-9],44.25,42.05,#D01A96,Northwest Caucasus,Ubykh-Circassian,Russia
Adyghe_Hakuchi [ady-8],44.88,38,#D01A96,Northwest Caucasus,Ubykh-Circassian,Russia
Adyghe_Natukai [ady-3],44.4,38.35,#D80FA1,Northwest Caucasus,Ubykh-Circassian,Russia
Adyghe_Shapsugh [ady-2],44.3,39,#E115AD,Northwest Caucasus,Ubykh-Circassian,Russia
Adyghe_Temirgoy [ady-10],45.125,39.83,#CE1B95,Northwest Caucasus,Ubykh-Circassian,Russia
Adyghe_Uzunyayla [ady-4],44.25,38.77,#D1199B,Northwest Caucasus,Ubykh-Circassian,Russia
Adynyamathanha [adt],-31,139.5,#5160DB,Pama-Nyungan,Thura-Yura,Australia
Adyukru [adj],5.38,-4.53,#6CC393,Niger-Kongo,Atlantic-Congo,Ghana
Adzera [azr],-6.417,146.25,#69845C,Oceanic,Western Oceanic,Papua New Guinea
Aeka [aez],-8.601,147.994,#6D9C4B,Trans New Guinea,Oro-Wharton,Papua New Guinea
Afar [aar],11.85,42,#3F6B80,Afro-Asiatic,Cushitic,Djibouti
Afitti [aft-2],12.44,31,#66A892,Nilo-Saharan,Eastern Sudanic,Sudan
Afrikaans [afr],-33.9,18.5,#73A887,Indo-European,Germanic,South Africa
Afshar [azj-2],37.475,57.33,#9B81A0,Turkic,Common Turkic,Iran
Agabag [mvv-3],3.965,117.095,#568D96,Malayo-Polynesian,North Borneo,Indonesia-Kalimantan
Agarabi [agd],-6.25,145.917,#59A13D,Trans New Guinea,Morobe-Eastern Highlands,Papua New Guinea
Agatu [agc],7.98,7.72,#8AB59F,Niger-Kongo,Atlantic-Congo,Nigeria
Aghem [agq],6.39,10.12,#9ADFA1,Niger-Kongo,Atlantic-Congo,Cameroon
Aghu [ahh],-6.333,140,#78962D,Trans New Guinea,Awyu-Dumut,Indonesia-Papua
Aghu-Tharrnggala [gtu],-13.73,142.43,#5883D4,Pama-Nyungan,Paman,Australia
Aghul_Huppuq’ [agx-6],41.836,47.6602,#BC6181,Nakh-Daghestanian,Lezgic,Russia
Aglla [idu-3],6.8,7.95,#94A7C6,Niger-Kongo,Atlantic-Congo,Nigeria
Agöb [kit],-9.09,142.53,#6496A1,South New Guinea,East Morehead,Papua New Guinea
Agta [agt],17.967,121.833,#67875F,Malayo-Polynesian,Philippines,Philippines
Aguaruna [agr],-5.25,-78,#705D49,Jivaroan,Aguaruna,Peru
Aguatec [agu],15.4,-91.4,#9E5B6D,Mayan,Core Mayan,Guatemala
Agul [agx],41.78,47.59,#B65C76,Nakh-Daghestanian,Lezgic,Russia
Agul_Burkixan [agx-2],41.78,47.6,#BB548D,Nakh-Daghestanian,Lezgic,Russia
Agul_Burshag [agx-3],41.86,47.62,#B94D8D,Nakh-Daghestanian,Lezgic,Russia
Agul_Fite [agx-4],41.79,47.59,#BF5592,Nakh-Daghestanian,Lezgic,Russia
Agul_Richa [agx-5],41.78,47.61,#C34992,Nakh-Daghestanian,Lezgic,Russia
Agusan [mbb-2],8.68,125.79,#5B755E,Malayo-Polynesian,Philippines,Philippines
Agusan_Manobo [msm],8.63,125.74,#597E6C,Malayo-Polynesian,Philippines,Philippines
Agutaynen [agn],11.15,120.95,#585D79,Malayo-Polynesian,Philippines,Philippines
Agwamin [wmi],-16.986,143.001,#457CB8,Pama-Nyungan,Paman,Australia
Ahamb [ahb],-16.507,167.703,#72AC92,Oceanic,Southern Oceanic,Vanuatu
Ahan [ahn],7.44,6.01,#89BB87,Niger-Kongo,Atlantic-Congo,Nigeria
Ahanta [aha],4.85,-1.95,#84B782,Niger-Kongo,Atlantic-Congo,Ghana
Ahi [yix],24.4,103.4,#ADCEA0,Tibeto-Burman,Lolo-Burmese,China
Ahom [aho],25,95,#84CC7E,Tai-Kadai,Kam-Tai,India
Ahtna [aht],62,-145,#A56E58,Dene-Yeniseic,Na-Dene,USA-Alaska
Ai-cham_Diwo [aih],25.8,107,#9EDFAC,Tai-Kadai,Kam-Tai,China
Aikaná [tba],-12.1,-60.6,#77A160,Aikaná,,Brazil
Aimaq [aiq],35.28,59.18,#996659,Indo-European,Indo-Iranian,Iran
Ainu [ain],43.5,142,#6A8B38,Ainu,,Japan
Ainu_Kuril [ain-2],46.5,151.5,#63773D,Ainu,,Japan
Ainu_Sakhalin [ain-3],49.07,142.03,#6A8534,Ainu,,Japan
Airoran [air],-1.7,138.15,#6D7040,Kwerba,Nuclear Kwerba,Indonesia-Papua
Aisi [mmq],-5.35,145.15,#578B59,Trans New Guinea,Madang,Papua New Guinea
Ait_Seghrouchen [tzm-2],33,-5,#A2357F,Afro-Asiatic,Berber,Morocco
Aita_Rotokas [roo-2],-6,155.08,#4F8544,North Bougainville,Rotokas,Papua New Guinea-Bougainville
Aiton [aio-2],24,94,#7DD58B,Tai-Kadai,Kam-Tai,India
Aitutaki [rar-2],-18.872,-159.782,#507C4A,Oceanic,Central Pacific,Cook Islands
Aiwoo [nfl],-10.5,166.5,#7789B2,Oceanic,Te Motu,Solomons_East
Aizi [ahp],5.25,-4.5,#86BE82,Niger-Kongo,Atlantic-Congo,Côte d'Ivoire
Aja [ajg],7.07,1.65,#99BABF,Niger-Kongo,Atlantic-Congo,Benin
Ajumbu [muc-2],6.55,10.27,#9BD694,Niger-Kongo,Atlantic-Congo,Cameroon
Aka [axk],3.46,15.73,#90C95C,Ubangian,,Central African Republic
Aka [hru-2],27.2,92.9,#B391A2,Tibeto-Burman,Hrusish,India
Akabea [abj-2],12.38,92.78,#5085C0,Andaman,,India_Andaman-Nicobars
Akan [aka],6.5,-1.25,#8DA54F,Niger-Kongo,Atlantic-Congo,Ghana
Akaselem [aks],8.89,1.37,#78C988,Niger-Kongo,Atlantic-Congo,Togo
Akawaio [ake],6,-59.5,#648145,Cariban,Venezuelan,Guyana
Ake [aik],8.6,8.76,#8BCB6C,Niger-Kongo,Atlantic-Congo,Nigeria
Akei [tsr],-15.49,166.75,#61704A,Oceanic,Southern Oceanic,Vanuatu
Akha [ahk],20.3,99.6,#8CBF60,Tibeto-Burman,Lolo-Burmese,Thailand
Akha_Akhe [ahk-8],21.916,100.465,#9DD7A6,Tibeto-Burman,Lolo-Burmese,Thailand
Akha_Buli [ahk-4],21.2,101.15,#97D69D,Tibeto-Burman,Lolo-Burmese,Laos
Akha_Chicho [ahk-2],20.92,101.4,#98DEA8,Tibeto-Burman,Lolo-Burmese,Laos
Akha_Senchai [ahk-3],26.9,99,#9DD290,Tibeto-Burman,Lolo-Burmese,Myanmar
Akie [oki],-5.43,37.19,#6EC79C,Nilo-Saharan,Eastern Sudanic,Kenya
Aklanon [akl],11.58,122.33,#60686B,Malayo-Polynesian,Philippines,Philippines
Akosse [bss],5,9.7,#82C061,Niger-Kongo,Atlantic-Congo,Cameroon
Akoye [miw-2],-7.645,145.65,#6EB137,Trans New Guinea,Morobe-Eastern Highlands,Papua New Guinea
Akpes [ibe],7.5,5.96,#89B46C,Niger-Kongo,Atlantic-Congo,Nigeria
Akuntsu [aqz],-12.74,-60.8,#4B7B58,Tupian,Tupari,Brazil
Akurio [ako],3.0132,-55.6434,#557947,Cariban,Guianan Carib,Suriname
Akwa [akw],-0.005,15.612,#86CD6A,Niger-Kongo,Atlantic-Congo,Congo
Akweya [akf],7.33,8.02,#859FD8,Niger-Kongo,Atlantic-Congo,Nigeria
Akye-Gnan [ati-2],5.48,-4.09,#9EE061,Niger-Kongo,Atlantic-Congo,Côte d'Ivoire
Alaaba [alw],7.31,38.09,#9E896F,Afro-Asiatic,Cushitic,Ethiopia
Alaala [nrz],-9,146.667,#558A59,Oceanic,Western Oceanic,Papua New Guinea
Alaba-K'abeena [alw-2],7.39,38.17,#95A97C,Afro-Asiatic,Cushitic,Ethiopia
Alabama [akz],32.7,-86.1,#78733A,Muskogean,Alabama-Koasati,USA
Alacalufe_Central [alc-2],-53.528,-70.9573,#816C3E,Alaculufan,,Chile
Alacalufe_Southern [alc-3],-55.2,-69.4,#826654,Alaculufan,,Chile
Alagwa [wbj],-4.64,35.72,#A346A4,Afro-Asiatic,Cushitic,Tanzania
Alamblak [amp],-4.667,143.25,#707740,Sepik,Sepik Hill,Papua New Guinea
Alangan-Mangyan [alj],13.1,121.02,#597464,Malayo-Polynesian,Philippines,Philippines
Alas_Batak [btz],2.64,98,#639887,Malayo-Polynesian,Batak-Barrier Islands,Indonesia-Sumatra
Alawa [alh],-15.75,134.333,#4D6CD1,Macro-Gunwinygu,Marran,Australia
Albanian_Cham [als-4],39.6,20.8,#968FB7,Indo-European,Albanian,Greece
Albanian_Gheg [aln-2],42.43,20.73,#97A5A0,Indo-European,Albanian,Albania
Albanian_Gheg_Kosovo [aln],42.58,21,#A0717B,Indo-European,Albanian,Kosovo
Albanian_Lab [als-5],40.17,19.83,#979EB6,Indo-European,Albanian,Albania
Albanian_Mandritsa [aln-5],41.38,26.13,#92A0B7,Indo-European,Albanian,Bulgaria
Albanian_Tosk [als],40.5,20,#999BBE,Indo-European,Albanian,Albania
Albanian_Upper_Reka [aln-4],41.72,20.57,#9885AD,Indo-European,Albanian,Montenegro
Albanian_Vaccarizzo [als-6],39.58,16.43,#9E86C9,Indo-European,Albanian,Italy
Albese [ita-14],44.7,8.04,#7AB6AD,Indo-European,Romance,Italy
Alekano [gah-2],-6,145.4,#7A9435,Trans New Guinea,Morobe-Eastern Highlands,Papua New Guinea
Aleut [ale],54,-166,#9B52A9,Eskimo-Aleut,Aleut,USA-Alaska
Aleut_Atkan [ale-2],52,-174,#9C4BA1,Eskimo-Aleut,Aleut,USA-Alaska
Aleut_Attuan [ale-3],52.85,172.9,#9B4DA8,Eskimo-Aleut,Aleut,USA-Alaska
Aleut_Eastern [ale-4],54.75,-164,#9B4AA1,Eskimo-Aleut,Aleut,USA-Alaska
Aleut_Unangas [ale-5],55.3,166,#7B49A6,Eskimo-Aleut,Aleut,USA-Alaska
Algherese [cat-3],40.55,8.32,#8096BB,Indo-European,Romance,Italy-Sardinia
Algonquin [alq],46,-82,#827935,Algic,Algonquian,Canada
Ali [ykm],-3.17,142.25,#4E7486,Oceanic,Western Oceanic,Papua New Guinea
Alladian [ald],5.17,-4.33,#89AA6E,Niger-Kongo,Atlantic-Congo,Côte d'Ivoire
Allentiac [qbt],-32,-66,#795F74,Huarpe,,Argentina
Alngith [aid],-12.5,142.17,#6275D3,Pama-Nyungan,Paman,Australia
Alo-Teqel [tql-2],-13.8,167.47,#5B788A,Oceanic,Southern Oceanic,Vanuatu
Alor [aol],-8.245,124.412,#617E5F,Malayo-Polynesian,Timoric,Indonesia-NTT
Alsatian [gsw-2],48.32,7.44,#90A79A,Indo-European,Germanic,France
Alsea [aes],44.67,-123.93,#C53296,Alsean,,USA
Altai [alt],51,87,#9580A9,Turkic,Common Turkic,Russia
Altai_Kumandy [atv],51.3,87.7,#7CA789,Turkic,Common Turkic,Russia
Alumbis_Murut [mvv],4.799,115.496,#54786B,Malayo-Polynesian,North Borneo,Malaysia-Borneo
Alune [alp],-3.167,128.333,#6F7239,Malayo-Polynesian,Central Maluku,Indonesia-Maluku-north
Alur [alz],2.5,31.25,#87C1A1,Nilo-Saharan,Eastern Sudanic,Uganda
Alutiiq [ems],58.015,-152.765,#A03B9B,Eskimo-Aleut,Eskimo,USA-Alaska
Alyawarr [aly],-24.6,134.5,#595EEE,Pama-Nyungan,Arandic,Australia
Alyutor [alr],61,165,#704796,Chukotko-Kamchatkan,Main Chukotko-Kamchatkan,Russia
Ama [amm],-4.168,141.671,#73A63F,Left May,,Papua New Guinea
Amahai_Soahuku [amq],-3.332,128.949,#577056,Malayo-Polynesian,Central Maluku,Indonesia-Maluku-north
Amahuaca [amc],-10.8,-73.5,#83743C,Panoan,Southern Panoan,Peru
Amaimon [ali],-5.193,145.325,#597967,Trans New Guinea,Madang,Papua New Guinea
Amam [wer-2],-7.85,146.95,#537F50,Trans New Guinea,Oro-Wharton,Papua New Guinea
Amami_Ryukyu [ams],28,129,#92B171,Japonic,Ryukyuan,Japan-Ryukyu
Amanab [amn],-3.5,141.167,#639754,Trans New Guinea,Border,Papua New Guinea
Amanuban [aoz-2],-9.82,124.47,#6F7438,Malayo-Polynesian,Timoric,Indonesia-NTT
Amanutun [aoz-4],-9.69,124.83,#726A4C,Malayo-Polynesian,Timoric,Indonesia-NTT
Amara [aie],-5.533,148.667,#4E9278,Oceanic,Western Oceanic,Papua New Guinea-Bismarcks
Amarakaeri [amr],-12.6938,-70.3235,#62824F,Harakmbet,Harakmbut,Peru
Amarasi [aaz],-10.08,124.33,#6D6F43,Malayo-Polynesian,Timoric,Indonesia-NTT
Amba_Nembao [utp],-11.27,166.48,#6A916F,Oceanic,Te Motu,Solomons_East
Ambae_West [omb],-15.5,167.75,#5A6F6E,Oceanic,Southern Oceanic,Vanuatu
Ambai [amk],-1.917,136.533,#6E7E37,Malayo-Polynesian,Eastern Malayo-Polynesian,Indonesia-Papua
Ambel [xmt-2],-0.05,130.7,#659455,Malayo-Polynesian,Eastern Malayo-Polynesian,Indonesia-Papua
Ambelau [mhs-4],-3.89,127.205,#649E69,Malayo-Polynesian,Central Maluku,Indonesia-Maluku-north
Ambele [ael],5.94,9.62,#89CD8D,Niger-Kongo,Atlantic-Congo,Cameroon
Amblong [alm],-15.497,166.926,#677C49,Oceanic,Southern Oceanic,Vanuatu
Ambonese Malay [abs],-3.7,128.2,#57829A,Malayo-Polynesian,Malayo-Sumbawan,Indonesia-Maluku-north
Ambrym_Southeast [tvk-2],-16.33,168.08,#64895F,Oceanic,Southern Oceanic,Vanuatu
Ambulas [abt],-3.75,143.083,#5B968E,Ndu,Nuclear Ndu,Papua New Guinea
Amdo [adx],36,94,#9A94C9,Tibeto-Burman,Bodic,China
Ameland [frs-3],53.45,5.77,#84B775,Indo-European,Germanic,Netherlands
Amele_Haija [aey],-5.25,145.75,#6E7D34,Trans New Guinea,Madang,Papua New Guinea
Amele_Huar [aey-3],-5.287,145.718,#687A40,Trans New Guinea,Madang,Papua New Guinea
Amele_Jagahala [aey-2],-5.264,145.642,#6D7B38,Trans New Guinea,Madang,Papua New Guinea
Amfo'an [aoz-3],-9.45,123.9,#776A3C,Malayo-Polynesian,Timoric,Indonesia-NTT
Amharic [amh],10,38,#9F7A84,Afro-Asiatic,Semitic,Ethiopia
Ami [amy],-14,130,#4172A0,Western Daly,Maranunggu-Ame-Manda,Australia
Amis [ami],23.333,121.333,#735068,Austronesian,East Formosan,Taiwan
Amo [amo],10.33,8.67,#86B97C,Niger-Kongo,Atlantic-Congo,Nigeria
Amonap / Apalakiri / Matipu [mzo],-12.05,-53.4,#627E6E,Cariban,Nahukwa,Brazil
Amoy [nan],24.5,118,#8CC639,Tibeto-Burman,Sinitic,China
Ampale [apz],-6.753,146.107,#76B46D,Trans New Guinea,Morobe-Eastern Highlands,Papua New Guinea
Ampibabo [law-2],-0.46,120.06,#4D787E,Malayo-Polynesian,Celebic,Indonesia-Sulawesi
Amu [swh-9],-2.27,40.9,#927DB4,Niger-Kongo,Atlantic-Congo,Tanzania
Amuesha [ame],-10,-73,#844E9E,Arawak,Western Maipuran,Peru
Amundava [adw],-10.9942,-63.0642,#578650,Tupian,Tupi-Guarani,Brazil
Amurdak [amg],-12.022,132.892,#485FDC,Iwaidjan,Amurdak,Australia
Amuzgo [amu],16.83,-98,#8AD080,Otomanguean,Eastern Otomanguean,Mexico
Amuzgo_Huixtepec [amu-2],16.5,-98.1,#849547,Otomanguean,Eastern Otomanguean,Mexico
Amuzgo_San_Pedro [azg],16.85,-98,#7EAA47,Otomanguean,Eastern Otomanguean,Mexico
Amuzgo_Xochistlahuaca [amu-3],16.79,-98.24,#91C48D,Otomanguean,Eastern Otomanguean,Mexico
Amwi [aml],25.209,92.068,#85C37C,Austroasiatic,Khasi-Palaung,India
Anaguta [nar],9.964,8.731,#88AC96,Niger-Kongo,Atlantic-Congo,Nigeria
Anakalang [akg],-9.67,119.67,#598F88,Malayo-Polynesian,Flores-Sawu-Sumba,Indonesia-NTT
Anal [anm],24.33,93.99,#91B0BA,Tibeto-Burman,Kuki-Chin-Naga,India
Anamuxra [imi],-4.667,145,#76673F,Trans New Guinea,Madang,Papua New Guinea
Andalusian [spa-4],37.5,-3.6,#708953,Indo-European,Romance,Spain
Andi [ani],42.79,46.27,#B25774,Nakh-Daghestanian,Avar-Andi,Russia
Andi_Tad-Magitil [ani-2],42.75,46.25,#B95F73,Nakh-Daghestanian,Avar-Andi,Russia
Andoa [anb],-2.9,-76.4051,#854E80,Zaparoan,Iquito-Arabela,Peru
Andoké [ano],0,-72,#7EA429,Andoké,,Colombia
Anejom [aty],-20.25,169.833,#7E83AE,Oceanic,Southern Oceanic,Vanuatu
Anem [anz],-5.667,149,#5AA088,Anem,,Papua New Guinea-Bismarcks
Aneme_Wake [aby],-9.733,148.52,#658325,Southeast Papuan,Owen Stanley Ranges,Papua New Guinea
Anfillo [myo],8.57,34.65,#8A7252,Afro-Asiatic,Omotic,Ethiopia
Anfu [gan-21],27.38,114.62,#95EE8C,Tibeto-Burman,Sinitic,China
Angaatiha [agm],-7.22,146.25,#468A79,Trans New Guinea,Morobe-Eastern Highlands,Papua New Guinea
Angal [age],-6,143.6,#6A8E52,Trans New Guinea,Engan,Papua New Guinea
Angal_Heneng [akh],-6.13,143.42,#619548,Trans New Guinea,Engan,Papua New Guinea
Angali [pes-2],29.75,50.96,#A36582,Indo-European,Indo-Iranian,Iran
Angami [njm],25.667,94.5,#95A0DD,Tibeto-Burman,Kuki-Chin-Naga,India
Angas [anc],9.75,8.75,#9DB996,Afro-Asiatic,Chadic,Nigeria
Anggor [agg],-3.667,141.167,#69924D,Trans New Guinea,Border,Papua New Guinea
Anggreso [kwe-2],-2.17,138.25,#656D46,Kwerba,Nuclear Kwerba,Indonesia-Papua
Angkamuthi [avm],-11.5,142.25,#5C74C1,Pama-Nyungan,Paman,Australia
Angkola_Batak [akb],1.518,99.531,#53848E,Malayo-Polynesian,Batak-Barrier Islands,Indonesia-Sumatra
Anguthimri [awg],-12.333,141.833,#6D93D6,Pama-Nyungan,Paman,Australia
Ani_Phowa [ypn],23.6,103.3,#C0BE9D,Tibeto-Burman,Lolo-Burmese,China
Anib [kni],9.55,8.6,#94CE6E,Niger-Kongo,Atlantic-Congo,Nigeria
Anii [blo],9.003,1.669,#85CEA2,Niger-Kongo,Atlantic-Congo,Benin
Anindilyagwa [aoi],-14,136.5,#5858E9,Macro-Gunwinygu,East Arnhem,Australia
Anindilyagwa_East [aoi-2],-13.86,136.81,#5A6BE8,Macro-Gunwinygu,East Arnhem,Australia
Aniwa [fut-2],-19.256,169.6,#5B8041,Oceanic,Central Pacific,Vanuatu
Anjam [boj],-5.441,145.737,#57829B,Trans New Guinea,Madang,Papua New Guinea
Ankave [aak],-7.137,145.744,#55804D,Trans New Guinea,Morobe-Eastern Highlands,Papua New Guinea
Anlong [pcc-6],25.1,105.44,#9FC1B9,Tai-Kadai,Kam-Tai,China
Anmatyerr_East [amx],-22.256,131.5,#4C65E3,Pama-Nyungan,Arandic,Australia
Anmatyerr_West [amx-2],-21,135,#494DD7,Pama-Nyungan,Arandic,Australia
Anong [nun],27.2,98.8,#9CC1E1,Tibeto-Burman,Nungish,China
Ansus [and],-1.73,135.806,#678039,Malayo-Polynesian,Eastern Malayo-Polynesian,Indonesia-Papua
Anta [tci-3],-8.65,141.52,#748D57,South New Guinea,East Morehead,Indonesia-Papua
Antakarinya [ant],-27.11,134.85,#435FCA,Pama-Nyungan,Wati,Australia
Antakirinya [ant-2],-27.13,134.83,#475DC9,Pama-Nyungan,Wati,Australia
Antekerrepinhe [adg],-22.52,137.34,#5566EF,Pama-Nyungan,Arandic,Australia
Antioquian [xxx-107],7,-73,#69803D,Chibchan,Core Chibchan,Colombia
Antwerps [nld-2],51.22,4.4,#8CA8A1,Indo-European,Germanic,Belgium
Añú [pbg],11,-71.62,#628147,Arawak,Northern Maipuran,Venezuela
Anuak [anu],7.18,34.097,#4FA09B,Nilo-Saharan,Eastern Sudanic,South Sudan
Anufo [cko],10.218,0.33,#72C182,Niger-Kongo,Atlantic-Congo,Ghana
Anus [auq],-2.13,139.51,#608B49,Oceanic,Western Oceanic,Indonesia-Papua
Anuta [aud],-11.611,169.85,#56823F,Oceanic,Central Pacific,Solomons_East
Anyi [gan-18],28.84,115.6,#91E089,Tibeto-Burman,Sinitic,China
Anyin [any],5.9,-2.9,#7DA741,Niger-Kongo,Atlantic-Congo,Côte d'Ivoire
Anywa [anu-2],7.3,33,#57AAB4,Nilo-Saharan,Eastern Sudanic,South Sudan
Aoheng [pni],1.025,114.175,#53997A,Malayo-Polynesian,North Borneo,Indonesia-Kalimantan
Aore [aor],-15.577,167.181,#548078,Oceanic,Southern Oceanic,Vanuatu
Apache_Western [apw],33.9,-109.55,#B47058,Dene-Yeniseic,Na-Dene,USA
Apalachee [xap],30.04,-84.17,#735C46,Muskogean,Alabama-Koasati,USA
Apalai [apy],0,-54,#6E7937,Cariban,Apalai,Brazil
Apali [ena],-5.088,145.017,#6D7858,Trans New Guinea,Madang,Papua New Guinea
Apatani [apt],27.4,93.8,#7BC894,Tibeto-Burman,Macro-Tani,India
Apiaká [api],-7.9484,-57.7365,#588C4F,Tupian,Tupi-Guarani,Brazil
Apinaye [apn],-6.25,-48,#6EBE84,Macro-Je,Je,Brazil
Apma [app],-15.775,168.158,#678A67,Oceanic,Southern Oceanic,Vanuatu
Apma_Suru Kavian [app-2],-15.61,168.14,#649084,Oceanic,Southern Oceanic,Vanuatu
Apurinã [apu],-7.26,-64.8,#697349,Arawak,Southern Maipuran,Brazil
Apurinã-2 [apu-2],-5.63,-63.17,#6A6C53,Arawak,Southern Maipuran,Brazil
Aputai [apx],-7.888,126.505,#6A7345,Malayo-Polynesian,Timoric,Indonesia-NTT
Arabana [ard],-28,137,#4B5EDF,Pama-Nyungan,Karnic,Australia
Arabela [arl],-2,-75.17,#727441,Zaparoan,Iquito-Arabela,Peru
Arabic [arb],30,42,#A13379,Afro-Asiatic,Semitic,Saudi Arabia
Arabic_Abéché [ayl-4],13.83,20.83,#A34DB8,Afro-Asiatic,Semitic,Chad
Arabic_Abha [acw-2],18.22,42.51,#A34666,Afro-Asiatic,Semitic,Saudi Arabia
Arabic_Afghanistan [acm-3],36.7,67.12,#914962,Afro-Asiatic,Semitic,Afghanistan
Arabic_Algerian [arq],36.7,3.1,#78407B,Afro-Asiatic,Semitic,Algeria
Arabic_Andalusian [xaa],35.767,-5.8,#A5427A,Afro-Asiatic,Semitic,Spain
Arabic_Attuwair [acw-3],29.9,40.1,#A8399D,Afro-Asiatic,Semitic,Saudi Arabia
Arabic_Baghdad [acm-4],33.33,44.38,#9D3D63,Afro-Asiatic,Semitic,Iran
Arabic_Bareqi [acw-7],18.93,41.94,#9E3473,Afro-Asiatic,Semitic,Saudi Arabia
Arabic_Basra [acm],30.5,47.825,#B03B90,Afro-Asiatic,Semitic,Iraq
Arabic_Bukhara [abh],39.76,64.42,#823D64,Afro-Asiatic,Semitic,Uzbekistan
Arabic_Chad [shu-3],14,19,#925B7A,Afro-Asiatic,Semitic,Chad
Arabic_Chowa [shu-4],12.5,14.5,#8E6067,Afro-Asiatic,Semitic,Nigeria
Arabic_Coastal-Dhofari [acx],20.7,58.2,#A44C60,Afro-Asiatic,Semitic,Oman
Arabic_Cypriot [acy],34.343,33.011,#9D5A6B,Afro-Asiatic,Semitic,Cyprus
Arabic_Egyptian [arz],30,30,#9D525B,Afro-Asiatic,Semitic,Egypt
Arabic_Faifa [jye-3],17.25,43.1,#A74778,Afro-Asiatic,Semitic,Yemen
Arabic_Fezzan [ayl-3],26.33,13.43,#A42C9E,Afro-Asiatic,Semitic,Libya
Arabic_Gulf [afb],24,54,#AA4680,Afro-Asiatic,Semitic,United Arab Emirates
Arabic_Hadhrami_coast [jye-5],14.95,50.34,#973D6B,Afro-Asiatic,Semitic,Yemen
Arabic_Hadhrami_wadi [jye-6],16.05,49,#9B3C6D,Afro-Asiatic,Semitic,Yemen
Arabic_Harb [acw],25.81,42.87,#B14F7A,Afro-Asiatic,Semitic,Saudi Arabia
Arabic_Hassaniya [mey],16.6,-7.25,#9E41A1,Afro-Asiatic,Semitic,Mauritania
Arabic_Hejazi [acw-4],21.543,41.173,#A34E63,Afro-Asiatic,Semitic,Saudi Arabia
Arabic_Hejazi_Al'Ula [acw-5],26.627,37.917,#A04D5F,Afro-Asiatic,Semitic,Saudi Arabia
Arabic_Hejazi_Badr [acw-8],23.78,38.79,#9B505F,Afro-Asiatic,Semitic,Saudi Arabia
Arabic_Ilbahariyya [arz-2],28.35,28.93,#9F3F6D,Afro-Asiatic,Semitic,Egypt
Arabic_Jijel [ary-3],36.821,5.75,#763F79,Afro-Asiatic,Semitic,Algeria
Arabic_Jordanian [ajp-5],32,36,#B1496A,Afro-Asiatic,Semitic,Jordan
Arabic_Judeo-Tunisian [ajt],33.87,10.85,#AA4295,Afro-Asiatic,Semitic,Tunisia
Arabic_Khawetna [arb-3],36.42,41.225,#A93E97,Afro-Asiatic,Semitic,Turkey
Arabic_Khuzestan [acm-2],31.33,48.69,#A74670,Afro-Asiatic,Semitic,Iran
Arabic_Lebanese [apc-2],33.883,35.502,#6C6A4C,Afro-Asiatic,Semitic,Lebanon
Arabic_Levantine_al-Karak [ajp-10],31.2,35.7,#9F5460,Afro-Asiatic,Semitic,Jordan
Arabic_Levantine_Amman [ajp-9],31.9,35.9,#9F5460,Afro-Asiatic,Semitic,Jordan
Arabic_Levantine_Homs [ajp-7],34.7,36.7,#9C535E,Afro-Asiatic,Semitic,Syria
Arabic_Levantine_Jerusalem [ajp-8],31.8,35.2,#985855,Afro-Asiatic,Semitic,Israel
Arabic_Levantine_Northern_coast [ajp-11],34.9,35.9,#925659,Afro-Asiatic,Semitic,Syria
Arabic_Levantine_Northern_inland [ajp-12],33.1,35.7,#99555D,Afro-Asiatic,Semitic,Syria
Arabic_Levantine_Outer-south [ajp-14],31.3,34.6,#8C4E5F,Afro-Asiatic,Semitic,Israel
Arabic_Levantine_Southern [ajp-13],31.7,34.9,#95456C,Afro-Asiatic,Semitic,Israel
Arabic_Libyan [ayl],32,20.25,#B04F73,Afro-Asiatic,Semitic,Libya
Arabic_Libyan_Western [ayl-2],32.5,13,#A34070,Afro-Asiatic,Semitic,Libya
Arabic_Mardin [apc-3],37.363,40.91,#AB4777,Afro-Asiatic,Semitic,Turkey
Arabic_Mauritanian [ary-2],18.083,-15.986,#7F4BAB,Afro-Asiatic,Semitic,Mauritania
Arabic_Mesopotamian [acm-5],33,44,#A13B65,Afro-Asiatic,Semitic,Israel
Arabic_Moroccan [ary],34,-7,#9D3085,Afro-Asiatic,Semitic,Morocco
Arabic_Muscat [acx-2],23.63,58.55,#AB3F70,Afro-Asiatic,Semitic,Oman
Arabic_Najdi [acw-6],23,45.5,#9D4268,Afro-Asiatic,Semitic,Saudi Arabia
Arabic_Negev [ajp-15],31.386,34.758,#A6387D,Afro-Asiatic,Semitic,Syria
Arabic_Omani [acx-3],23.589,58.556,#A95A6E,Afro-Asiatic,Semitic,Oman
Arabic_Omani_Shawawi [acx-4],22.92,57.79,#9E4867,Afro-Asiatic,Semitic,Syria
Arabic_Oran [arq-2],35.7,-0.63,#A6417F,Afro-Asiatic,Semitic,Algeria
Arabic_Palestinian_Urban [ajp-3],31.52,34.45,#A2566F,Afro-Asiatic,Semitic,Palestine
Arabic_Qatari [afb-3],25.3,51.52,#A54481,Afro-Asiatic,Semitic,Qatar
Arabic_Sa'idi [aec],25,32.75,#8F3C63,Afro-Asiatic,Semitic,Egypt
Arabic_Sason [arb-2],38.333,41.42,#A45A94,Afro-Asiatic,Semitic,Turkey
Arabic_Saudi [ars],24.48,40,#A04C5F,Afro-Asiatic,Semitic,Saudi Arabia
Arabic_Sudanese [apd-2],15.5,32.56,#A95464,Afro-Asiatic,Semitic,Sudan
Arabic_Syrian [apc],33,37,#AB4597,Afro-Asiatic,Semitic,Syria
Arabic_Ta'izzi_Adeni [acq],11.502,43,#942C7C,Afro-Asiatic,Semitic,Djibouti
Arabic_Tillo [arb-4],37.95,42.013,#AF49B0,Afro-Asiatic,Semitic,Turkey
Arabic_Traras-Msirda [ary-4],35.18,-1.65,#734372,Afro-Asiatic,Semitic,Algeria
Arabic_Tunisian [aeb],36,10,#B14096,Afro-Asiatic,Semitic,Tunisia
Arabic_Wadi Mousa [ajp-2],30.32,35.48,#99515C,Afro-Asiatic,Semitic,Jordan
Arabic_Yemeni [jye-2],14,47,#962F72,Afro-Asiatic,Semitic,Yemen
Arabic_Yemeni_Hadhrami [ayh],16.67,49.5,#97396E,Afro-Asiatic,Semitic,Yemen
Arabic_Yemeni_Tihamiyya [arb-6],13.083,43.833,#902C72,Afro-Asiatic,Semitic,Yemen
Arabic_Yemeni_Zabidi [acq-2],14.2,43.317,#9B3575,Afro-Asiatic,Semitic,Yemen
Arabic; North Israel Bedouin [ajp-4],32.83,35.33,#B6419A,Afro-Asiatic,Semitic,Israel
Aragonese [arg],41,-1,#67607E,Indo-European,Romance,Spain
Araki [akr],-15.629,166.957,#537276,Oceanic,Southern Oceanic,Vanuatu
Arakmbut [hug],-13.27,-71.21,#539150,Harakmbet,Harakmbut,Peru
Aralle-Tabulahan [atq],-2.756,119.203,#5E834F,Malayo-Polynesian,Greater South Sulawesi,Indonesia-Sulawesi
Arammba [stk],-8.25,141.5,#87B97A,South New Guinea,East Morehead,Papua New Guinea
Arandai [jbj],-2.17,133,#677D4A,Trans New Guinea,South Birds Head,Indonesia-Papua
Aranese [oci-4],42.7,0.795,#958EA2,Indo-European,Romance,Spain
Araona [aro],-12.333,-67.75,#826743,Tacanan,Takanik-Chamik,Bolivia
Arapaho [arp],39.565,-105.345,#827820,Algic,Algonquian,USA
Arapesh_Muhiang [aoj],-3.564,142.9,#826249,Torricelli,Kombio-Arapesh,Papua New Guinea
Arara_do_Acre [adc],-8.841,-72.315,#79713C,Panoan,Southern Panoan,Brazil
Arara_do_Mato_Grosso [axg],-9.5,-60,#75AB7B,Arara_do_Mato_Grosso,,Brazil
Arara_do_Para [aap-2],-4.24,-53.34,#417D6E,Cariban,Pekodian,Brazil
Arára_Pará [aap],-4.2422,-53.3745,#437670,Cariban,Pekodian,Brazil
Araucanian lg [arn-2],-43,-73.5,#6979BD,Araucanian,,Chile
Arawak [arw],5.64,-56.92,#6D8244,Arawak,Northern Maipuran,Guyana
Araweté [awt],-4.142017,-52.416914,#62773D,Tupian,Tupi-Guarani,Brazil
Arbanasi [aln-3],44.11,15.23,#8DA798,Indo-European,Albanian,Croatia
Arbëresh [als-2],37.995,13.283,#AB7FBC,Indo-European,Albanian,Italy
Arbëresh Kundisa [als-10],37.73,13.18,#A274B4,Indo-European,Albanian,Italy
Arbëresh_Pianese [als-8],37.8,12.8,#9C72BB,Indo-European,Albanian,Italy
Arbore [arv],4.92,36.8,#93AE7D,Afro-Asiatic,Cushitic,Ethiopia
Archi [aqc],42.07,46.86,#C63097,Nakh-Daghestanian,Lezgic,Russia
Arctic Bay_Inuit [ikt],73.036,-85.15,#6F5057,Eskimo-Aleut,Eskimo,Canada
Are [mwc],-9.67,150,#687041,Oceanic,Western Oceanic,Papua New Guinea
Are'are [alu],-9.342,161.203,#637539,Oceanic,Southeast Solomonic,Solomons
Arem [aem],18.15,105.5,#96DBB4,Austroasiatic,Vietic,Laos
Argobba [agj],10.66,39.76,#A6767A,Afro-Asiatic,Semitic,Ethiopia
Arguni [agf],-2.667,132.5,#6197A2,Malayo-Polynesian,Eastern Malayo-Polynesian,Indonesia-Papua
Ari [aac],-7.916,142.34,#60853A,Papuan Gulf,Gogodala-Suki,Papua New Guinea
Aribwatsa [laz],-6.667,146.917,#647C5F,Oceanic,Western Oceanic,Papua New Guinea
Aribwaungg [ylu],-6.592,146.874,#929778,Oceanic,Western Oceanic,Papua New Guinea
Arifama-Miniafia [aai],-9.142,149.279,#687D31,Oceanic,Western Oceanic,Papua New Guinea
Arikapu [ark],-13,-62.5,#688C46,Macro-Je,Jabutí,Brazil
Arikara [ari],40,-97,#786D2D,Caddoan,Northern Caddoan,USA
Aringa [luc],3,31,#89D093,Nilo-Saharan,Central Sudanic,Uganda
Aritinngithigh [rrt],-13,141.67,#5579C2,Pama-Nyungan,Paman,Australia
Arizona Tewa [tew],35.8,-110.4,#889E47,Kiowa-Tanoan,Tewa,USA
Armenian [hye],40,45,#AA6672,Indo-European,Armenian,Armenia
Armenian_Agulis [hye-5],38.95,45.98,#AA6774,Indo-European,Armenian,Azerbaijan
Armenian_Aslanberg [hye-9],41.2,30.5,#9D7358,Indo-European,Armenian,Turkey
Armenian_Kharpert [hye-8],38.67,39.22,#AA6774,Indo-European,Armenian,Armenia
Armenian_Khodorjur [hye-4],40.73,41.2,#A57364,Indo-European,Armenian,Turkey
Armenian_Malatya [hye-7],38.35,38.3,#9E8558,Indo-European,Armenian,Turkey
Armenian_Sebastia [hye-6],39.75,37.02,#A66E70,Indo-European,Armenian,Armenia
Armenian_Van [hye-10],38.49,43.38,#9E6169,Indo-European,Armenian,Turkey
Armenian_Western [hye-2],40,40,#9E8456,Indo-European,Armenian,Turkey
Armenian_Yerevan [hye-11],40.18,44.52,#A66966,Indo-European,Armenian,Armenia
Aromanian [rup],42,23,#A1765D,Indo-European,Romance,Bulgaria
Aromanian-2 [rup-2],39.77,21.1,#9A8BAF,Indo-European,Romance,Greece
Arop-Lokep [apr],-5.333,147.083,#549066,Oceanic,Western Oceanic,Papua New Guinea
Arosi [aia],-10.333,161.5,#617858,Oceanic,Southeast Solomonic,Solomons
Arpitan [frp-3],45.17,5.72,#8DA5A9,Indo-European,Romance,France
Arrernte_Central [are],-22.85,133.7,#5350E4,Pama-Nyungan,Arandic,Australia
Arrernte_Eastern [are-2],-23.292,134.445,#516CEF,Pama-Nyungan,Arandic,Australia
Arrernte_Mparntwe [aer],-24,136,#545DE9,Pama-Nyungan,Arandic,Australia
Arrernte_Pertame [xxx-57],-24.5,132,#516AF0,Pama-Nyungan,Arandic,Australia
Arta [atz],16.42,121.66,#597271,Malayo-Polynesian,Philippines,Philippines
Arutani [atx],4.07,-62.87,#6C723C,Arutani–Sape,,Brazil
Arvanitika [als-3],38.42,23.08,#989DB8,Indo-European,Albanian,Greece
As [asz],-0.722,131.787,#66814C,Malayo-Polynesian,Eastern Malayo-Polynesian,Indonesia-Papua
Asaro_Upper [aso],-5.967,145.292,#7C8940,Trans New Guinea,Morobe-Eastern Highlands,Papua New Guinea
Asharon [acz],10.8,30.3,#619BB3,Talodi-Heiban,Talodi,Sudan
Ashe [ahs],9.37,7.39,#85C285,Niger-Kongo,Atlantic-Congo,Nigeria
Asheninka_Apurucayali [cpc],-10.018,-74.793,#6C5561,Arawak,Southern Maipuran,Peru
Ashéninka_Perené [prq],-10.8734,-75.245,#6F5B66,Arawak,Southern Maipuran,Peru
Ashéninka_Pichis [cpu],-9.9833,-74.9833,#73578A,Arawak,Southern Maipuran,Peru
Ashéninka_Ucayali-Yurúa [cpb],-10.1619,-74.0234,#8A517F,Arawak,Southern Maipuran,Brazil
Ashkun [ask],34.84,70.37,#6472B8,Indo-European,Indo-Iranian,Afghanistan
Asho [csh-3],22.91,93.68,#95C9BE,Tibeto-Burman,Kuki-Chin-Naga,Myanmar
Ashuku [nza-2],6.98,10.71,#81CB71,Niger-Kongo,Atlantic-Congo,Nigeria
Ashuslay [cag-2],-23.5,-60.5,#A56473,Matacoan,Mataguayo I,Paraguay
Asi [bno-2],12.95,122.08,#575F62,Malayo-Polynesian,Philippines,Philippines
Asienara [asi],-3.75,133.33,#6B7B3A,Trans New Guinea,Asmat-Kamoro,Indonesia-Papua
Asilulu [asl],-3.67,127.95,#616E41,Malayo-Polynesian,Central Maluku,Indonesia-Maluku-north
Asmat [asc],-5.3,138.3,#647F38,Trans New Guinea,Asmat-Kamoro,Indonesia-Papua
Asmat_North [nks],-5,138.5,#607739,Trans New Guinea,Asmat-Kamoro,Indonesia-Papua
Assamese [asm],26.5,93,#82AE9B,Indo-European,Indo-Iranian,India
Assamese_Dudhnoi [asm-10],26,90.8,#839FA4,Indo-European,Indo-Iranian,India
Assiniboine [asb],49,-100,#9C6B3B,Siouan,Western Siouan,Canada
Asturian [ast],43.33,-6,#68648E,Indo-European,Romance,Spain
Asumboa [aua],-11.296,166.496,#6278A6,Oceanic,Te Motu,Solomons_East
Asuri [asr],23.04,84.54,#5E6790,Austroasiatic,Munda,India
Asurini [asu],-3.3,-49.3,#657C55,Tupian,Tupi-Guarani,Brazil
Asuriní_Tocantins [asu-2],-3.3,-50,#647D38,Tupian,Tupi-Guarani,Brazil
Asuriní_Xingú [asn],-4.13,-52.32,#667E56,Tupian,Tupi-Guarani,Brazil
Ata [ata],-5.667,151,#647449,Ata,,Papua New Guinea-Bismarcks
Ata_Manobo [atd],7.845,125.506,#5A775A,Malayo-Polynesian,Philippines,Philippines
Atacameño [kuz],-23,-69,#9D4D6A,Atacameño,,Chile
Atadei [slp-3],-8.46,123.555,#51957B,Malayo-Polynesian,Timoric,Indonesia-NTT
Atakapa [aqp],30,-93,#7D735C,Atakapa,,USA
Atamanu [jal],-3.396,129.313,#5B7F5E,Malayo-Polynesian,Central Maluku,Indonesia-Maluku-north
Atampaya [amz],-11.33,142.5,#5B74BE,Pama-Nyungan,Paman,Australia
Atayal [tay],24.5,121,#875B81,Austronesian,Atayalic,Taiwan
Atchin [upv],-16,167.333,#8CAD8A,Oceanic,Southern Oceanic,Vanuatu
Ateso [teo],1.915,33.955,#79B489,Nilo-Saharan,Eastern Sudanic,Uganda
Athpare [aph],26.75,87.33,#71919D,Tibeto-Burman,Kiranti,Nepal
Atikamekw [atj],48,-74,#69663B,Algic,Algonquian,Canada
Atong [aot],25.5,90.5,#6B9095,Tibeto-Burman,Bodo-Garo,India
Atsawaka [atc],-14.17,-69.5,#78703D,Panoan,Southern Panoan,Peru
Atsi [atb-2],28,93.5,#99B6B7,Tibeto-Burman,Lolo-Burmese,India
Atsugewi [atw],40.75,-121,#9D4086,Palaihnihan,,USA
Atta_Pamplona-1 [att-2],18.46,121.341,#586551,Malayo-Polynesian,Philippines,Philippines
Atta_Pamplona-2 [att],18.458,121.342,#5A586B,Malayo-Polynesian,Philippines,Philippines
Attie [ati],6,-3.82,#9BD96B,Niger-Kongo,Atlantic-Congo,Côte d'Ivoire
Au [avt],-3.5,142.083,#647446,Torricelli,Central Torricelli,Papua New Guinea
Auhelawa [kud],-10.284,151.02,#7A634F,Oceanic,Western Oceanic,Papua New Guinea
Aulua [aul],-16.33,167.694,#7683B7,Oceanic,Southern Oceanic,Vanuatu
Aurland [nob-3],60.87,7.23,#95C4A2,Indo-European,Germanic,Norway
Austral [aut],-23.377,-149.498,#647D3B,Oceanic,Central Pacific,French Polynesia
Auyana [auy],-6.523,145.708,#709938,Trans New Guinea,Morobe-Eastern Highlands,Papua New Guinea
Auye [auu],-3.495,136.002,#5E9932,Trans New Guinea,Western Trans New Guinea,Indonesia-Papua
Avá-Canoeiro [avv],-13.166403,-47.928611,#467D66,Tupian,Tupi-Guarani,Brazil
Avar [ava],42.54,46.7,#B2486F,Nakh-Daghestanian,Avar-Andi,Russia
Avatime [avn],6.85,0.44,#A2C287,Niger-Kongo,Atlantic-Congo,Ghana
Avava [tmb],-16.224,167.523,#657C9B,Oceanic,Southern Oceanic,Vanuatu
Aveteian [dix],-16.443,167.43,#608A9E,Oceanic,Southern Oceanic,Vanuatu
Avikam [avi],5.16,-5.25,#8BB12E,Niger-Kongo,Atlantic-Congo,Côte d'Ivoire
Avok [xxx-59],-16.53,167.7,#89A7A5,Oceanic,Southern Oceanic,Vanuatu
Avok_Maxbaxo [xxx-103],-16.496,167.665,#8192B6,Oceanic,Southern Oceanic,Vanuatu
Avokaya [avu],5,30.2,#89D396,Nilo-Saharan,Central Sudanic,South Sudan
Awa [awb],-6.75,145.667,#63AA37,Trans New Guinea,Morobe-Eastern Highlands,Papua New Guinea
Awa Pit [kwi],0.75,-78.5,#9A6F80,Barbacoan,Northern Barbacoan,Ecuador
Awabakal [awk],-33.05,151.55,#3F6493,Pama-Nyungan,Yuin-Kuri,Australia
Awad Bing [bcu],-5.584,146.349,#5C7C5E,Oceanic,Western Oceanic,Papua New Guinea
Awadhi [awa],27.5,81.5,#7E75D3,Indo-European,Indo-Iranian,India
Awak [awo],9.86,11.33,#90D98B,Niger-Kongo,Atlantic-Congo,Nigeria
Awar [aya],-4,144.625,#7CB378,Lower Sepik-Ramu,Ramu,Papua New Guinea
Awara [awx],-6.094,146.441,#728062,Trans New Guinea,Morobe-Eastern Highlands,Papua New Guinea
Awbono [awh],-5.119,139.201,#748439,Bayono-Awbono,,Indonesia-Papua
Aweer [bob-2],-1.717,40.967,#4E7993,Afro-Asiatic,Cushitic,Kenya
Awera [awr],-2.677,136.242,#597C32,Lakes Plains,Western Lakes Plains,Indonesia-Papua
Awetí [awe],-12.926,-54.277,#458173,Tupian,Aweti,Brazil
Awiakay [afp],-4.672,143.712,#4A8491,Arafundi,,Papua New Guinea
Awin [awi],-5.833,142.5,#679E53,Trans New Guinea,Awin-Pa,Papua New Guinea
Awing [azo],5.88,10.24,#7CAE4F,Niger-Kongo,Atlantic-Congo,Cameroon
Awiya [som-2],10.851,36.892,#92B7AB,Afro-Asiatic,Cushitic,Ethiopia
Awngi [awn],10.83,36.67,#AD8DA2,Afro-Asiatic,Cushitic,Ethiopia
Awngthim [gwm],-12.54,141.98,#6B82CD,Pama-Nyungan,Paman,Australia
Awtuw [kmn],-3.5,141.917,#42918A,Sepik,Ram,Papua New Guinea
Awu Alaya [typ-2],-14.83,143.32,#658DC7,Pama-Nyungan,Paman,Australia
Awutu [afu],5.42,-0.6,#85D1A8,Niger-Kongo,Atlantic-Congo,Ghana
Awyi [auw],-3,140.75,#638D4F,Trans New Guinea,Border,Papua New Guinea
Axi [yix-2],24.4,103.44,#A9C3A8,Tibeto-Burman,Lolo-Burmese,China
Axininca [cpc-2],-9,-75,#7E4E7E,Arawak,Southern Maipuran,Peru
Axvax [akv],42.379,46.384,#B25174,Nakh-Daghestanian,Avar-Andi,Russia
Ayapathu [ayd-2],-14.29,143.11,#4273AB,Pama-Nyungan,Paman,Australia
Ayere [aye],7.52,6.02,#89BB87,Niger-Kongo,Atlantic-Congo,Nigeria
Ayerrerenge [axe],-22.5,137.36,#4A62DC,Pama-Nyungan,Arandic,Australia
Aymara [ayr],-16,-69.5,#7F4394,Aymaran,Aymara,Peru
Aymara_Carangas [ayr-3],-18.45,-67.45,#7B4DAA,Aymaran,Aymara,Bolivia
Aymara_Chile [ayc],-19.15,-69.4,#844FB2,Aymaran,Aymara,Chile
Aymara_Muylaq' [ayr-2],-16.675,-70.712,#824298,Aymaran,Aymara,Peru
Äynu [aib],38.069,76.227,#9C7A74,Turkic,Common Turkic,China
Ayoré [ayo],-20.5,-59.25,#5A8694,Zamucoan,,Paraguay
Ayu [ayu],9.26,8.6,#8ACE78,Niger-Kongo,Atlantic-Congo,Nigeria
Azerbaijani [azj],40.5,48.5,#A2896F,Turkic,Common Turkic,Azerbaijan
Azerbaijani_Tabriz [azj-3],38.07,46.3,#9A7F58,Turkic,Common Turkic,Azerbaijan
Azeri [azb],40.67,47.75,#A88671,Turkic,Common Turkic,Azerbaijan
Azha [aza],23.37,104.25,#A9CDA4,Tibeto-Burman,Lolo-Burmese,China
Azhe [yiz],24.2,103.6,#A9C0B9,Tibeto-Burman,Lolo-Burmese,China
B'lit_Manobo [mta],6.39,124.23,#628454,Malayo-Polynesian,Philippines,Philippines
Ba:ngingi_Sama [sse],6.133,121.805,#5A7780,Malayo-Polynesian,Barito,Philippines
Baagandji [drl],-32,142.533,#4A5DDA,Pama-Nyungan,Yarli-Baagandji,Australia
Baangi [bqx],10.81,5.73,#A8B870,Niger-Kongo,Atlantic-Congo,Nigeria
Baarin [mon-2],43.53,118.67,#77A882,Mongolic,Core Mongolic,China
Baatonum [bba-2],9.63,3,#78A24A,Niger-Kongo,Atlantic-Congo,Benin
Baba [bbw],6.11,10.52,#81B3A1,Niger-Kongo,Atlantic-Congo,Cameroon
Babanki [bbk],6.104,10.311,#9ECE8A,Niger-Kongo,Atlantic-Congo,Cameroon
Babar_North [bcd],-7.83,129.58,#608440,Malayo-Polynesian,Southeast Maluku,Indonesia-Maluku-south
Babar_Southeast [vbb],-7.92,129.67,#71704A,Malayo-Polynesian,Southeast Maluku,Indonesia-Maluku-south
Babatana [baa],-7.397,157.37,#67956A,Oceanic,Western Oceanic,Solomons
Babine-Witsuwit'en [bcr],55,-127,#C25772,Dene-Yeniseic,Na-Dene,Canada
Babungo [bav],6.12,10.42,#90E578,Niger-Kongo,Atlantic-Congo,Cameroon
Babuza [bzg-2],24,120.58,#72754B,Austronesian,Western Plains,Taiwan
Baca [baf],4.36,11.03,#7FCB81,Niger-Kongo,Atlantic-Congo,Cameroon
Bachamal [wdj-2],-13.17,130.17,#516FDB,Wagaydyic,Wadjiginy,Australia
Bada [bhz],-1.793,120.313,#68A179,Malayo-Polynesian,Celebic,Indonesia-Sulawesi
Badaga [bfq],11.31,76.6,#6271C5,Dravidian,South Dravidian,India
Bade [bde],12.79,10.66,#AE9DA3,Afro-Asiatic,Chadic,Nigeria
Bade-2 [bde-2],12,12,#A46789,Afro-Asiatic,Chadic,Nigeria
Badeng [xkl-3],3.17,115.22,#5B9378,Malayo-Polynesian,North Borneo,Malaysia-Borneo
Badimaya [bia],-27.667,119,#4A61DC,Pama-Nyungan,Kardu,Australia
Badjala [xby],-25.084,152.529,#446FAC,Pama-Nyungan,Waka-Kabic,Australia
Badjiri [jbi],-28.79,145.47,#5062DF,Pama-Nyungan,Karnic,Australia
Badyara [pbp],11.633,-13.4,#6C96A8,Niger-Kongo,Atlantic-Congo,Guinea
Baelelea [bvc],-8.453,160.66,#616D73,Oceanic,Southeast Solomonic,Solomons
Baenggu [bvd],-8.506,160.706,#59736D,Oceanic,Southeast Solomonic,Solomons
Baetora [btr],-15.258,168.166,#6D734E,Oceanic,Southern Oceanic,Vanuatu
Bafang [cmn-68],35.6,103.217,#9FD79D,Tibeto-Burman,Sinitic,China
Bafanji [bfj-2],5.84,10.46,#92C79A,Niger-Kongo,Atlantic-Congo,Cameroon
Bafo [bwt],6.351,10.229,#88CC67,Niger-Kongo,Atlantic-Congo,Cameroon
Bafut [bfd],6.083,10.0999,#A7B3A0,Niger-Kongo,Atlantic-Congo,Cameroon
Baga_Koga [bgo],10.13,-13.95,#77C499,Niger-Kongo,Atlantic-Congo,Guinea
Baga_Mboteni [bcg],10.83,-14.55,#659C93,Niger-Kongo,Atlantic-Congo,Guinea
Baga_Sitemu [bsp],10.48,-14.48,#70B583,Niger-Kongo,Atlantic-Congo,Guinea
Bagheli [bfy],24.35,81.43,#848AD1,Indo-European,Indo-Iranian,India
Bagirmi [bmi],10.202,17,#6DABC5,Nilo-Saharan,Central Sudanic,Chad
Bagri [bgq],29.6,74.3,#79A0D5,Indo-European,Indo-Iranian,India
Baguiro_Zangba [bmi-2],7.29,18.82,#80CCA7,Nilo-Saharan,Central Sudanic,Central African Republic
Bagulal [kva],42.56,46.17,#A24A7D,Nakh-Daghestanian,Avar-Andi,Russia
Bagusa [bqb],-1.905,137.932,#6B6C43,Kwerba,Nuclear Kwerba,Indonesia-Papua
Baharnah [afb-4],26.03,50.55,#97465B,Afro-Asiatic,Semitic,Bahrain
Bahau [bhv],0.06,115.65,#677C64,Malayo-Polynesian,North Borneo,Indonesia-Kalimantan
Bahinemo [bjh],-4.435,142.726,#71823C,Sepik,Sepik Hill,Papua New Guinea
Bahing [bhj],27.27,86.56,#86C3A9,Tibeto-Burman,Kiranti,Nepal
Bahnar [bdq],14,108.5,#717FB9,Austroasiatic,Bahnaric,Vietnam
Bahonsuai [bsu],-2.23,121.71,#668E56,Malayo-Polynesian,Celebic,Indonesia-Sulawesi
Bai [bca],26,100,#9DDBA1,Tibeto-Burman,Macro-Bai,China
Bai_Eryuan [bca-2],26.12,99.95,#A0E3A5,Tibeto-Burman,Macro-Bai,China
Bai_Heqing [bca-3],26.56,100.18,#A1E697,Tibeto-Burman,Macro-Bai,China
Bai_Lanping [bca-4],26.45,99.42,#9CE591,Tibeto-Burman,Macro-Bai,China
Bai_Luobenzhuo [bca-5],26.42,98.89,#AADBC8,Tibeto-Burman,Macro-Bai,China
Bai_Qiliqiao [bca-6],25.65,100.18,#9AE490,Tibeto-Burman,Macro-Bai,China
Bai_Xiangyun [bca-7],25.48,100.55,#99E58E,Tibeto-Burman,Macro-Bai,China
Bai_Yunlong [bca-8],25.88,99.37,#9CE7A0,Tibeto-Burman,Macro-Bai,China
Bai_Zhoucheng [bca-9],24.48,101.34,#98E59B,Tibeto-Burman,Macro-Bai,China
Baikeno [bkx],-9.3,124.32,#73713B,Malayo-Polynesian,Timoric,Timor leste
Baima [bqh],30.32,107.34,#A7E0B6,Tibeto-Burman,Bodic,China
Bainapi [dby],-7.904,142.715,#628A3D,Papuan Gulf,Strickland,Papua New Guinea
Baining [gcc-2],-4.6,152,#6C8E59,Baining,,Papua New Guinea-Bismarcks
Baiso [bsw-3],6.45,37.77,#A08E91,Afro-Asiatic,Cushitic,Somalia
Bajau_Semporna [ssb],4.5,118.5,#6B9A68,Malayo-Polynesian,Barito,Indonesia-Kalimantan
Bajau_Sulawesi [bdl-2],-3.75,122.5,#60987B,Malayo-Polynesian,Barito,Indonesia-Sulawesi
Bajo_Kangean [bdl],-7.17,115.82,#6E9AB1,Malayo-Polynesian,Barito,Indonesia-Kalimantan
Bajuni [swh-2],-1,42.04,#8485C1,Niger-Kongo,Atlantic-Congo,Kenya
Baka [bdh],4.8,31.6,#87C2BF,Nilo-Saharan,Central Sudanic,South Sudan
Baka [bkc],2.16,13.78,#8BCF6C,Ubangian,Sere-Mba,Cameroon
Bakairí [bkq],-14,-55,#777E45,Cariban,Pekodian,Brazil
Bakairí_East [bkq-3],-14.43,-54.025,#737D47,Cariban,Pekodian,Brazil
Bakairí_West [bkq-2],-14.7302,-56.2479,#707A46,Cariban,Pekodian,Brazil
Bakaka [bqz],4.8,9.8,#7BB36E,Niger-Kongo,Atlantic-Congo,Cameroon
Bakhtiari [ldd],31.92,50.86,#8E575C,Indo-European,Indo-Iranian,Iran
Baki [bki],-16.717,168.138,#6073AA,Oceanic,Southern Oceanic,Vanuatu
Bakoko [bkh],4.2,9.67,#8CD47F,Niger-Kongo,Atlantic-Congo,Cameroon
Bakole [kme],4.44,8.97,#82C1A6,Niger-Kongo,Atlantic-Congo,Cameroon
Bakumpai [bkr],-1.988,114.7,#568181,Malayo-Polynesian,Barito,Indonesia-Kalimantan
Balaesang [bls],-0.06,119.69,#537E66,Malayo-Polynesian,Celebic,Indonesia-Sulawesi
Balami [new-4],27.801,85.25,#799ED1,Tibeto-Burman,Newaric,Nepal
Balangao [blw],17.167,120.333,#5F8359,Malayo-Polynesian,Philippines,Philippines
Balanta [ble],12,-15,#80BD6F,Niger-Kongo,Atlantic-Congo,Guinea Bissau
Balantak [blz],-0.82,123.431,#4D827C,Malayo-Polynesian,Celebic,Indonesia-Sulawesi
Balante_Sofa [bjt],12.54,-15.67,#7EBF87,Niger-Kongo,Atlantic-Congo,Guinea Bissau
Balawaia [snc-2],-9.98,147.865,#746837,Oceanic,Western Oceanic,Papua New Guinea
Balearic [cat-2],39.5,3,#8498BA,Indo-European,Romance,Spain
Balendru [led],1.968,30.485,#A0BFA5,Nilo-Saharan,Central Sudanic,Democratic Republic of the Congo
Bali-Vitu [wiv],-4.733,149.283,#557A65,Oceanic,Western Oceanic,Papua New Guinea-Bismarcks
Balinese [ban],-8.583,115.25,#659AAF,Malayo-Polynesian,Malayo-Sumbawan,Indonesia-NTB
Balingian [mel-7],2.92,112.53,#62749C,Malayo-Polynesian,Malayo-Sumbawan,Malaysia-Borneo
Balochi [bgp-2],27,63.5,#8B62A5,Indo-European,Indo-Iranian,Pakistan
Balti [bft],35.2,76,#966CCE,Tibeto-Burman,Bodic,Pakistan
Baluchi [bgp],27.2,60.68,#A1636F,Indo-European,Indo-Iranian,Iran
Balui Liko [ree-3],1.92,114.52,#5E8781,Malayo-Polynesian,North Borneo,Malaysia-Borneo
Bam [bmc],-3.61,144.82,#4F8988,Oceanic,Western Oceanic,Papua New Guinea
Bambalang [bmo],5.86,10.54,#A0BAA8,Niger-Kongo,Atlantic-Congo,Cameroon
Bambara [bam],12.5,-7.5,#82B57E,Mande,Western Mande,Mali
Bamenyam [bce],5.77,10.33,#86C59C,Niger-Kongo,Atlantic-Congo,Cameroon
Bamu [bcf],-8,143.833,#647B3A,Kiwaian,Bamu,Papua New Guinea
Bamun [bax],5.726,10.904,#92D49E,Niger-Kongo,Atlantic-Congo,Cameroon
Bamunka [bvm],6,10.51,#8FBE8C,Niger-Kongo,Atlantic-Congo,Cameroon
Bana [bcw],10.42,13.58,#BA5996,Afro-Asiatic,Chadic,Cameroon
Banam Bay [vrt-2],-16.41,167.78,#6DAB7C,Oceanic,Southern Oceanic,Vanuatu
Banda [bnd],-5.25,133.17,#55907B,Malayo-Polynesian,Central Maluku,Indonesia-Maluku-north
Banda [bpd],2,22,#99CB7E,Ubangian,Bandaic,Central African Republic
Banda_Ndele [bfl],8.03,23.9,#98C87D,Ubangian,Bandaic,Central African Republic
Bandi [bza],7.74,-10.17,#8DC970,Mande,Western Mande,Liberia
Bandiaal [bqj-2],13.02,-15.32,#58A385,Niger-Kongo,Atlantic-Congo,Senegal
Bandjalang [bdy],-28.74,153.01,#3F6692,Pama-Nyungan,Yugambeh-Bundjalung,Australia
Bandjalang-2 [bdy-4],-28.39,152.61,#3F6891,Pama-Nyungan,Yugambeh-Bundjalung,Australia
Bandjalang-Gidabal [bdy-2],-28.25,152,#3F698F,Pama-Nyungan,Yugambeh-Bundjalung,Australia
Bandjigali [bjd],-30.08,143.28,#4A5CDB,Pama-Nyungan,Yarli-Baagandji,Australia
Banggai [bgz],-1.42,123.17,#5C9382,Malayo-Polynesian,Celebic,Indonesia-Sulawesi
Banggime [dbb],14.78,-3.76,#77D37A,Banggime,,Mali
Bangolan [bgj],6.05,10.45,#80AF4C,Niger-Kongo,Atlantic-Congo,Cameroon
Bangru [hru-3],27.9,93.35,#67AA95,Tibeto-Burman,Hrusish,India
Bangubangu [bnx],-4.689,27.693,#759256,Niger-Kongo,Atlantic-Congo,Democratic Republic of the Congo
Baniwa_Central [bwi],1.4091,-68.1358,#4B6682,Arawak,Northern Maipuran,Brazil
Baniwa_do_Içana [bwi-2],2.18,-67.77,#5F71B8,Arawak,Northern Maipuran,Brazil
Baniwa_Rio_Negro [bwi-3],0.053,-67.43,#727B52,Arawak,Northern Maipuran,Brazil
Baniwa_Siusi [bwi-4],2.19,-67.76,#666DC8,Arawak,Northern Maipuran,Brazil
Banjar [bjn],0.75,115.79,#57699F,Malayo-Polynesian,Malayo-Sumbawan,Indonesia-Kalimantan
Banjari [lmn-2],16.5,77.455,#697DC8,Indo-European,Indo-Iranian,India
Bankariya [cdm-2],27.5,85,#8287D9,Tibeto-Burman,Chepang,Nepal
Bankon [abb],4.37,9.64,#85BEAD,Niger-Kongo,Atlantic-Congo,Cameroon
Banoni [bcm],-6.417,155.25,#617261,Oceanic,Western Oceanic,Papua New Guinea-Bougainville
Bantang [pho-6],21.75,102.25,#97D495,Tibeto-Burman,Lolo-Burmese,Laos
Bantawa [bap],27.2,87.1,#74A499,Tibeto-Burman,Kiranti,Nepal
Banten [sun-2],-6.35,106.1,#648CA5,Malayo-Polynesian,Malayo-Sumbawan,Indonesia-Java
Bantik [bnq],1.564,124.859,#58835C,Malayo-Polynesian,Philippines,Indonesia-Sulawesi
Bantoanon [bno],12.784,122.049,#5A5E66,Malayo-Polynesian,Philippines,Philippines
Banyaduq [byd],0.5,110,#5B83A8,Malayo-Polynesian,Malayo-Sumbawan,Indonesia-Kalimantan
Banyum [bab],11.497,-16.5,#6EA899,Niger-Kongo,Atlantic-Congo,Guinea Bissau
Banyun [bcb-2],12.75,-16.3,#66A999,Niger-Kongo,Atlantic-Congo,Senegal
Baoan [peh],35.05,102.1,#9B79C3,Mongolic,Core Mongolic,China
Baoan [yue-20],22.55,113.9,#85D88A,Tibeto-Burman,Sinitic,China
Baoan_Dahejia [peh-2],35.72,102.88,#8D82A8,Mongolic,Core Mongolic,China
Baoan_Dongxiang [peh-5],35.6,103.22,#9B7FB1,Mongolic,Core Mongolic,China
Baoan_Kangjia [peh-4],35.04,101.25,#9F91A3,Mongolic,Core Mongolic,China
Baoan_Ñantoq [peh-3],35.41,102.08,#957EAB,Mongolic,Core Mongolic,China
Bará [bao],0.1,-70.45,#6B811C,Tucanoan,East Tucanoan,Colombia
Baraba [tat-3],55.333,78.333,#969490,Turkic,Common Turkic,Russia
Barai [bbb],-9.417,148,#6F7D3A,Southeast Papuan,Owen Stanley Ranges,Papua New Guinea
Barain_Giliya [bva-2],12.08,18.58,#50948B,Afro-Asiatic,Chadic,Chad
Barain_Jalking [bva-3],12.22,18.8,#50958A,Afro-Asiatic,Chadic,Chad
Barain_Jalkiya [bva],12.18,18.68,#59A581,Afro-Asiatic,Chadic,Chad
Barain_Komiya [bva-4],12.17,18.75,#579E7F,Afro-Asiatic,Chadic,Chad
Baram [brd],27.95,85,#7298AD,Tibeto-Burman,Western Himalayan,Nepal
Barang-barang [lji],-6.4,120.5,#6385A8,Malayo-Polynesian,Celebic,Indonesia-Sulawesi
Barapa Barapa [rbp],-35.95,144.32,#5485DA,Pama-Nyungan,Kulinic,Australia
Barapasi [brp],-2.247,136.995,#749539,Geelvink Bay,Barapasi-Sauri-Kofei,Indonesia-Papua
Barasano [bsn],-0.25,-70.75,#728D1B,Tucanoan,East Tucanoan,Colombia
Bardi [bcj],-16.58,122.92,#475ECD,Nyulnyul,West Nyulnyul,Australia
Baré [bae],1.6,-66.8,#8D538A,Arawak,Northern Maipuran,Venezuela
Bareke [mpr],-8.543,158.113,#697C62,Oceanic,Western Oceanic,Solomons
Barese [ita-47],41.1,16.9,#84A99B,Indo-European,Romance,Italy
Bargam [mlp],-4.87,145.76,#669B7A,Trans New Guinea,Madang,Papua New Guinea
Bari [bfa],3.8,31,#8FA2B1,Nilo-Saharan,Eastern Sudanic,South Sudan
Barí [mot],9,-73.5,#718F27,Chibchan,Core Chibchan,Venezuela
Bariai [bch],-5.497,148.63,#4F8169,Oceanic,Western Oceanic,Papua New Guinea
Bariba [bba],10.217,2.667,#77BF4F,Niger-Kongo,Atlantic-Congo,Benin
Bariji [bjc],-9.211,148.401,#6A7939,Southeast Papuan,Owen Stanley Ranges,Papua New Guinea
Barman Thar [xxx-108],25.899,89.899,#769F67,Tibeto-Burman,Bodo-Garo,India
Barok [bjk],-3.48,152.19,#5F8356,Oceanic,Western Oceanic,Papua New Guinea-Bismarcks
Barranbinya [zmu-2],-30.1,145.93,#4F5FE4,Pama-Nyungan,Muruwari,Australia
Barranquenho [por-3],38.13,-6.975,#77A770,Indo-European,Romance,Portugal
Barrow_Point [bpt],-14.373,144.63,#5C69C8,Pama-Nyungan,Paman,Australia
Baruga [bjz],-9.328,148.734,#737A36,Trans New Guinea,Oro-Wharton,Papua New Guinea
Barunggam [xxx-47],-26.25,151.25,#3D768B,Pama-Nyungan,Waka-Kabic,Australia
Barupu [wra],-3.083,142.083,#6BD549,Skou,Eastern Skou,Papua New Guinea
Baruya [byr],-6.917,145.833,#53A972,Trans New Guinea,Morobe-Eastern Highlands,Papua New Guinea
Basà [bzw],8.03,7.06,#94C088,Niger-Kongo,Atlantic-Congo,Nigeria
Basaa [bas],5,10.15,#84C68D,Niger-Kongo,Atlantic-Congo,Cameroon
Basap [bdb],0.91,117.56,#548667,Malayo-Polynesian,Basap,Indonesia-Kalimantan
Basari [bsc],12.25,-13,#A8A3B9,Niger-Kongo,Atlantic-Congo,Senegal
Basay [byq-2],25,121.86,#69538F,Austronesian,East Formosan,Taiwan
Basay_Trobriawan [byq],25,122,#6D7540,Austronesian,East Formosan,Taiwan
Basel [gsw-4],47.56,7.59,#A59A94,Indo-European,Germanic,Switzerland
Bashkarik [gwc-3],35.358,72.137,#8981CE,Indo-European,Indo-Iranian,Pakistan
Bashkir [bak],53,58,#9B9291,Turkic,Common Turkic,Russia
Basila [ade],8.17,0.62,#7BCEA3,Niger-Kongo,Atlantic-Congo,Benin
Basketo [bst],6.384,36.651,#A65C83,Afro-Asiatic,Omotic,Ethiopia
Basque [eus],42.82,-1.95,#7C78B4,Basque,,Spain
Basque_Arbizu [eus-4],42.9,-2,#8093B4,Basque,,Spain
Basque_Baztan [eus-10],43.2,-1.5,#7E94B3,Basque,,Spain
Basque_Baztan [eus-11],43.2,1.47,#8182C7,Basque,,Spain
Basque_Gernika [eus-3],43.3,-2.7,#7B99B0,Basque,,Spain
Basque_Lekeitio [eus-6],43.365,-2.51,#878992,Basque,,Spain
Basque_Navarro [eus-2],43.17,-1.24,#8E97AB,Basque,,France
Basque_Ondarroa [eus-8],43.3,-2.4,#749BAC,Basque,,Spain
Bassa [bsq],7.26,-7.22,#97CE77,Niger-Kongo,Atlantic-Congo,Côte d'Ivoire
Bassossi [bsi],5.24,9.52,#78BB7E,Niger-Kongo,Atlantic-Congo,Cameroon
Bata [bta],9.7,12.5,#83B564,Afro-Asiatic,Chadic,Nigeria
Batak_Dairi [btd],2.546,98.3,#577D77,Malayo-Polynesian,Batak-Barrier Islands,Indonesia-Sumatra
Batak_Karo [btx],3,98.167,#66A292,Malayo-Polynesian,Batak-Barrier Islands,Indonesia-Sumatra
Batak_Palawan [bya],10.115,119.214,#506881,Malayo-Polynesian,Philippines,Philippines
Batang [khg-8],30.57,98.97,#ACD6C7,Tibeto-Burman,Bodic,China
Batanga [bnm],2.09,9.75,#76C88F,Niger-Kongo,Atlantic-Congo,Equatorial Guinea
Bateg [btq],5,102.5,#5E9695,Austroasiatic,Aslian,Malaysia
Bathari [bhm],17.6,56,#A85F59,Afro-Asiatic,Semitic,Oman
Bati [btc],4.26,11.06,#87B574,Niger-Kongo,Atlantic-Congo,Cameroon
Batsbi [bbl-2],42.05,45.31,#AF5072,Nakh-Daghestanian,Nakh,Georgia
Batuley [bay],-5.8,134.75,#617C4F,Malayo-Polynesian,Southeast Maluku,Indonesia-Maluku-south
Bau [bbd],-5.213,145.556,#757D33,Trans New Guinea,Madang,Papua New Guinea
Baukan_Murut [bnb],5.273,116.519,#4C7578,Malayo-Polynesian,North Borneo,Malaysia-Borneo
Baule [bci],7.5,-5,#85C462,Niger-Kongo,Atlantic-Congo,Côte d'Ivoire
Baure [brg],-15,-64,#756E3D,Arawak,Southern Maipuran,Bolivia
Bauro [bxa],-10.647,161.858,#65795C,Oceanic,Southeast Solomonic,Solomons
Bauzi [bvz],-2.5,137.667,#758140,Geelvink Bay,,Indonesia-Papua
Bavarian [bar],46.73,12.28,#99AC9E,Indo-European,Germanic,Italy
Bawm [bgr],22.5,92.25,#90B0AC,Tibeto-Burman,Kuki-Chin-Naga,India
Bayan [duq-2],-0.85,115.39,#588890,Malayo-Polynesian,Barito,Indonesia-Kalimantan
Bayso [bsw],6.28,37.76,#965B67,Afro-Asiatic,Cushitic,Somalia
Bayso-2 [bsw-2],6.456,37.745,#92537B,Afro-Asiatic,Cushitic,Ethiopia
Bayungu [bxj],-23.3,113.7,#495CDB,Pama-Nyungan,Kanyara-Mantharta,Australia
Bduul [ajp-6],30.33,35.44,#A74590,Afro-Asiatic,Semitic,Syria
Beary [xxx-101],12.605,75.01,#588C9E,Dravidian,South Dravidian,India
Bedamini [beo],-6.321,142.489,#69872A,Trans New Guinea,Bosavi,Papua New Guinea
Bedayuh [bth],1.01,110.51,#5E86A4,Malayo-Polynesian,Land Dayak,Malaysia-Borneo
Bedik [tnr],12.75,-12.467,#89CD93,Niger-Kongo,Atlantic-Congo,Senegal
Bediondo [bjv],10.203,17,#81BC68,Nilo-Saharan,Central Sudanic,Chad
Befang [bby-2],6.28,10.03,#A5B68C,Niger-Kongo,Atlantic-Congo,Cameroon
Begak [dbj],5.25,118.833,#587591,Malayo-Polynesian,North Borneo,Malaysia-Borneo
Beihai [yue-13],21.47,109.1,#8FD885,Tibeto-Burman,Sinitic,China
Beja [bej],18,36,#93917B,Afro-Asiatic,Cushitic,Sudan
Bekati [bei],0.975,109.425,#548458,Malayo-Polynesian,Land Dayak,Indonesia-Kalimantan
Beketan [bkn-3],1.3,114.9,#5E778C,Malayo-Polynesian,Land Dayak,Indonesia-Kalimantan
Bekwarra [bkv],6.74,8.86,#7BB498,Niger-Kongo,Atlantic-Congo,Nigeria
Bekwil [bkw],1.72,14.65,#8EA894,Niger-Kongo,Atlantic-Congo,Cameroon
Bela [bxd-2],24.33,98.4,#96CA8D,Tibeto-Burman,Lolo-Burmese,Myanmar
Belait [beg],4.382,114.462,#6578A5,Malayo-Polynesian,North Borneo,Brunei
Belanda Boor [bxb],6.5,28,#69BEB9,Nilo-Saharan,Eastern Sudanic,South Sudan
Belarussian [bel],54,27,#AB6EC7,Indo-European,Balto-Slavic,Belarus
Belep [yly],-19.75,163.67,#5597AE,Oceanic,Southern Oceanic,New Caledonia
Belhare [byw],27,87.25,#6B8699,Tibeto-Burman,Kiranti,Nepal
Beli [blm],6.75,29.75,#79DAA3,Nilo-Saharan,Central Sudanic,South Sudan
Bella Coola [blc],52.5,-126.67,#AD2C76,Salish,Bella Coola,Canada
Bellona [mnv-2],-11.296,159.79,#6E8332,Oceanic,Central Pacific,Solomons
Belneng [glb],9.15,9.51,#96D07B,Afro-Asiatic,Chadic,Nigeria
Bemal [bmh],-5.234,145.475,#737740,Trans New Guinea,Madang,Papua New Guinea
Bemba [bem],-11,31,#8ABB79,Niger-Kongo,Atlantic-Congo,Zambia
Bembe [bmb],-4,14,#82B346,Niger-Kongo,Atlantic-Congo,Democratic Republic of the Congo
Bena [bez],-9.27,35.04,#7CB777,Niger-Kongo,Atlantic-Congo,Tanzania
Bena-Bena [bef],-6.114,145.567,#727630,Trans New Guinea,Morobe-Eastern Highlands,Papua New Guinea
Bench [bcq],7,35.75,#ADBA77,Afro-Asiatic,Omotic,Ethiopia
Bende [bdp],-6,30.5,#7BB952,Niger-Kongo,Atlantic-Congo,Tanzania
Beng [nhb],7.83,-4.25,#83D195,Mande,Eastern Mande,Côte d'Ivoire
Benga [bng],1.2,9.5,#9A8C6B,Niger-Kongo,Atlantic-Congo,Equatorial Guinea
Bengali [ben],22.5,90,#8D9393,Indo-European,Indo-Iranian,Bangladesh
Bengali_Barisal [ben-10],22.7,90.37,#8F864A,Indo-European,Indo-Iranian,Bangladesh
Bengali_east [ben-7],24.4,90.28,#978B55,Indo-European,Indo-Iranian,Bangladesh
Bengali_west [ben-8],23.4,89.45,#858D9F,Indo-European,Indo-Iranian,Bangladesh
Bengni [adi-11],28.66,93.37,#73B492,Tibeto-Burman,Macro-Tani,China
Benuaq [lbx-2],-1.6,115.51,#568181,Malayo-Polynesian,Barito,Indonesia-Kalimantan
Benyadu [byd-2],0.595,109.62,#50866E,Malayo-Polynesian,Land Dayak,Indonesia-Kalimantan
Beothuk [bue],48,-55,#6E6A55,Beothuk,,Canada
Bergamasco [ita-17],45.7,9.75,#7BB78F,Indo-European,Romance,Italy
Bergensk [nno],60.39,5.33,#8AD789,Indo-European,Germanic,Norway
Berik [bkl],-2.25,138.92,#934F94,Trans New Guinea,Orya-Tor,Indonesia-Papua
Berlinerisch [deu-4],52.5,13.15,#99B690,Indo-European,Germanic,Germany
Bernese [gsw-3],46.83,7.62,#87AF96,Indo-European,Germanic,Switzerland
Berom [bom-2],9.67,8.81,#7DBE8F,Niger-Kongo,Atlantic-Congo,Nigeria
Berrichon [fra-17],47.08,2.38,#7FB590,Indo-European,Romance,France
Berta [wti],10.67,34.5,#94A87D,Nilo-Saharan,Berta,Ethiopia
Besemah [pse],-4.2,103,#667DA7,Malayo-Polynesian,Malayo-Sumbawan,Indonesia-Sumatra
Beserrman [udm-2],58.02,52.15,#8993BD,Uralic,Permic,Russia
Bésiro [cax-2],-16.6375,-61.9271,#6D8245,Arawak,Southern Maipuran,Bolivia
Besoa [bep],-1.599,120.379,#66A177,Malayo-Polynesian,Celebic,Indonesia-Sulawesi
Betawi [bew],-6.21,107.02,#629FA6,Malayo-Polynesian,Malayo-Sumbawan,Indonesia-Java
Bété [btg],6.25,-6.25,#8BCD91,Niger-Kongo,Atlantic-Congo,Côte d'Ivoire
Bete [byf],7.05,9.748,#79B374,Niger-Kongo,Atlantic-Congo,Nigeria
Betoi [xxx-xxx],7.22,-71.42,#727040,Betoi-Jirara,,Colombia
Betta Kurumba [xub],11.58,76.55,#6375C9,Dravidian,South Dravidian,India
Bewani [pgi],-3.024,141.167,#628834,Trans New Guinea,Border,Papua New Guinea
Bezhta [kap],42.133,46.128,#B75983,Nakh-Daghestanian,Tsezic,Russia
Bhaṭe-sa zib [xxx-102],34.94,72.88,#8E6BBE,Indo-European,Indo-Iranian,Afghanistan
Bhatibari [ben-5],26.48,89.54,#6F7EBE,Indo-European,Indo-Iranian,India
Bhele [bhy-2],0.25,28.67,#80B45B,Niger-Kongo,Atlantic-Congo,Democratic Republic of the Congo
Bhili [bhb],22,73,#7D83E0,Indo-European,Indo-Iranian,India
Bhili_Mahikantha [bhb-2],23.83,72.5,#7F89E3,Indo-European,Indo-Iranian,India
Bhoi [kha-5],25.9,91.88,#677AA3,Austroasiatic,Khasi-Palaung,India
Bhojpuri [bho],26.8,85.3,#767CDB,Indo-European,Indo-Iranian,India
Bhojpuri_Nagpuria [bho-3],23.36,85.33,#747CDA,Indo-European,Indo-Iranian,India
Bhojpuri_Northern [bho-2],26.76,83.37,#747CDA,Indo-European,Indo-Iranian,India
Bhojpuri_Western [bho-4],25.32,83.01,#747CDA,Indo-European,Indo-Iranian,India
Bhumij [muw],21.333,86.5,#6A82D3,Austroasiatic,Munda,India
Biafada [bif],11.47,-15.13,#86B5B4,Niger-Kongo,Atlantic-Congo,Guinea Bissau
Biage [bdf],-9.158,147.664,#6E8032,Southeast Papuan,Owen Stanley Ranges,Papua New Guinea
Biak [bhw],-1.14,136,#6C7D39,Malayo-Polynesian,Eastern Malayo-Polynesian,Indonesia-Papua
Biak-west [bhw-2],-0.835,135.59,#70A137,Malayo-Polynesian,Eastern Malayo-Polynesian,Indonesia-Papua
Biaka [axk-2],3.65,17.27,#7DA84F,Niger-Kongo,Atlantic-Congo,Congo
Biali [beh],11.04,1.08,#74A244,Niger-Kongo,Atlantic-Congo,Benin
Bian_Marind [bpv],-7.222,140.548,#879442,Anim,Marind-Yaqay,Indonesia-Papua
Biangai [big],-7.33,146.75,#577663,Trans New Guinea,Oro-Wharton,Papua New Guinea
Biao [byk-3],23.9,112.2,#8FE598,Tai-Kadai,Kam-Tai,China
Biao_Dagang [byk-2],23.81,112.135,#8CE19F,Tai-Kadai,Kam-Tai,China
Biao_Yonggu [byk],23.72,112.07,#8EDF95,Tai-Kadai,Kam-Tai,China
Biaomin Yao [bmt],23.6,111.75,#94DBC2,Hmong-Mien,Mienic,China
Biatah [bth-2],1.264,110.32,#549C77,Malayo-Polynesian,Land Dayak,Indonesia-Kalimantan
Bidjara [bym],-24.5,146.592,#4565B3,Pama-Nyungan,Greater Maric,Australia
Bierebo [bnk],-16.667,168.131,#797CA9,Oceanic,Southern Oceanic,Vanuatu
Bieria [brj],-16.807,168.194,#5E8C5D,Oceanic,Southern Oceanic,Vanuatu
Bih [rad],12.48,108.025,#7DB3B8,Malayo-Polynesian,Malayo-Sumbawan,Vietnam
Bijago [bjg],11.28,-15.83,#74B999,Niger-Kongo,Atlantic-Congo,Guinea Bissau
Bijago_Orango [bjg-2],11.034,-16.146,#629CA7,Niger-Kongo,Atlantic-Congo,Guinea Bissau
Bikele [biw],3.66,12.86,#7DCD90,Niger-Kongo,Atlantic-Congo,Cameroon
Bikol [bcl],13.333,123.5,#586A66,Malayo-Polynesian,Philippines,Philippines
Bikol_Iriga [bcl-3],13.39,123.33,#51686D,Malayo-Polynesian,Philippines,Philippines
Bikol_Naga [bcl-4],13.62,123.17,#577666,Malayo-Polynesian,Philippines,Philippines
Biksi [yet],-4.013,140.494,#5A9E7C,Yetfa-Biksi,,Papua New Guinea
Bila [bip],1.17,28.76,#8BD047,Niger-Kongo,Atlantic-Congo,Democratic Republic of the Congo
Bilba [bpz],-10.67,123.34,#5F844D,Malayo-Polynesian,Timoric,Indonesia-NTT
Bilbil [brz],-5.26,145.76,#4F7A6B,Oceanic,Western Oceanic,Papua New Guinea
Biliau [bcu-2],-5.65,146.3,#587764,Oceanic,Western Oceanic,Papua New Guinea
Bilin [byn],15.9,38.3,#735FA9,Afro-Asiatic,Cushitic,Eritrea
Bilinara [nbj],-16,131.667,#485EC9,Pama-Nyungan,Ngumbin-Yapa,Australia
Biloxi [bll],32.25,-90,#888A2C,Siouan,Western Siouan,USA
Bilua [blb],-7.75,156.667,#53877B,Solomons East Papuan,,Solomons
Bima [bhp],-8.545,118.677,#8C9D73,Malayo-Polynesian,Bima,Indonesia-NTB
Bima_Kolo [bhp-2],-8.32,118.76,#7C9182,Malayo-Polynesian,Bima,Indonesia-NTB
Bimin [bhl],-5.43,141.942,#6C923A,Trans New Guinea,Ok,Papua New Guinea
Bimoba [bim],10.46,0.06,#78C693,Niger-Kongo,Atlantic-Congo,Ghana
Bina [bmn],-10.249,149.683,#5F7C31,Oceanic,Western Oceanic,Papua New Guinea
Binandere [bhg],-8.167,147.917,#668F3C,Trans New Guinea,Oro-Wharton,Papua New Guinea
Binbinga [wmb-2],-16.17,135,#4B59CD,Mirndi,Ngurlun,Australia
Bine [bon],-9.05,142.884,#5A987C,Eastern Trans Fly,,Papua New Guinea
Bini_Edo [bin],6.42,5.83,#8CB652,Niger-Kongo,Atlantic-Congo,Nigeria
Bini-2 [bin-2],6.41,5.7,#81AB73,Niger-Kongo,Atlantic-Congo,Nigeria
Binigura [pnv],-22.488,116.506,#4860DA,Pama-Nyungan,Kanyara-Mantharta,Australia
Bininj Gun-Wok [gup],-12.5,133.75,#516BCD,Macro-Gunwinygu,Gunwingyuan proper,Australia
Bintan Orang Laut [zlm-14],1.077,104.5,#6BAA98,Malayo-Polynesian,Malayo-Sumbawan,Indonesia-Sumatra
Bintauna [bne],0.75,123.49,#698D70,Malayo-Polynesian,Philippines,Indonesia-Sulawesi
Bintulu [bny],3.83,113.67,#667996,Malayo-Polynesian,North Borneo,Malaysia-Borneo
Binukid [bkd],8.3,125,#596269,Malayo-Polynesian,Philippines,Philippines
Binumarien [bjr],-6.25,146.08,#6BA038,Trans New Guinea,Morobe-Eastern Highlands,Papua New Guinea
Binyang [cmn-47],23.22,108.82,#8ED28A,Tibeto-Burman,Sinitic,China
Bipi [biq],-2.109,146.4,#6A7E97,Oceanic,Admiralties,Papua New Guinea
Bira [brf-2],1.6,30.13,#9CD781,Niger-Kongo,Atlantic-Congo,Democratic Republic of the Congo
Bira [brf],1.5,30.03,#8EB386,Niger-Kongo,Atlantic-Congo,Democratic Republic of the Congo
Birao [brr],-9.746,160.515,#5F7C6D,Oceanic,Southeast Solomonic,Solomons
Birgid [btf],13,27,#83B48D,Afro-Asiatic,Chadic,Sudan
Biri [bvi],7.55,6.233,#92BAB8,Ubangian,Sere-Mba,Nigeria
Biri [bzr],-20.5,146.5,#4460BB,Pama-Nyungan,Greater Maric,Australia
Birifor [biv],9.29,-2.73,#91C097,Niger-Kongo,Atlantic-Congo,Ghana
Biritai [bqq],-3,137.6,#73B700,Lakes Plains,Tariku,Indonesia-Papua
Birom [bom],9.67,8.83,#89B64F,Niger-Kongo,Atlantic-Congo,Nigeria
Birriya [xpa-2],-24.5,143.5,#495DD8,Pama-Nyungan,Pirriya,Australia
Bisa [bib],11.783,0.366,#6FB883,Mande,Eastern Mande,Burkina Faso
Bisayah_Sarawak [bsb],5.33,115.5,#659E95,Malayo-Polynesian,North Borneo,Malaysia-Borneo
Bishnupriya [bpy],25.08,92.92,#5A6367,Indo-European,Indo-Iranian,India
Bisiacco [vec-2],45.95,12.45,#7C9F9B,Indo-European,Romance,Italy
Bissa [bib-2],10.43,-1.67,#65B581,Mande,Eastern Mande,Burkina Faso
Bisu [bii],19.75,100,#8CACCC,Tibeto-Burman,Lolo-Burmese,Thailand
Bitur [mcc],-8.52,142.71,#657C3F,Anim,Tirio,Papua New Guinea
Biya [mij-6],6.615,10.18,#98DD94,Niger-Kongo,Atlantic-Congo,Cameroon
Biyo [byo],22.51,101.65,#91CB7D,Tibeto-Burman,Lolo-Burmese,Thailand
Bizkaian [eus-7],43.25,-2.98,#6A5C9C,Basque,,Spain
Bjokapakha [tsj-3],26.965,91.05,#88A9DA,Tibeto-Burman,Bodic,Bhutan
Bjokapakha-2 [tsj-4],26.965,91.045,#83AEAF,Tibeto-Burman,Bodic,Bhutan
Blablanga [blp],-8.17,159.42,#817EC2,Oceanic,Western Oceanic,Solomons
Blablanga_Ghove [blp-2],-8.33,159.5,#897EC7,Oceanic,Western Oceanic,Solomons
Black Lahu [lhu-2],20.355,99.77,#9ED292,Tibeto-Burman,Lolo-Burmese,Myanmar
Black_Tai [blt-2],19.75,105,#96D076,Tai-Kadai,Kam-Tai,Vietnam
Blackfoot [bla],50,-112.67,#6B6035,Algic,Algonquian,Canada
Blagar [beu],-8.33,124.25,#618A69,Timor-Alor-Pantar,Alor-Pantar,Indonesia-NTT
Blang [blr],23.3,100,#85CDA0,Austroasiatic,Khasi-Palaung,China
Boano [bzl],0.51,120.99,#537570,Malayo-Polynesian,Celebic,Indonesia-Sulawesi
Boano [bzn],-2.96,127.95,#667A17,Malayo-Polynesian,Central Maluku,Indonesia-Maluku-north
Boazi [kvg],-7,141.25,#87943E,Anim,Boazi,Papua New Guinea
Boazi_Kuni [kvg-2],-6.913,141.326,#89A241,Anim,Boazi,Papua New Guinea
Bobangi [bni],0,17.8,#86A84E,Niger-Kongo,Atlantic-Congo,Democratic Republic of the Congo
Bobo_Madare_North [bbo-2],12.42,-4.48,#6DB99A,Mande,Western Mande,Burkina Faso
Bobo_Madare_South [bwq],11.54,-4.26,#6EC272,Mande,Western Mande,Burkina Faso
Bobo-Fing [bbo],11.83,-4.42,#81D582,Mande,Western Mande,Burkina Faso
Bobongko [bgb],-0.5,121.75,#537D84,Malayo-Polynesian,Celebic,Indonesia-Sulawesi
Bobot [bty],-3.33,130.17,#6B753A,Malayo-Polynesian,Central Maluku,Indonesia-Maluku-north
Bocota [sab],9.34,-82.24,#5CAB57,Chibchan,Core Chibchan,Panama
Bogaya [boq],-5.621,142.231,#728743,Trans New Guinea,Duna-Bogaya,Papua New Guinea
Bohemian [ces-3],50,13,#9C5692,Indo-European,Balto-Slavic,Czech Republic
Boholano [ceb-2],9.9,124.2,#5C5687,Malayo-Polynesian,Philippines,Philippines
Bohutu [bxh],-10.5,150.33,#954F69,Oceanic,Western Oceanic,Papua New Guinea
Boiken [bzf],-3.525,143.415,#73935D,Ndu,Boiken,Papua New Guinea
Bokala [gix],4.57,19.02,#85CF74,Ubangian,Sere-Mba,Democratic Republic of the Congo
Bokar [adi-2],29,94.35,#65AC92,Tibeto-Burman,Macro-Tani,India
Boko [bkp],10.52,3.72,#87AA45,Mande,Eastern Mande,Benin
Bokyi [bky],6.1,9.06,#8CC787,Niger-Kongo,Atlantic-Congo,Nigeria
Bola [bnp],-5.5,150,#517B5F,Oceanic,Western Oceanic,Papua New Guinea-Bismarcks
Bola [bxd-3],24.45,98.6,#95CF87,Tibeto-Burman,Lolo-Burmese,China
Bolaang-Mongondow [mog],0.55,124,#537A8A,Malayo-Polynesian,Philippines,Indonesia-Sulawesi
Bolano [bzl-2],0.52,121,#51778B,Malayo-Polynesian,Celebic,Indonesia-Sulawesi
Bole [bol],11.007,10.747,#98B37F,Afro-Asiatic,Chadic,Nigeria
Bolgo [bvo-2],10.9,18.81,#71BB7B,Niger-Kongo,Atlantic-Congo,Chad
Bolgo_Dugag [bvo],10.79,18.61,#6BC381,Niger-Kongo,Atlantic-Congo,Chad
Bolinao [smk],16.341,119.893,#517965,Malayo-Polynesian,Philippines,Philippines
Bologna [ita-4],44.51,11.35,#7CA6A3,Indo-European,Romance,Italy
Bolyu [ply],24.78,105.35,#9CD0A0,Austroasiatic,Mangic,China
Bom [bmf],9.28,-11.6,#81AD94,Niger-Kongo,Atlantic-Congo,Sierra Leone
Boma [boh],2.5,15.6,#94C391,Niger-Kongo,Atlantic-Congo,Cameroon
Bomitaba [zmx],1.701,17.371,#8EB665,Niger-Kongo,Atlantic-Congo,Congo
Bomitaba-2 [zmx-2],1.7,17.37,#7DA233,Niger-Kongo,Atlantic-Congo,Congo
Bonan [peh-6],35.7,103,#9C8DB3,Mongolic,Core Mongolic,China
Bonda [bfw-2],19,82.75,#5D6EBB,Austroasiatic,Munda,India
Bondei [bou],-5.082,38.432,#7D8557,Niger-Kongo,Atlantic-Congo,Tanzania
Bonerate [bna],-7.38,121.79,#6F8F5C,Malayo-Polynesian,Celebic,Indonesia-Sulawesi
Bongaigaon [asm-4],26.48,90.56,#6FB17A,Indo-European,Indo-Iranian,India
Bonggi [bdg],7.3,117.2,#569265,Malayo-Polynesian,North Borneo,Philippines
Bonggo [bpg],-2.28,139.6,#5F7D45,Oceanic,Western Oceanic,Indonesia-Papua
Bongili [bui],0.37,16.61,#789C4E,Niger-Kongo,Atlantic-Congo,Congo
Bongo [bot],7.5,28,#7FBF9D,Nilo-Saharan,Central Sudanic,South Sudan
Boni [bob],0.5,43,#816C9F,Afro-Asiatic,Cushitic,Somalia
Bonifacino [lij-3],41.39,9.16,#939EAA,Indo-European,Romance,France
Bontoc_Guinaang [bnc-2],17.08,120.9,#55705E,Malayo-Polynesian,Philippines,Philippines
Bontok [bnc],17.083,120.917,#54725A,Malayo-Polynesian,Philippines,Philippines
Bor [bvf],5.605,27.472,#5B8CBB,Afro-Asiatic,Chadic,South Sudan
Bora [boa],-2.25,-71.75,#7F7050,Boran,Bora,Peru
Bori [adi-5],28.2,94.6,#63AE86,Tibeto-Burman,Macro-Tani,India
Bormiese [ita-16],46.47,10.375,#8DB299,Indo-European,Romance,Italy
Bornholmsk [scy],55,15,#8EBA7B,Indo-European,Germanic,Denmark
Boro [brx],26.75,92,#6EB863,Tibeto-Burman,Bodo-Garo,India
Boro [bwo],10.66,35.34,#6FB05E,Afro-Asiatic,Omotic,Ethiopia
Borong Kosorong [ksr],-6.534,147.502,#56896A,Trans New Guinea,Morobe-Eastern Highlands,Papua New Guinea
Boróro [bor],-15,-52,#577E4A,Macro-Je,Bororo,Brazil
Bororo-2 [bor-2],-16.6,-55.2,#56804B,Macro-Je,Bororo,Brazil
Boruca [brn],9.001,-83.325,#7CA16C,Chibchan,Core Chibchan,Costa Rica
Bosavi [bco-2],-6.425,142.765,#6F8C3E,Trans New Guinea,Bosavi,Papua New Guinea
Bosnian [bos],44,18,#8F61A3,Indo-European,Balto-Slavic,Bosnia
Botin_Samban [kbx-2],-4.33,144.17,#5A835C,Ap Ma,,Papua New Guinea
Botlikh [bph],42.66,46.22,#AB5174,Nakh-Daghestanian,Avar-Andi,Russia
Bourbonnais [fra-11],46.57,3.33,#7BB78C,Indo-European,Romance,France
Bouyei [pcc-5],25.817,107.55,#9ACBB0,Tai-Kadai,Kam-Tai,China
Bouyei_Changshun Duncao [pcc-9],25.9,106.5,#9DD2B8,Tai-Kadai,Kam-Tai,China
Bouyei_Dushan Huanghou [pcc-11],25.4,107.6,#9ADBB4,Tai-Kadai,Kam-Tai,China
Bouyei_Guiding Houchang [pcc-13],26.4,107,#9BE0AE,Tai-Kadai,Kam-Tai,China
Bouyei_Huishui Yashui [pcc-12],26,106.9,#98DDAE,Tai-Kadai,Kam-Tai,China
Bouyei_Libo Fucun [pcc-10],25.3,108,#94DBA9,Tai-Kadai,Kam-Tai,China
Bouyei_Luodian Bamao [pcc-8],25.3,106.95,#9BD8B8,Tai-Kadai,Kam-Tai,China
Bouyei_Luodian Luokun [pcc-7],25.25,106.7,#9AD7A9,Tai-Kadai,Kam-Tai,China
Bouyei_Pingtang Sizhai [pcc-14],25.65,107.4,#97DFB4,Tai-Kadai,Kam-Tai,China
Bouyei_Sandu Zhouqin [pcc-15],25.7,107.9,#9ED4B5,Tai-Kadai,Kam-Tai,China
Bouyei_west [pcc-2],25.75,107.333,#90D2B5,Tai-Kadai,Kam-Tai,China
Boze [jer],10.2,8.96,#92DE96,Niger-Kongo,Atlantic-Congo,Nigeria
Brabants [nld-3],50.75,4.65,#81BA77,Indo-European,Germanic,Belgium
Brag-g.yab [khg-2],30.65,97.55,#87A3D1,Tibeto-Burman,Bodic,China
Brahui (Jahlawān) [brh-4],25.81,66.49,#8C5477,Dravidian,North Dravidian,Pakistan
Brahui [brh],29,67,#7F53B6,Dravidian,North Dravidian,Pakistan
Brahui_Jahlawan [brh-3],25.79,66.51,#915675,Dravidian,North Dravidian,Pakistan
Brahui_Sarawan [brh-2],29,66.6,#935872,Dravidian,North Dravidian,Pakistan
Brajbhasha [bra],27.49,77.67,#8086D4,Indo-European,Indo-Iranian,India
Brao [brb],14,107.001,#87A4D1,Austroasiatic,Bahnaric,Cambodia
Brao_Krung [brb-2],13.8,107,#7F93C7,Austroasiatic,Bahnaric,Cambodia
Breton [bre],47.65,-2.75,#A69EA7,Indo-European,Celtic,France
Breton_Grand Lorient [bre-6],47.75,-3.36,#9C9ECE,Indo-European,Celtic,France
Breton_Kerneveg [bre-2],48,-4.1,#A99BA6,Indo-European,Celtic,France
Breton_Leoneg [bre-3],48.6,-4.3,#A998A8,Indo-European,Celtic,France
Breton_Plozevet [bre-5],47.99,-4.42,#8F99C2,Indo-European,Celtic,France
Breton_Tregiereg [bre-4],48.5,-3.125,#A99BA6,Indo-European,Celtic,France
Bribri [bzd],9.5,-83,#8ABB71,Chibchan,Core Chibchan,Costa Rica
Brinken [zmd],-14.05,130.08,#475EBF,Western Daly,Bringen,Australia
Brokpa [sgt],27.33,92,#8AAEAB,Tibeto-Burman,Bodic,Bhutan
Bru_Western [brv],16.75,104.75,#7EB3A6,Austroasiatic,Katuic,Laos
Brugge [vls-3],51.22,3.23,#87B382,Indo-European,Germanic,Netherlands
Bruu [bru],17.167,104.333,#87D49F,Austroasiatic,Katuic,Thailand
Bu [jid],9.05,8.66,#8AC46C,Niger-Kongo,Atlantic-Congo,Nigeria
Buamu [box],11.17,-3.5,#5EA358,Niger-Kongo,Atlantic-Congo,Burkina Faso
Buang_Central [bzh],-6.855,146.774,#817CB4,Oceanic,Western Oceanic,Papua New Guinea
Bube [bvb],3.5,8.7,#8EC980,Niger-Kongo,Atlantic-Congo,Equatorial Guinea
Bubia [bbx-2],4.02,9.22,#82C57C,Niger-Kongo,Atlantic-Congo,Cameroon
Budong-bundong [bdx],-2.171,119.328,#5A7B5A,Malayo-Polynesian,Greater South Sulawesi,Indonesia-Sulawesi
Budu [buu-3],2.011,27.949,#99D071,Niger-Kongo,Atlantic-Congo,Democratic Republic of the Congo
Budu [buu],2.01,27.95,#A4D187,Niger-Kongo,Atlantic-Congo,Democratic Republic of the Congo
Buduma [bdm],13.6,14,#7DAF63,Afro-Asiatic,Chadic,Chad
Budux [bdk],41.19,48.37,#B85F94,Nakh-Daghestanian,Lezgic,Russia
Bugan [bbh],23.75,105,#A1D5B2,Austroasiatic,Mangic,China
Bugan_Nala [bbh-2],23.487,105.15,#A1D6B1,Austroasiatic,Mangic,China
Bughotu [bgt],-8.478,159.808,#65766C,Oceanic,Southeast Solomonic,Solomons
Bugis [bug],-4,120,#598D8F,Malayo-Polynesian,Greater South Sulawesi,Indonesia-Sulawesi
Bugun [bgn],27.3,92.35,#8FB3A0,Tibeto-Burman,Kho-Bwa,India
Buhid [bku],12.574,121.25,#52756D,Malayo-Polynesian,Philippines,Philippines
Buin [buo],-6.75,155.833,#4F9541,South Bougainville,Buin,Papua New Guinea-Bougainville
Bukar_Sadong [sdo],0.97,110.66,#709EA0,Malayo-Polynesian,Land Dayak,Malaysia-Borneo
Bukat [bvk],1.29,113.25,#557390,Malayo-Polynesian,Land Dayak,Malaysia-Borneo
Bukawa [buk],-6.732,147.359,#789B42,Oceanic,Western Oceanic,Papua New Guinea
Buket [bvk-2],0.8,112.6,#558963,Malayo-Polynesian,Land Dayak,Malaysia-Borneo
Bukhari [bhh],39.79,64.45,#946556,Indo-European,Indo-Iranian,Tajikistan
Bukit [bvu],-2.75,115.64,#4F6D9E,Malayo-Polynesian,Malayo-Sumbawan,Indonesia-Kalimantan
Bukitan [bkn],2.35,114.89,#537D8B,Malayo-Polynesian,Malayo-Sumbawan,Malaysia-Borneo
Bukiyip_Arapesh [ape],-3.667,142.5,#6FA58A,Torricelli,Kombio-Arapesh,Papua New Guinea
Bukusu [bxk],1.02,35,#5A7F66,Niger-Kongo,Atlantic-Congo,Kenya
Bularnu [yil],-21.5,137.5,#5064E0,Pama-Nyungan,Warluwaric,Australia
Bulgarian [bul],43,25,#A57073,Indo-European,Balto-Slavic,Bulgaria
Bulgarian_Banat [bul-6],45.7,20.9,#9D9191,Indo-European,Balto-Slavic,Bulgaria
Bulgarian_Boboshevo [bul-4],42.15,23,#9A5C6E,Indo-European,Balto-Slavic,Bulgaria
Bulgarian_Erkech [bul-5],42.84,27.58,#9B616C,Indo-European,Balto-Slavic,Bulgaria
Bulgarian_Gabare [bul-8],43.316,21.92,#9B6179,Indo-European,Balto-Slavic,Bulgaria
Bulgarian_Lovec [bul-9],43.14,24.71,#A06C7B,Indo-European,Balto-Slavic,Bulgaria
Bulgarian_Moesian [bul-3],42.7,27.75,#908CB6,Indo-European,Balto-Slavic,Bulgaria
Bulgarian_Momchilovci [bul-10],41.66,24.77,#9D6C67,Indo-European,Balto-Slavic,Bulgaria
Bulgarian_North-west [bul-7],43.6,23.18,#A67473,Indo-European,Balto-Slavic,Bulgaria
Bulgarian_Nova Nadezda [bul-11],42.02,25.72,#965B79,Indo-European,Balto-Slavic,Bulgaria
Buli [bzq],0.833,128.5,#5A7D81,Malayo-Polynesian,Eastern Malayo-Polynesian,Indonesia-Maluku-north
Bulu [bum],2.917,11.15,#90B863,Niger-Kongo,Atlantic-Congo,Cameroon
Bulungan [bdb-2],0.89,117.58,#53888D,Malayo-Polynesian,Basap,Indonesia-Kalimantan
Bulusu [bqr],3,116,#4F817E,Malayo-Polynesian,Bulusu,Indonesia-Kalimantan
Bum [bmv],6.49,10.42,#8FB561,Niger-Kongo,Atlantic-Congo,Cameroon
Buma [tkw],-11.615,166.966,#5F76AD,Oceanic,Te Motu,Solomons_East
Buma [yns-2],-3.33,17.5,#96BBA6,Niger-Kongo,Atlantic-Congo,Democratic Republic of the Congo
Bumang [bvp],22.5,96.5,#9AE396,Austroasiatic,Khasi-Palaung,Laos
Bumbita_Arapesh [aon],-3.667,142.833,#617F6D,Torricelli,Kombio-Arapesh,Papua New Guinea
Bumthang [kjz],27.802,90.8,#85B1D0,Tibeto-Burman,Bodic,Bhutan
Bumthang_Ura [kjz-2],27.48,90.905,#95F3B5,Tibeto-Burman,Bodic,Bhutan
Bunama [bdd],-10.064,151.075,#715A62,Oceanic,Western Oceanic,Papua New Guinea
Bunan [bfu],32.61,76.91,#93B7BC,Tibeto-Burman,Western Himalayan,India
Bunaq [bfn],-9.1,125.15,#7D9C4A,Timor-Alor-Pantar,Mainland Timor-Alor-Pantar,Indonesia-NTT
Bunaq_Lolotoen [bfn-2],-9.161,125.26,#7F9341,Timor-Alor-Pantar,Mainland Timor-Alor-Pantar,Timor leste
Bunaq_South [bfn-3],-9.227,125.393,#7B8E47,Timor-Alor-Pantar,Mainland Timor-Alor-Pantar,Timor leste
Bundeli [bns],23.18,79.95,#767EE4,Indo-European,Indo-Iranian,India
Bunganditj [xbg],-36.5,141,#4A5FDB,Pama-Nyungan,Kulinic,Australia
Bungku [bkz],-3,122.33,#739763,Malayo-Polynesian,Celebic,Indonesia-Sulawesi
Bungku_Tulambatu [bkz-2],-3.17,122.12,#739662,Malayo-Polynesian,Celebic,Indonesia-Sulawesi
Bungu [wun],-8.33,32.88,#97DC8C,Niger-Kongo,Atlantic-Congo,Tanzania
Bunong [cmo],12.63,107.3,#84AABF,Austroasiatic,Bahnaric,Cambodia
Bunu [buh],25.5,108.7,#A4E1CF,Hmong-Mien,Hmongic,China
Bunu_Dongnu [bwx],23.88,108.08,#B6ECDB,Hmong-Mien,Hmongic,China
Bunu_Nunu [bwx-2],23.799,110.178,#A9E0B2,Hmong-Mien,Hmongic,China
Bunuba [bck],-17.75,125.75,#4A63D9,Bunuban,,Australia
Bunun [bnn],23.5,121,#6D6548,Austronesian,Bunun,Taiwan
Bunun_Isbukun [bnn-2],23.459,121.056,#805761,Austronesian,Bunun,Taiwan
Buol [blf],1,121.5,#5C805C,Malayo-Polynesian,Philippines,Indonesia-Sulawesi
Bura [bwr],10.611,12.195,#B09CA2,Afro-Asiatic,Chadic,Nigeria
Burarra [bvr],-12.25,134.667,#4D6FD0,Macro-Gunwinygu,Maningrida,Australia
Burji [bji],5.5,37.9,#8C5F6C,Afro-Asiatic,Cushitic,Ethiopia
Burmbar [vrt],-16.372,167.749,#639E5F,Oceanic,Southern Oceanic,Vanuatu
Burmese [mya],20,96,#99C9BF,Tibeto-Burman,Lolo-Burmese,Myanmar
Burmese_Arakan [mya-4],20.14,92.9,#9AC9CE,Tibeto-Burman,Lolo-Burmese,Myanmar
Burmese_Intha [mya-3],20.55,96.92,#93C8BD,Tibeto-Burman,Lolo-Burmese,Myanmar
Burmese_Myeik [mya-2],12.43,98.6,#97CD9C,Tibeto-Burman,Lolo-Burmese,Myanmar
Burmese_Palaw [mya-6],13.12,98.68,#95D09F,Tibeto-Burman,Lolo-Burmese,Myanmar
Burmese_Tavoyan [mya-5],14.08,98.2,#9DD1C2,Tibeto-Burman,Lolo-Burmese,Myanmar
Burmeso [bzu],-2.447,138.209,#747039,Burmeso,,Indonesia-Papua
Buru [mhs],-3.7,126.4,#5A7A73,Malayo-Polynesian,Central Maluku,Indonesia-Maluku-north
Burum [bmu],-6.484,147.311,#5B6A89,Trans New Guinea,Morobe-Eastern Highlands,Papua New Guinea
Burum_Mindik [bmu-3],-6.47,147.44,#805E75,Trans New Guinea,Morobe-Eastern Highlands,Papua New Guinea
Burun [bdi-2],10.8,33.8,#53A9AA,Nilo-Saharan,Eastern Sudanic,Sudan
Burushaski [bsk],36.5,74.5,#9B85C9,Burushaski,,Pakistan
Burushaski_eastern [bsk-2],36.32,74.65,#9FA3C4,Burushaski,,Pakistan
Burushaski_Jammu-Kashmir [bsk-3],34.11,74.82,#9390D3,Burushaski,,India
Buruwai [asi-2],-3.55,133.33,#657B3D,Trans New Guinea,Asmat-Kamoro,Indonesia-Papua
Buryat [bxm],52,108,#778750,Mongolic,Core Mongolic,Russia
Busa [bqp],9.67,4,#99AB4C,Mande,Eastern Mande,Nigeria
Busa-2 [bqp-2],9.91,4.4,#7EAB35,Mande,Eastern Mande,Nigeria
Busami [bsm],-1.8,135.95,#607D3B,Malayo-Polynesian,Eastern Malayo-Polynesian,Indonesia-Papua
Bushong [buf],-4.67,21.3,#7FD288,Niger-Kongo,Atlantic-Congo,Democratic Republic of the Congo
Busoa [bup],-5.62,122.616,#949D6D,Malayo-Polynesian,Celebic,Indonesia-Sulawesi
Butmas_Tur [bnr],-15.376,167.028,#53856E,Oceanic,Southern Oceanic,Vanuatu
Buwal [bhs],10.5,13.86,#B462A3,Afro-Asiatic,Chadic,Cameroon
Buxing [bgk-2],21.48,101.57,#96BCAF,Austroasiatic,Khasi-Palaung,China
Buyang [yha],24,104.8,#A2C8D4,Tai-Kadai,Kadaic,China
Buyi_Hezhang [pcc-3],27.12,104.73,#A5DAB3,Tai-Kadai,Kam-Tai,China
Buyuan_Jino [jiy],22.05,101,#90E293,Tibeto-Burman,Lolo-Burmese,China
Bwaidoka [bwd],-9.479,150.311,#796154,Oceanic,Western Oceanic,Papua New Guinea
Bwala [xxx-115],-4.45,16.2,#A2BC8C,Niger-Kongo,Atlantic-Congo,Democratic Republic of the Congo
Byansi [bee],30.17,80.5,#84ACD4,Tibeto-Burman,Western Himalayan,India
C'lela [dri],11.47,5.27,#BF6CB5,Niger-Kongo,Atlantic-Congo,Nigeria
Caac [msq],-20.42,164.42,#758AE2,Oceanic,Southern Oceanic,New Caledonia
Cabecar [cjp],9.91,-83.68,#7EC891,Chibchan,Core Chibchan,Costa Rica
Cabiyarí [cbb],-0.1302,-70.6927,#5C6945,Arawak,Northern Maipuran,Colombia
Cacaopera [ccr],13.74,-88.11,#62584D,Misumalpan,Sumalpan,Nicaragua
Caddo [cad],33.33,-93.5,#8B7B37,Caddoan,Caddo,USA
Cadorino [ita-21],46.445,12.39,#7EAC8D,Indo-European,Romance,Italy
Cagayano [cgc-2],10.47,119.87,#5D6364,Malayo-Polynesian,Philippines,Philippines
Cagliaritano [ita-55],39.225,9.15,#89A698,Indo-European,Romance,Italy
Cahita [opt-2],27.9,-109,#798347,Uto-Aztecan,Cahitan,Mexico
Cahuilla [chl],33.75,-117.75,#8B4E96,Uto-Aztecan,North Uto-Aztecan,USA
Caijia_Niujiaojing [xxx-51],27.067,104.297,#A5CFBD,Tibeto-Burman,Macro-Bai,China
Caijia_Xingfa [xxx-45],26.934,104.863,#9DD3A5,Tibeto-Burman,Macro-Bai,China
Cak [ckh],21.41,92.6,#90BCA4,Tibeto-Burman,Jingpho,Bangladesh
Cakchiquel [ckf],14.5,-91,#98536F,Mayan,Core Mayan,Guatemala
Calabrian [scn-4],38.148,16.18,#9B98BB,Indo-European,Romance,Italy
Calabrian-2 [scn-3],38.92,16.6,#8D8DB9,Indo-European,Romance,Italy
Callahuaya [caw],-15,-69,#82509F,Puquina,,Bolivia
Calusa [xxx-100],27.76,-82.55,#59786D,Tunica,,USA
Camling [rab],27.3,86.8,#8391C3,Tibeto-Burman,Kiranti,Nepal
Campa [cni],-12,-74,#6F5C55,Arawak,Southern Maipuran,Peru
Campalagian [cml],-4.02,119.62,#548497,Malayo-Polynesian,Greater South Sulawesi,Indonesia-Sulawesi
Campobassano [ita-45],41.6,14.66,#819FA9,Indo-European,Romance,Italy
Camsá [kbh],1,-77,#92955C,Camsá,,Colombia
Camuno [lmo-7],45.943,10.28,#7BB593,Indo-European,Romance,Italy
Canamari [knm-2],-6.46,-68.78,#4F7660,Katukinan,,Brazil
Candoshi [cbu],-4.17,-77,#855D53,Candoshi,,Peru
Canela-Krahô [ram],-6.5,-45,#61AF74,Macro-Je,Je,Brazil
Canichana [caz],-14.31,-64.94,#756749,Canichana-Tequiraca,,Bolivia
Cantabrian_East [spa-7],43.3,-4.1,#638A92,Indo-European,Romance,Spain
Cantabrian_West [spa-8],43.3,-3.9,#60918B,Indo-European,Romance,Spain
Cantonese [yue],22.333,114,#8ED08B,Tibeto-Burman,Sinitic,Hong Kong
Cantonese_Nanning [yue-10],22.817,108.317,#94D287,Tibeto-Burman,Sinitic,China
Canzés [lmo-6],45.85,9.27,#86B2A7,Indo-European,Romance,Italy
Cao Bang [zyg-2],23.18,105.41,#93DFAB,Tai-Kadai,Kam-Tai,China
Caodeng_rGyalrong [jya-4],32.2,101.8,#A4B8B9,Tibeto-Burman,Na-Qiangic,China
Capanahua [kaq],-7,-74,#868341,Panoan,Southern Panoan,Peru
Cappadocian [cpg],38.66,34.85,#9586C7,Indo-European,Graeco-Phrygian,Turkey
Caquinte [cot],-11.7092,-73.9252,#66638C,Arawak,Southern Maipuran,Peru
Car [caq],9.167,92.75,#68A4A2,Austroasiatic,Nicobar,India_Andaman-Nicobars
Cara [cfd],10.13,8.75,#8ABA95,Niger-Kongo,Atlantic-Congo,Nigeria
Carapana [cbc],0.45,-71,#73901A,Tucanoan,East Tucanoan,Colombia
Carib [car],7.85,-59,#6A9751,Cariban,Guianan Carib,Guyana
Carib_Suriname [crb],5.7,-55.932,#5A823E,Arawak,Northern Maipuran,Suriname
Carib_Venezuela [crb-2],7.969,-65.67,#597C3D,Arawak,Northern Maipuran,Venezuela
Carijona [cbd],0.148,-70.708,#658346,Cariban,Guianan Carib,Colombia
Carolinian [cal],15,146,#828BB9,Oceanic,Micronesian,USA Northern Mariana Islands
Carrarese [ita-29],44.08,10.1,#7DA5A8,Indo-European,Romance,Italy
Cashibo-Cacataibo [cbr],-9.1,-75.5,#7D843F,Panoan,Southern Panoan,Peru
Cashinahua [cbs],-10.5,-71.75,#888932,Panoan,Southern Panoan,Peru
Castagniers [frp-4],43.79,7.23,#7CAC84,Indo-European,Romance,France
Castellanese [sdn-6],40.913,8.71,#8195BB,Indo-European,Romance,Italy-Sardinia
Catalan [cat],41.4,2.02,#7F9BBE,Indo-European,Romance,Spain
Catalan_Northern [cat-5],42.7,2.9,#7C8EC0,Indo-European,Romance,France
Catalan_Northwestern [cat-6],42.5,1.5,#7D8EC0,Indo-European,Romance,Andorra
Catanese [ita-52],37.5,15.1,#828DB2,Indo-European,Romance,Italy
Catanzarese [ita-51],38.9,16.6,#7D8BB7,Indo-European,Romance,Italy
Catawba [chc],34,-81,#76703D,Siouan,Eastern Siouan,USA
Cauho [pho-7],21.4,102,#93DEAC,Tibeto-Burman,Lolo-Burmese,Laos
Cavineña [cav],-12.25,-67.5,#725773,Tacanan,Cavineña,Bolivia
Cayapa [cbi],1.2,-78.75,#756BA7,Barbacoan,Southern Barbacoan,Ecuador
Cayapo [txu-2],-7.77,-51.67,#52B085,Macro-Je,Je,Brazil
Cayuga [cay],42.75,-76.75,#718324,Iroquoian,Northern Iroquoian,USA
Cayuse [xcy],46.11,-117.94,#8E5A62,Cayuse,,USA
Cayuvava [cyb],-12.5,-67,#7A934A,Cayuvava,,Bolivia
Ce [ruk],10,8.67,#81CDAA,Niger-Kongo,Atlantic-Congo,Nigeria
Cebuano [ceb],10,124,#5C568B,Malayo-Polynesian,Philippines,Philippines
Cemuhi [cam],-20.833,165,#74B498,Oceanic,Southern Oceanic,New Caledonia
Central !Kung [nmn-3],-19.57,18.12,#7D94C5,Tuu,Hua,Botswana
Central Banda [tor],6.64,22.76,#9CCE7F,Ubangian,Bandaic,Central African Republic
Central-Eastern Niger Fulfulde [fuq],15.09,8.43,#80B0A9,Niger-Kongo,Atlantic-Congo,Niger
Cerma [cme],10.249,-4.85,#6688A2,Niger-Kongo,Atlantic-Congo,Burkina Faso
Ch'ol [cti],17.49,-92.47,#857450,Mayan,Core Mayan,Mexico
Cha'palaachi [cbi-2],0.838,-78.877,#92589C,Barbacoan,Southern Barbacoan,Ecuador
Chachapuya [xxx-109],-6.42,-77.92,#7A6376,Chachapoya,,Peru
Chacobo [cao],-12.25,-65,#7F5E42,Panoan,Southern Panoan,Bolivia
Chadong [cdy],25.2,110.2,#A4D2CE,Tai-Kadai,Kam-Tai,China
Chaha [sgw],8.2,38,#997C50,Afro-Asiatic,Semitic,Ethiopia
Chakali [cli],9.83,-1.9,#86E397,Niger-Kongo,Atlantic-Congo,Ghana
Chakavian [hrv-2],45.17,14.85,#8FB97D,Indo-European,Balto-Slavic,Croatia
Chakhar [mon-5],44.94,115.38,#69976B,Mongolic,Core Mongolic,Mongolia
Chakhar-2 [mon-6],43,115,#705980,Mongolic,Core Mongolic,China
Chakma [ccp],22.9,92.23,#7CAC8E,Indo-European,Indo-Iranian,Bangladesh
Chakosi [cko-2],10.36,0.48,#79C28C,Niger-Kongo,Atlantic-Congo,Ghana
Chali [tgf],27.3,91.26,#8AA9C9,Tibeto-Burman,Bodic,Bhutan
Chaling [gan-20],28.81,113.64,#9FDD98,Tibeto-Burman,Sinitic,China
Cham_Eastern [cjm],10.93,108.1,#7ABDAE,Malayo-Polynesian,Malayo-Sumbawan,Vietnam
Cham_Western [cja],12,105.5,#70A3AC,Malayo-Polynesian,Malayo-Sumbawan,Cambodia
Chama [ese-5],-11.33,-66.25,#815F43,Tacanan,Takanik-Chamik,Bolivia
Chamacoco [ceg],-22.3578,-59.7197,#897E55,Zamucoan,,Paraguay
Chamalal_Gigatil [cji],42.54,46.06,#B34879,Nakh-Daghestanian,Avar-Andi,Russia
Chamalal_Nizhnee_Gakvari [cji-2],42.53,46.05,#B64879,Nakh-Daghestanian,Avar-Andi,Russia
Chamba [ndi-2],8.19,11.74,#7FCD8D,Niger-Kongo,Atlantic-Congo,Cameroon
Chambri [can],-4.167,143.083,#63B15F,Lower Sepik-Ramu,Lower Sepik,Papua New Guinea
Chamicuro [ccc],-5.114,-75.736,#7D7BA5,Arawak,Western Maipuran,Peru
Chamorro [cha],13.583,145,#6CA67C,Malayo-Polynesian,Chamorro,Guam
Chaná [qsi],-34,-55,#6F7A66,Charruan,,Uruguay
Chang Naga [nbc],26.23,94.817,#7B889B,Tibeto-Burman,Konyak,India
Changana [tso-2],-24.516,31.504,#A49EC4,Niger-Kongo,Atlantic-Congo,South Africa
Changchow [nan-25],24.75,117.833,#9AD997,Tibeto-Burman,Sinitic,China
Changchun [cmn-21],43.88,125.32,#9EDBA1,Tibeto-Burman,Sinitic,China
Changle [cmn-48],25.92,119.55,#9CD596,Tibeto-Burman,Sinitic,China
Changpaoyao [bmt-2],25.417,107.88,#A8E5D3,Hmong-Mien,Mienic,China
Changsha [hsn],28,113,#9ADE92,Tibeto-Burman,Sinitic,China
Changting [hak-14],25.83,116.35,#94D891,Tibeto-Burman,Sinitic,China
Changzhi [cjy-4],36.167,113,#8DC86B,Tibeto-Burman,Sinitic,China
Changzhou [wuu-32],31.783,119.967,#9AE0AF,Tibeto-Burman,Sinitic,China
Channel_English [eng-8],49.44,-2.367,#98AA96,Indo-European,Germanic,Britain
Chantyal [chx],28.75,83.5,#6DA0B0,Tibeto-Burman,Bodic,Nepal
Chaoyang [nan-42],23.32,116.48,#91DC73,Tibeto-Burman,Sinitic,China
Chaozhou [nan-26],23.667,116.667,#8CDE86,Tibeto-Burman,Sinitic,China
Chaplino [ess-2],65,-173,#844A7A,Eskimo-Aleut,Eskimo,Russia
Chaplino_Alaska [ess-3],63.5,-170.5,#9F39AB,Eskimo-Aleut,Eskimo,USA-Alaska
Chara [cra],6.64,36.42,#9B637E,Afro-Asiatic,Omotic,Ethiopia
Chara-2 [cra-2],6.617,36.238,#956A51,Afro-Asiatic,Omotic,Ethiopia
Charleroi [wln-2],50.41,4.45,#75A28D,Indo-European,Romance,Belgium
Chatino [ctp],16.5,-97.25,#89CB61,Otomanguean,Eastern Otomanguean,Mexico
Chatino_Tataltepec [cta],16.3,-97.55,#A4B99A,Otomanguean,Eastern Otomanguean,Mexico
Chatino_Yaitepec [ctp-2],16.225,-97.27,#89D25D,Otomanguean,Eastern Otomanguean,Mexico
Chatino_Zenzontepec [czn],17.34,-92.34,#90705E,Otomanguean,Eastern Otomanguean,Mexico
Chattisgarhi [hne],21.25,81.25,#7893BE,Indo-European,Indo-Iranian,India
Chaudangsi [cdn],29.7,80.48,#84A2ED,Tibeto-Burman,Western Himalayan,India
Che [ruk-2],10.03,8.65,#87C1AA,Niger-Kongo,Atlantic-Congo,Nigeria
Che'_Wong [cwg],3.833,102,#6D8FB5,Austroasiatic,Aslian,Malaysia
Chechen [che],43.13,45.54,#BF6797,Nakh-Daghestanian,Nakh,Russia
Chechen_Pẋarçxoy Äqqiy [che-4],43.12,46.48,#C17B7C,Nakh-Daghestanian,Nakh,Russia
Chechen_Şaroy [che-3],42.63,45.8,#B75984,Nakh-Daghestanian,Nakh,Russia
Chechen_Ҫ̇äberloy [che-2],42.6,46,#B75984,Nakh-Daghestanian,Nakh,Russia
Cheke_Holo_Maringe [mrn],-8.5,159.67,#8B85CD,Oceanic,Western Oceanic,Solomons
Chemakum [xch],48.08,-122.93,#A92E6A,Chimakuan,,USA
Chemehuevi [ute-2],34.33,-115.17,#914A8C,Uto-Aztecan,Numic,USA
Chemnitz [nds-5],50.83,12.92,#A08F8A,Indo-European,Germanic,Germany
Chenapian [cjn],-4.25,142.33,#6EAA5B,Sepik,Iwam-Wogamus,Papua New Guinea
Chenchu [cde],15.88,79.25,#496E83,Dravidian,South-Central Dravidian,India
Cheng [jeg],15,107.167,#65AD8B,Austroasiatic,Bahnaric,Laos
Chengdu [cmn-14],30.6,104.1,#91D984,Tibeto-Burman,Sinitic,China
Chengfeng [xxx-87],29.685,113.49,#A6BEC4,Hmong-Mien,Hmongic,China
Chengqiao [wuu-6],31.63,121.4,#A2F094,Tibeto-Burman,Sinitic,China
Chenxian [hsn-18],26.34,113.285,#90E287,Tibeto-Burman,Sinitic,China
Chenzhou [hsn-8],25.77,113.01,#8FE286,Tibeto-Burman,Sinitic,China
Chepang [cdm],28.05,83.92,#9597DE,Tibeto-Burman,Chepang,Nepal
Cheremis [mrj],55.624,55.484,#83989C,Uralic,Mari,Russia
Cherepon [cpn],6.05,-0.11,#75A595,Niger-Kongo,Atlantic-Congo,Ghana
Cherokee [chr],35.5,-83.5,#717F33,Iroquoian,Southern Iroquoian,USA
Cherokee_lower [chr-3],37.48,-82.53,#768327,Iroquoian,Southern Iroquoian,USA
Cherokee_Qualla [chr-2],35.5,-83.26,#6A7636,Iroquoian,Southern Iroquoian,USA
Cheyenne [chy],43.5,-104,#737A21,Algic,Algonquian,USA
Chiapanec [cip],16.66,-91.94,#6D824F,Otomanguean,Western Otomanguean,Mexico
Chibcha [chb-2],9.2,-74.5,#7B7349,Chibchan,Core Chibchan,Colombia
Chichewa [nya-2],-14.8,32.81,#A9B9A8,Niger-Kongo,Atlantic-Congo,Malawi
Chichimec [pei],24.87,-103.7,#A28F70,Otomanguean,Western Otomanguean,Mexico
Chickasaw [cic],34,-88,#8A8F46,Muskogean,Western Muskogean,USA
Chietino [ita-44],42.35,14.17,#81999E,Indo-European,Romance,Italy
Chifundi [swh-13],-4.57,39.43,#977EA7,Niger-Kongo,Atlantic-Congo,Tanzania
Chiguano_Izoceño [gui-2],-20,-63,#7B8417,Tupian,Tupi-Guarani,Bolivia
ChiKunda [kdn],-15.73,30.28,#9FBF7D,Niger-Kongo,Atlantic-Congo,Mozambique
Chilcotin [clc],52,-125,#CB3575,Dene-Yeniseic,Na-Dene,Canada
Chimane [cas-4],-14.64,-67.84,#828552,Moseten,Chimane,Bolivia
Chimariko [cid],41,-123,#9E469E,Chimariko,,USA
Chimila [cbg],10.75,-73,#8390B9,Chibchan,Core Chibchan,Colombia
Chimwiini [swh-4],1.1,43,#8B8CAD,Niger-Kongo,Atlantic-Congo,Somalia
Chin_Daai [dao],21.1,93.65,#96C39D,Tibeto-Burman,Kuki-Chin-Naga,Myanmar
Chin_Daai_Mkuui [dao-2],21.25,93.5,#91C7B5,Tibeto-Burman,Kuki-Chin-Naga,Myanmar
Chin_Falam [cfm],22.9,93.67,#8EA8C3,Tibeto-Burman,Kuki-Chin-Naga,Myanmar
Chin_Tiddim [ctd],23.333,93.667,#77C283,Tibeto-Burman,Kuki-Chin-Naga,Myanmar
Chinali [cih],32.5,77.83,#8180C9,Indo-European,Indo-Iranian,India
Chinantec_Chiltepec [csa],17.93,-96.17,#7BBE72,Otomanguean,Western Otomanguean,Mexico
Chinantec_Comaltepec [cco],17.57,-96.55,#81DA71,Otomanguean,Western Otomanguean,Mexico
Chinantec_La-Alicia [xxx-96],17.64,-96.02,#7FCF8A,Otomanguean,Western Otomanguean,Mexico
Chinantec_Lacova [xxx-80],17.46,-95.94,#85CE8A,Otomanguean,Western Otomanguean,Mexico
Chinantec_Lalana [cnl],17.475,-95.875,#8DE38A,Otomanguean,Western Otomanguean,Mexico
Chinantec_Latani [tpx-2],17.38,-95.91,#80C674,Otomanguean,Western Otomanguean,Mexico
Chinantec_Lealao [cle],17.32,-95.93,#8BCD8E,Otomanguean,Western Otomanguean,Mexico
Chinantec_Mayultianguis [xxx-99],17.92,-96.57,#80C674,Otomanguean,Western Otomanguean,Mexico
Chinantec_Ojitlan [chj],18.05,-96.4,#80D98E,Otomanguean,Western Otomanguean,Mexico
Chinantec_Ozumacin [chz],17.68,-96.23,#88DA90,Otomanguean,Western Otomanguean,Mexico
Chinantec_Palantla [cpa],17.83,-96.39,#87D36F,Otomanguean,Western Otomanguean,Mexico
Chinantec_Petlapa [xxx-105],17.48,-96.025,#85CE8A,Otomanguean,Western Otomanguean,Mexico
Chinantec_Quetzalapa [xxx-93],17.34,-95.88,#87D37E,Otomanguean,Western Otomanguean,Mexico
Chinantec_Quiotepec [chq],17.6,-96.58,#96DB98,Otomanguean,Western Otomanguean,Mexico
Chinantec_Rio-Chiquito [xxx-95],17.6,-95.97,#81CC85,Otomanguean,Western Otomanguean,Mexico
Chinantec_Sochiapam [cso],17.825,-96.67,#8DD86A,Otomanguean,Western Otomanguean,Mexico
Chinantec_Temextitlan [cco-2],17.59,-96.55,#75B33B,Otomanguean,Western Otomanguean,Mexico
Chinantec_Teotalcingo [xxx-94],17.42,-95.95,#85CE8A,Otomanguean,Western Otomanguean,Mexico
Chinantec_Tepetotutla [cnt],17.26,-96.11,#8ADE87,Otomanguean,Western Otomanguean,Mexico
Chinantec_Tlacoatzintepec [ctl],17.86,-96.6,#88D37A,Otomanguean,Western Otomanguean,Mexico
Chinantec_Usila [cuc],17.89,-96.52,#85DC83,Otomanguean,Western Otomanguean,Mexico
Chinantec_Valle_Nacional [cvn],17.77,-96.3,#7AC066,Otomanguean,Western Otomanguean,Mexico
Chinantec_Yolox [xty],17.61,-96.57,#85C876,Otomanguean,Western Otomanguean,Mexico
Chindamba [ndj],-8.4,36.03,#7FB268,Niger-Kongo,Atlantic-Congo,Tanzania
Chinook [chh],46,-124,#963E63,Chinook,Lower Chinook,USA
Chinsenga [nse],-11.63,29.02,#93ADA0,Niger-Kongo,Atlantic-Congo,Mozambique
ChiNyanja [nya],-15,35,#9ABE88,Niger-Kongo,Atlantic-Congo,Malawi
Chioggiotto [ita-23],44.22,12.28,#72AB8C,Indo-European,Romance,Italy
Chipaya [cap],-19,-68,#AE49BA,Uru-Chipaya,,Bolivia
Chiquimulilla [xin-2],14.08,-90.38,#A156A9,Xinca,,Guatemala
Chiquitano [cax],-17.5,-62,#7F6E4D,Chiquitano,,Bolivia
Chiquitano_Migueleño [cax-2],-17,-60.97,#727151,Chiquitano,,Bolivia
Chiricahua [apm],33.5,-108,#BC7A51,Dene-Yeniseic,Na-Dene,USA
Chiriguano_Chané [gui-3],-17.793,-63.18,#688143,Tupian,Tupi-Guarani,Bolivia
Chiru [cdf],24.99,93.5,#7DBE86,Tibeto-Burman,Kuki-Chin-Naga,India
Chitimacha [ctm],29.67,-91,#8B873C,Totozoquean-Chitimacha,Chitimacha,USA
Chitoniya_Tharu [the],27.58,84.41,#7C83DA,Indo-European,Indo-Iranian,Nepal
Chittagong [ben-2],22.37,91.8,#919A8A,Indo-European,Indo-Iranian,Bangladesh
Chiwere [iow-2],40.05,-95.52,#746664,Siouan,Western Siouan,USA
Chöcangacakha [cgk],27.53,91.14,#8FBEC0,Tibeto-Burman,Bodic,Bhutan
Chöcangacakha-2 [cgk-2],27.55,90.92,#8AC6A0,Tibeto-Burman,Bodic,Bhutan
Chochenyo [cst],37.65,-121.91,#75566A,Yok-Utian,Utian,USA
Chocho [coz],17.67,-97.33,#9ABE81,Otomanguean,Eastern Otomanguean,Mexico
Choctaw [cho],32.25,-88.5,#80733E,Muskogean,Western Muskogean,USA
Chokobo [cbo],10.35,8.85,#8CB69C,Niger-Kongo,Atlantic-Congo,Nigeria
Chokri [nri],26.67,93.75,#94BDCC,Tibeto-Burman,Kuki-Chin-Naga,India
Chokri-2 [nri-2],25.7,94.3,#9DC3B7,Tibeto-Burman,Kuki-Chin-Naga,India
Chokwe [cjk],-9.702,22.876,#9BBF95,Niger-Kongo,Atlantic-Congo,Democratic Republic of the Congo
Cholon [cht],-8,-77.5,#735B69,Cholon,,Peru
Chomo [cfg],8.87,10.82,#8A9D29,Niger-Kongo,Atlantic-Congo,Nigeria
Chong [cog-2],12.91,102.01,#74ABB6,Austroasiatic,Pearic,Thailand
Chongming [wuu-35],31.67,121.5,#A2CFBA,Tibeto-Burman,Sinitic,China
Chongqing [cmn-61],29.55,106.6,#9AE084,Tibeto-Burman,Sinitic,China
Chongyang [gan-3],29.55,114.17,#94E186,Tibeto-Burman,Sinitic,China
Chono [xxx-70],-46,-75,#6C779A,Chonan,Chonan Proper,Chile
Chontal [chd],18.17,-92.58,#948364,Mayan,Core Mayan,Mexico
Chontal [clo],16.3,-95.5,#846061,Tequistlatecan,,Mexico
Chonyi [coh],-3.8,39.76,#99A8B3,Niger-Kongo,Atlantic-Congo,Kenya
Chopi [cce],-24.718,34.744,#7DB47F,Niger-Kongo,Atlantic-Congo,Mozambique
Chori [cry],9.59,8.06,#A2A2B8,Niger-Kongo,Atlantic-Congo,Nigeria
Chorote [crq],-22,-63,#7B6796,Matacoan,Mataguayo II,Argentina
Chorti [caa],14.8,-89.3,#8E5B60,Mayan,Core Mayan,Guatemala
Chrau [crw],10.667,107.5,#70A59A,Austroasiatic,Bahnaric,Vietnam
Chru [cje],11.774,108.575,#5F96A0,Malayo-Polynesian,Malayo-Sumbawan,Vietnam
Chuave [cjv],-6.168,145.119,#6EA639,Trans New Guinea,Chimbu-Wahgi,Papua New Guinea
Chuj [cac],16,-91.5,#7F5675,Mayan,Core Mayan,Mexico
Chuj_Ixtatán [cnm],15.833,-91.483,#86548B,Mayan,Core Mayan,Guatemala
Chukchansi [yok-4],36.99,-119.64,#A454B0,Yok-Utian,Yokuts,USA
Chukchi [ckt],67,-173,#4E6579,Chukotko-Kamchatkan,Main Chukotko-Kamchatkan,Russia
Chulym [clw],54.32,89.55,#9E8CBE,Turkic,Common Turkic,Russia
Chumash [boi],34.5,-120.25,#B969B3,Chumashan,South Chumashan,USA
Chumash_Barbareño [boi-2],34.46,-119.7,#BF61AF,Chumashan,South Chumashan,USA
Chumash_Cruzeño [veo-4],34.05,-119.86,#BD63AF,Chumashan,South Chumashan,USA
Chumash_Ineseño [inz],34.61,-120.09,#BF64AF,Chumashan,South Chumashan,USA
Chumash_Obispeño [veo-5],35.29,-120.67,#C05BA8,Chumashan,North Chumashan,USA
Chumash_Purisimeño [veo-2],34.69,-120.43,#C15CAA,Chumashan,South Chumashan,USA
Chumash_Ventureño [veo],34.22,-118.72,#BC68A1,Chumashan,South Chumashan,USA
Chumash_Ventureño-Mitsqanaqan [veo-3],34.28,-119.23,#BD6BA3,Chumashan,South Chumashan,USA
Chumburung [ncu],8.15,-0.28,#7DBC8D,Niger-Kongo,Atlantic-Congo,Ghana
Chung [scq],14.004,99.55,#75A3B9,Austroasiatic,Pearic,Laos
Chungcheong_Korean [kor-6],35.83,127.15,#82BD70,Korean,,Korea
Chuukese [chk],7.333,151.75,#55A088,Oceanic,Micronesian,USA Federated States of Micronesia
Chuvash [chv],55.5,47.5,#6A9194,Turkic,Oghur,Russia
Chuwabu [chw],-17.36,37.1,#83A5BA,Niger-Kongo,Atlantic-Congo,Mozambique
Chuxnabán_Mixe [pxm],17,-96,#7E994C,Totozoquean-Chitimacha,Totozoquean,Mexico
Ciacia [cia],-5.75,122.75,#5E9074,Malayo-Polynesian,Celebic,Indonesia-Sulawesi
Cicipu [awc],10.911,5.703,#B1975E,Niger-Kongo,Atlantic-Congo,Nigeria
Cijomvu [swh-11],-3.98,39.62,#8E7FC1,Niger-Kongo,Atlantic-Congo,Tanzania
CiLuba [lua],-6,22,#87B166,Niger-Kongo,Atlantic-Congo,Democratic Republic of the Congo
Cimbrian [cim],45.62,11.13,#9898C1,Indo-European,Germanic,Italy
Cisuundi [sdj],-5.56,12.19,#99A566,Niger-Kongo,Atlantic-Congo,Angola
Citak [tml],-5.509,139.218,#527F48,Trans New Guinea,Asmat-Kamoro,Indonesia-Papua
Citumbuka [tum],-11,33.5,#8BAE98,Niger-Kongo,Atlantic-Congo,Malawi
Coahuilteco [xcw],28,-100,#A95A62,Coahuilteco,,USA
Cocama-Cocamilla [cod],-5,-74.3,#4F695F,Tupian,Tupi-Guarani,Peru
Cochimi [coj],27.28,-112.89,#914D7E,Yuman-Cochimi,Cochimi,Mexico
Coconucan [cca],2.55,-76.65,#605F84,Barbacoan,Northern Barbacoan,Colombia
Cocopa [coc],32.5,-115,#884197,Yuman-Cochimi,Yuman,USA
Coeur d'Alene [crd],47.33,-117,#C126A5,Salish,Interior Salish,USA
Cofan [con],0.25,-77,#999E5B,Kofan,,Ecuador
Cog-rtse_rGyalrong-2 [jya-5],31.5,102,#9C94BB,Tibeto-Burman,Na-Qiangic,China
Cognino [ita-12],45.61,7.36,#8CAEAB,Indo-European,Romance,Italy
Cogtse Gyarong [jya],32.1,100.6,#958CC8,Tibeto-Burman,Na-Qiangic,China
Col [liw],-3.3,102.86,#5D8199,Malayo-Polynesian,Malayo-Sumbawan,Indonesia-Sumatra
Colac [xxx-42],-38.33,143.5,#4B69DD,Pama-Nyungan,Kulinic,Australia
Colloquial_Tamil [tam-7],9.23,78.12,#6274C1,Dravidian,South Dravidian,India
Columbian [col-2],48.22,-118.45,#BB18A1,Salish,Interior Salish,USA
Comacchiese [ita-31],44.7,12.18,#85ADA9,Indo-European,Romance,Italy
Comanche [com],33.5,-101.5,#727633,Uto-Aztecan,Numic,USA
Comecrudo [xcm],26.09,-98.28,#72504B,Coahuiltecan,,Mexico
Comorian [wlc-2],-12.17,44.25,#AA7C97,Niger-Kongo,Atlantic-Congo,Comoros
Comox [coo],49.75,-125,#BD249A,Salish,Central Salish,Canada
Cone [adx-4],34.58,103.5,#A4C9BC,Tibeto-Burman,Bodic,China
Congjiang [kmc-2],25.752,108.91,#A4C5D0,Tai-Kadai,Kam-Tai,China
Coos [csz],43.5,-124.17,#BC4779,Coos,,USA
Cora [crn],23.333,-99,#8E627A,Uto-Aztecan,Corachol,Mexico
Cora_Ixcatan [crn-2],20.88,-103.35,#79548A,Uto-Aztecan,Corachol,Mexico
Cornish [cor],50.5,-4.5,#A3A47F,Indo-European,Celtic,Britain
Corsican [cos],42.1,9.5,#8560B5,Indo-European,Romance,France
Cosao [xxx-25],21.62,101.567,#A3DCB2,Tibeto-Burman,Lolo-Burmese,China
Cotabato_Manobo_Kalamansig [mta-2],6.421,124.29,#67834B,Malayo-Polynesian,Philippines,Philippines
Cowlitz [cow],46.5,-123.17,#A72972,Salish,Tsamosan,USA
Cree_East [crl],50.42,-73.87,#776735,Algic,Algonquian,Canada
Cree_Moose [crm],51.33,-80.5,#736441,Algic,Algonquian,Canada
Cree_Plains [crk],54,-116,#696E31,Algic,Algonquian,Canada
Cree_Swampy [csw],54.5,-84,#6B683E,Algic,Algonquian,Canada
Cree_Woods [cwd],57.5,-100.5,#706D31,Algic,Algonquian,Canada
Creek [mus],30.41,-85.2,#799441,Muskogean,Creek,USA
Cremonese [lmo-8],45.13,10.03,#87AAA5,Indo-European,Romance,Italy
Crimean Tatar [crh],45.58,34.1,#A18489,Turkic,Common Turkic,Ukraine
Crimean Tatar_northern [crh-4],46.38,35.19,#937C92,Turkic,Common Turkic,Ukraine
Crimean Tatar_south central [crh-3],45.06,34.6,#A38684,Turkic,Common Turkic,Ukraine
Crimean Tatar_southern [crh-2],44.5,34.16,#98927B,Turkic,Common Turkic,Ukraine
Croatian [hrv],45.5,17.3,#8B60A4,Indo-European,Balto-Slavic,Croatia
Cross_River_Mbembe [mfn],6.17,8.24,#8DB994,Niger-Kongo,Atlantic-Congo,Nigeria
Crow [cro],45.5,-108,#779227,Siouan,Western Siouan,USA
Cua [cua],15.167,108.667,#7EC1AF,Austroasiatic,Bahnaric,Vietnam
Cubeo [cub],1.33,-70.5,#739216,Tucanoan,Central Tucanoan,Colombia
Cuiba [cui],6.5,-70.5,#768E45,Guahiban,Central Guahiban,Colombia
Cuicatec [xtu],17.98,-96.72,#7F902A,Otomanguean,Eastern Otomanguean,Mexico
Cuitlatec [qpb],18.1,-100.34,#82704B,Cuitlatec,,Mexico
Cup'ik [esu-2],61.525,-165.65,#854A94,Eskimo-Aleut,Eskimo,USA-Alaska
Cupeño [cup],33.17,-116.5,#89429E,Uto-Aztecan,North Uto-Aztecan,USA
Cuquila Mixtec [mie],17.2,-97.755,#8B9841,Otomanguean,Eastern Otomanguean,Mexico
Cuvok [cuv],10.7,14,#994D6D,Afro-Asiatic,Chadic,Cameroon
Cuwabo [chw-2],-17.32,37.14,#748BBF,Niger-Kongo,Atlantic-Congo,Mozambique
Czech [ces],50,14.5,#9D5793,Indo-European,Balto-Slavic,Czech Republic
Da'a [kzf],-1.356,119.549,#668E71,Malayo-Polynesian,Celebic,Indonesia-Sulawesi
Daakaka [bpa],-16.269,167.964,#61AB8E,Oceanic,Southern Oceanic,Vanuatu
Daakie [ptv],-16.32,168.04,#6FA69F,Oceanic,Southern Oceanic,Vanuatu
Daats'íin [dtn],12.6,35.8,#AAA594,Nilo-Saharan,Gumuz,Ethiopia
Daba [dbq],10.1,13.8,#A06CB8,Afro-Asiatic,Chadic,Cameroon
Dabu [hak-29],24.35,116.7,#9EDE99,Tibeto-Burman,Sinitic,China
