name,latitude,longitude,color,family,subgroup,country
!Xoon [nmn],-24,21.5,#5F598D,Tuu,!Kwi,Botswana
/Xam [xam],-30.34,21.82,#666B88,Tuu,!Kwi,South Africa
||Ana [xxx-2],-22.2,22.4,#596F6F,Khoe,Khoe,Botswana
||Ani [hnh],-19.3,22.5,#58895C,Khoe,Khoe,Botswana
||Gana [gnk],-19,22.5,#538257,Khoe,Khoe,Botswana
||Xekwi [xeg],-23,22,#4575C0,Tuu,!Kwi,Botswana
|Gwi [gwj],-22.435,21.654,#528556,Khoe,Khoe,Botswana
A'iwa [ash],-2,-74.5,#8C4B68,A'iwa,,Peru
A'jië [aji],-21.342,165.459,#AF9F7A,Oceanic,,New Caledonia
Aari [aiw],6,36.6,#4E6394,Afro-Asiatic,Omotic,Ethiopia
Abanyom [abm],6.499,8.647,#879E7C,Niger-Kongo,Bantoid,Nigeria
Abau [aau],-4,141.167,#8D6D5A,Sepik,Abau,Papua New Guinea
Abaza [abq],44.34,41.67,#373B85,North-west Caucasus,Abaza-Abkhaz,Russia
Abelam [abt-2],-3.83,143.17,#AA8E8E,Sepik,Ndu,Papua New Guinea
Abenaki_Western [abe],44,-72.25,#7C7966,Algic,Algonquian,USA
Aberdeenshire English [sco-3],57.3,-2,#596AC0,Indo-European,Germanic,Britain
Abinomn [bsa],-3,138.8,#A04969,Abinomn,,Indonesia
Abipon [axb],-26,-61,#9C7B76,Guaicuruan,Southern,Argentina
Abkhaz [abk],43,41.03,#544881,North-west Caucasus,Abaza-Abkhaz,Georgia
Abma [app],-15.75,168.083,#9B6362,Oceanic,Southern Oceanic,Vanuatu
Abua [abn],4.8,6.654167,#5E998C,Niger-Kongo,CrossRiver,Nigeria
Abui [abz],-8.417,124.6,#8C6A72,Timor-Alor-Pantar,Alor-Pantar,Indonesia
Abujh Maria [mrr-2],18.75,80.68,#9A5BA5,Dravidian,South-central,India
Abun [kgr],-0.833,132,#795F7C,West Papuan,Birds Head,Indonesia
Acatec [agu-2],15.7,-91.617,#7B5B7A,Mayan,Kanjobal-Chuj,Guatemala
Aceh_Lhokseumawe [ace-6],5.19,97.14,#82AC99,Malayo-Polynesian,Malayo-Sumbawan,Indonesia
Aceh_Pidie [ace-7],5.38,95.96,#8AB59D,Malayo-Polynesian,Malayo-Sumbawan,Indonesia
Acehnese [ace],5.333,96.167,#7A859F,Malayo-Polynesian,Malayo-Sumbawan,Indonesia
Acehnese_Northeast [ace-5],4.62,97.62,#6C8397,Malayo-Polynesian,Malayo-Sumbawan,Indonesia
Acehnese_South [ace-3],4.1,96.23,#688298,Malayo-Polynesian,Malayo-Sumbawan,Indonesia
Acehnese_Southwest [ace-2],5.05,95.34,#68829B,Malayo-Polynesian,Malayo-Sumbawan,Indonesia
Acehnese_West [ace-4],5.47,95.26,#66829C,Malayo-Polynesian,Malayo-Sumbawan,Indonesia
Achagua [aca],4.002,-72.814,#7E517E,Arawak,North,Colombia
Achang_Lianghe [acn ],24.8,98.3,#41C34D,Tibeto-Burman,Lolo-Burmese,China
Achang_Longchuan [can-2],24.25,97.833,#3FAD4F,Tibeto-Burman,Lolo-Burmese,China
Achang_Luxi [can-3],24.527,103.764,#45A94D,Tibeto-Burman,Lolo-Burmese,China
Aché [guq],-25.25,-55.17,#8A4E8A,Tupi,Tupi-Guarani,Paraguay
Achi [acr],15.25,-90.5,#8B6494,Mayan,Quiche-Mam,Guatemala
Achuar [acu],-3,-76,#957D74,Jivaroan,,Peru
Achumawi [acv],41.5,-121,#756B5C,Palaihnihan,,USA
Acooli [ach],3.293,32.871,#93A293,Nilo-Saharan,East_Sudanic,Uganda
Adang [adn],-8.163,124.456,#8E8477,Timor-Alor-Pantar,Alor-Pantar,Indonesia
Adangme [ada],5.8,0.33,#5385A8,Niger-Kongo,Kwa,Ghana
Adyghe [ady],44.1,39.08,#4E5686,North-west Caucasus,Circassian,Russia
Adynyamathanha [adt],-31,139.5,#CBB0B6,Pama-Nyungan,Yura,Australia
Adzera [azr],-6.417,146.25,#9A7890,Oceanic,Western Oceanic,Papua New Guinea
Aeka [aez],-8.601,147.994,#8A865F,Trans New Guinea,Binanderean,Papua New Guinea
Afar [aar],12,41,#B964A8,Afro-Asiatic,Cushitic,Ethiopia
Afitti [aft],12.44,31,#8D9E80,Nilo-Saharan,Eastern Sudanic,Sudan
Afshar [azj-2],37.475,57.33,#7D6B8A,Turkic,South-west,Iran
Agarabi [agd],-6.25,145.917,#B17252,Trans New Guinea,Kainantu,Papua New Guinea
Aghem [agq],6.39,10.12,#36B66D,Niger-Kongo,Bantoid,Cameroon
Aghu [ahh],-6.333,140,#7D7B55,Trans New Guinea,Awyu-Dumut,Indonesia
Agta [agt],17.967,121.833,#7E9482,Malayo-Polynesian,Philippines,Philippines
Aguaruna [agr],-5.25,-78,#994A8C,Jivaroan,,Peru
Aguatec [agu],15.4,-91.4,#7B4C6C,Mayan,Quiche-Mam,Guatemala
Agul [agx],41.78,47.59,#3A5B8F,Nakh-Daghestanian,Lezgic,Russia
Agul_Burkixan [agx-2],41.78,47.6,#3E6196,Nakh-Daghestanian,Lezgic,Russia
Agul_Burshag [agx-3],41.86,47.62,#475F98,Nakh-Daghestanian,Lezgic,Russia
Agul_Fite [agx-4],41.79,47.59,#366499,Nakh-Daghestanian,Lezgic,Russia
Agul_Richa [agx-5],41.78,47.61,#32609D,Nakh-Daghestanian,Lezgic,Russia
Agutaynen [agn],11.15,120.95,#A39A77,Malayo-Polynesian,Philippines,Philippines
Agwamin [wmi],-16.986,143.001,#C5A7AA,Pama-Nyungan,,Australia
Ahi [yix],24.4,103.4,#2BA35A,Tibeto-Burman,Lolo-Burmese,China
Ahom [aho],25,95,#59A481,Tai-Kadai,South,India
Ahtna [aht],62,-145,#5B655C,Dene-Yeniseic,Na-Dene,USA
Ai-cham_Diwo [aih],25.8,107,#24A770,Tai-Kadai,South,China
Aikaná [tba],-12.1,-60.6,#837971,Aikaná,,Brazil
Ainu [ain],43.5,142,#A3615A,Ainu,,Japan
Airoran [air],-1.7,138.15,#A76D66,Kwerba,West,Indonesia
Aisi [mmq],-5.35,145.15,#9B9064,Trans New Guinea,Madang,Papua New Guinea
Ait Seghrouchen [tzm-2],33,-5,#7150B4,Afro-Asiatic,Berber,Morocco
Aita Rotokas [roo-2],-6,155.08,#B37C5F,West Bougainville,,Papua New Guinea
Aiton [aio-2],24,94,#70B178,Tai-Kadai,South,India
Aitutaki [rar-2],-18.872,-159.782,#B58B5E,Oceanic,,Cook Islands
Aiwoo [nfl],-10.5,166.5,#A68B74,Oceanic,TeMotu,Solomons
Aizi [ahp],5.25,-4.5,#5F9D7F,Niger-Kongo,Kru,Côte d'Ivoire
Aka [hru],27.2,92.9,#33878C,Tibeto-Burman,Hrusish,India
Akan [aka],6.5,-1.25,#825B6C,Niger-Kongo,Kwa,Ghana
Akawaio [ake],6,-59.5,#9D5C84,Cariban,Venezuelan,Guyana
Akei [tsr],-15.49,166.75,#AE7C61,Oceanic,,Vanuatu
Akha [ahk],20.3,99.6,#6E839B,Tibeto-Burman,Lolo-Burmese,Thailand
Akha_Buli [ahk-6],21.2,101.15,#49AF85,Tibeto-Burman,Lolo-Burmese,Laos
Akha_Senchai [ahk-2],27,96,#288696,Tibeto-Burman,Lolo-Burmese,Myanmar
Aklanon [akl],11.58,122.33,#97987C,Malayo-Polynesian,Philippines,Philippines
Akosse [bss],5,9.7,#777685,Niger-Kongo,Bantoid,Cameroon
Akoye [miw-2],-7.645,145.65,#8E6F43,Trans New Guinea,Angan,Papua New Guinea
Akuntsu [aqz],-12.74,-60.8,#B3885A,Tupi,Tupari,Brazil
Akurio [ako],3.0132,-55.6434,#B37988,Cariban,Guianan,Suriname
Akwa [akw],-0.005,15.612,#719582,Niger-Kongo,Bantoid,Congo
Alaala [nrz],-9,146.667,#999762,Oceanic,Western Oceanic,Papua New Guinea
Alabama [akz],32.7,-86.1,#8F547D,Muskogean,Eastern,USA
Alacalufe_Central [alc-2],-53.528,-70.9573,#856B67,Alaculufan,,Chile
Alacalufe_Southern [alc-3],-55.2,-69.4,#87688D,Alaculufan,,Chile
Alamblak [amp],-4.667,143.25,#9C5569,Sepik,Sepik Hill,Papua New Guinea
Alas Batak [btz],2.64,98,#879C78,Malayo-Polynesian,Batak-Barrier Islands,Indonesia
Alawa [alh],-15.75,134.333,#C1BA83,Mara-Warndarang-Alawa,,Australia
Albanian Gheg [aln],42.43,20.73,#5164CE,Indo-European,Albanian,Albania
Albanian Tosk [als],40.5,20,#485FAA,Indo-European,Albanian,Albania
Albanian_Upper Reka [aln-2],41.72,20.57,#5949A7,Indo-European,Albanian,Montenegro
Albanican_Cham [als-4],39.6,20.8,#5A56AB,Indo-European,Albanian,Greece
Albanican_Lab [als-5],40.17,19.83,#5859AA,Indo-European,Albanian,Greece
Alekano [gah-2],-6,145.4,#7E6048,Trans New Guinea,Gorokan,Papua New Guinea
Aleut [ale],54,-166,#70887F,Eskimo-Aleut,Aleut,USA
Aleut_Atkan [ale-4],52,-174,#76669B,Eskimo-Aleut,Aleut,USA
Aleut_Attuan [ale-2],52.85,-173,#796A7A,Eskimo-Aleut,Aleut,USA
Aleut_Eastern [ale-3],54.75,-164,#7C6890,Eskimo-Aleut,Aleut,USA
Algonquin [alq],46,-82,#815995,Algic,Algonquian,Canada
Ali [ykm],-3.17,142.25,#AC8E73,Oceanic,,Papua New Guinea
Alladian [ald],5.17,-4.33,#5C8283,Niger-Kongo,Kwa,Côte d'Ivoire
Allentiac [qbt],-32,-66,#7E7285,Huarpe,,Argentina
Alngith [aid],-12.5,142.17,#BBA7A9,Pama-Nyungan,,Australia
Alor [aol],-8.245,124.412,#9B727C,Malayo-Polynesian,Timoric,Indonesia
Alsatian [gsw-2],48.32,7.44,#787D7C,Indo-European,Germanic,France
Alsea [aes],44.67,-123.93,#6A4C55,Alsean,,USA
Altai [alt],51,87,#817B92,Turkic,North-east,Russia
Altai_Kumandy [atv],51.3,87.7,#B58FA0,Turkic,North-east,Russia
Alumbis Murut [mvv],4.799,115.496,#9D856C,Malayo-Polynesian,North Borneo,Malaysia
Alune [alp],-3.167,128.333,#9D5B55,Malayo-Polynesian,Central Maluku,Indonesia
Alur [alz],2.5,31.25,#50A8A2,Nilo-Saharan,East_Sudanic,Uganda
Alutiiq [ems],61.53,-165.58,#7A7D70,Eskimo-Aleut,Eskimo,USA
Alyawarr [aly],-24.6,134.5,#B8C48E,Pama-Nyungan,Arandic,Australia
Alyutor [alr],61,165,#9B7A92,Chukotko-Kamchatkan,Main,Russia
Ama [amm],-4.168,141.671,#995C41,Left May,,Papua New Guinea
Amahai_Soahuku [amq],-3.332,128.949,#AB8368,Malayo-Polynesian,Central Maluku,Indonesia
Amahuaca [amc],-10.8,-73.5,#7E4875,Panoan,Main,Peru
Amaimon [ali],-5.193,145.325,#9C7E98,Trans New Guinea,Madang,Papua New Guinea
Amam [wer-2],-7.92,147.2,#AE8478,Trans New Guinea,Goilala,Papua New Guinea
Amami_Ryukyu [ams],28,129,#716086,Japonic,Ryukyuan,Japan
Amanab [amn],-3.5,141.167,#957D73,Trans New Guinea,Border,Papua New Guinea
Amanutun [aoz-2],-9.69,124.83,#906B58,Malayo-Polynesian,Timoric,Indonesia
Amara [aie],-5.533,148.667,#A09D7B,Oceanic,Western Oceanic,Papua New Guinea
Amarakaeri [amr],-12.6938,-70.3235,#9D7F5E,Harakmbet,,Peru
Amarasi [aaz],-10.08,124.33,#9E6388,Malayo-Polynesian,Timoric,Indonesia
Amba_Nembao [utp],-11.27,166.48,#9D7770,Oceanic,,Solomons
Ambae_West [omb],-15.5,167.75,#B07C66,Oceanic,Southern Oceanic,Vanuatu
Ambai [amk],-1.917,136.733,#AD4F82,Malayo-Polynesian,Eastern Malayo-Polynesian,Indonesia
Ambel [xmt-2],-0.05,130.7,#847A57,Malayo-Polynesian,Eastern Malayo-Polynesian,Indonesia
Amblong [alm],-15.497,166.926,#A27E62,Oceanic,,Vanuatu
Ambonese Malay [abs],-3.7,128.2,#999A8A,Malayo-Polynesian,Malayo-Sumbawan,Indonesia
Ambrym_North [mmg],-16.08,168.08,#7E8697,Oceanic,,Vanuatu
Ambrym_Southeast [tvk-2],-16.33,168.08,#9B8266,Oceanic,,Vanuatu
Ambulas [abt],-3.75,143.083,#A88873,Sepik,Ndu,Papua New Guinea
Amdo [adx],36,94,#559C86,Tibeto-Burman,Bodic,China
Ameland [frs-2],53.45,5.77,#6B6986,Indo-European,Germanic,Netherlands
Amele [aey],-5.25,145.75,#8D5264,Trans New Guinea,Madang,Papua New Guinea
Amharic [amh],10,38,#7142AE,Afro-Asiatic,Semitic,Ethiopia
Ami [amy],-14,130,#C7AA9C,Western Daly,,Australia
Amis [ami],23.333,121.333,#968F62,Austronesian,East Formosan,Taiwan
Amo [amo],10.33,8.67,#658195,Niger-Kongo,Kainji,Nigeria
Amoy [nan],24.5,118,#62864C,Tibeto-Burman,Sinitic,China
Ampale [apz],-6.753,146.107,#887C6A,Trans New Guinea,Angan,Papua New Guinea
Amuesha [ame],-10,-73,#915D77,Arawak,South-Southwest,Peru
Amundava [adw],-10.9942,-63.0642,#A27860,Tupi,Tupi-Guarani,Brazil
Amurdak [amg],-12.022,132.892,#D2B990,Iwaidjan,,Australia
Amuzgo [amu],16.83,-98,#7C7859,Otomanguean,Amuzgo,Mexico
Amuzgo_Huixtepec [amu-2],16.5,-98.1,#7E6A71,Otomanguean,Amuzgo,Mexico
Amuzgo_San Pedro [azg],16.85,-98,#7A8A67,Otomanguean,Amuzgo,Mexico
Amuzgo_Xochistlahuaca [amu],16.79,-98.24,#757466,Otomanguean,Amuzgo,Mexico
Amwi [aml],25.209,92.068,#588E86,Austroasiatic,Khasic,India
Anaguta [nar],9.964,8.731,#668EAA,Niger-Kongo,Kainji,Nigeria
Anakalang [akg],-9.67,119.67,#908B8A,Malayo-Polynesian,Flores-Sawu-Sumba,Indonesia
Anal [anm],24.33,93.99,#56AA7B,Tibeto-Burman,Kuki-Chin-Naga,India
Anamuxra [imi],-4.667,145,#A07252,Trans New Guinea,Madang,Papua New Guinea
Andalusian [spa-3],37.5,-3.6,#835C9F,Indo-European,Romance,Spain
Andi [ani],42.79,46.27,#5763A5,Nakh-Daghestanian,Avar-Andi,Russia
Andi_Tad-Magitil [ani-2],42.75,46.25,#445E82,Nakh-Daghestanian,Avar-Andi,Russia
Andoa [anb],-2.9,-76.4051,#916B73,Zaparoan,Zaparo,Peru
Andoké [ano],0,-72,#874892,Andoké,,Colombia
Anejom [aty],-20.25,169.833,#78A175,Oceanic,Southern Oceanic,Vanuatu
Anem [anz],-5.667,149,#989B7E,Anem,,Papua New Guinea
Aneme Wake [aby],-9.733,148.52,#A04D55,Trans New Guinea,Southeast,Papua New Guinea
Angaatiha [agm],-7.22,146.25,#9F955E,Trans New Guinea,Angan,Papua New Guinea
Angal [age],-6,143.6,#8F8E57,Trans New Guinea,Engan,Papua New Guinea
Angal Heneng [akh],-6.13,143.42,#938871,Trans New Guinea,Engan,Papua New Guinea
Angami [njm],25.667,94.5,#3CA896,Tibeto-Burman,Kuki-Chin-Naga,India
Angas [anc],9.75,8.75,#4A89A7,Afro-Asiatic,Chadic,Nigeria
Anggor [agg],-3.667,141.167,#927970,Trans New Guinea,Border,Papua New Guinea
Anggreso [kwe-2],-2.17,138.25,#B95A6C,Kwerba,Nuclear,Indonesia
Angkamuthi [avm],-11.5,142.25,#BCA48A,Pama-Nyungan,,Australia
Angkola Batak [akb],1.518,99.531,#9A9888,Malayo-Polynesian,Batak-Barrier Islands,Indonesia
Anguthimri [xxx-3],-12.333,141.833,#A7AF9A,Pama-Nyungan,North Cape York,Australia
Ani Phowa [ypn],23.6,103.3,#16A484,Tibeto-Burman,Lolo-Burmese,China
Anii [blo],9.003,1.669,#5BA1B6,Niger-Kongo,Kwa,Benin
Anindilyagwa [aoi],-14,136.5,#C8B3B2,Anindilyagwa,,Australia
Aniwa [fut],-19.256,169.6,#A87888,Oceanic,,Vanuatu
Anjam [boj],-5.441,145.737,#A28A8E,Trans New Guinea,Madang,Papua New Guinea
Ankave [aak],-7.137,145.744,#B2845D,Trans New Guinea,Angan,Papua New Guinea
Anmatyerr_East [amx],-22.256,131.5,#C6C893,Pama-Nyungan,Arandic,Australia
Anmatyerr_West [amx-2],-21,135,#D0B2AE,Pama-Nyungan,Arandic,Australia
Anong [nun],27.2,98.8,#1BBD9E,Tibeto-Burman,Nungish,China
Ansus [and],-1.708,135.806,#AE5763,Malayo-Polynesian,Eastern Malayo-Polynesian,Indonesia
Anuak [anu],7.18,34.097,#9897AD,Nilo-Saharan,East_Sudanic,South Sudan
Anufo [cko],10.218,0.33,#7786AF,Niger-Kongo,Kwa,Ghana
Anuta [aud],-11.611,169.85,#B18361,Oceanic,,Solomons
Anyin [any],5.9,-2.9,#7B5E83,Niger-Kongo,Kwa,Côte d'Ivoire
Anywa [anu],7.3,33,#A9AE96,Nilo-Saharan,Eastern Sudanic,Sudan
Ao [njo],27,95,#79AE70,Tibeto-Burman,Kuki-Chin-Naga,India
Aore [aor],-15.577,167.181,#A48A67,Oceanic,,Vanuatu
Apache_Western [apw],33.9,-109.55,#3E5D74,Dene-Yeniseic,Na-Dene,USA
Apalachee [xap],30.04,-84.17,#907169,Muskogean,Eastern,USA
Apalai [apy],0,-54,#96534F,Cariban,Apalai,Brazil
Apali [ena],-5.088,145.017,#8B7771,Trans New Guinea,Madang,Papua New Guinea
Apatani [apt],27.4,93.8,#739886,Tibeto-Burman,Tani,India
Apiaká [api],-7.9484,-57.7365,#A39168,Tupi,Tupi-Guarani,Brazil
Apinaye [apn],-6.25,-48,#A47F8D,Macro-Je,Je,Brazil
Apurinã [apu],-9,-67,#944A6B,Arawak,South-Southwest,Brazil
Aputai [apx],-7.888,126.505,#9A796A,Malayo-Polynesian,Timoric,Indonesia
Arabana [ard],-28,137,#CDBC9F,Pama-Nyungan,Karnic,Australia
Arabela [arl],-2,-75.17,#9C5160,Zaparoan,Zaparo,Peru
Arabic [arb],30,42,#7846AE,Afro-Asiatic,Semitic,Saudi Arabia
Arabic_Abha [acw-4],18.22,42.51,#634FAD,Afro-Asiatic,Semitic,Saudi Arabia
Arabic_Afghanistan [acm-3],36.7,67.12,#6F4EC4,Afro-Asiatic,Semitic,Afghanistan
Arabic_Algerian [arq],36,5,#975191,Afro-Asiatic,Semitic,Algeria
Arabic_Andalusian [xaa],35.767,-5.8,#6B55CB,Afro-Asiatic,Semitic,Spain
Arabic_Basra [acm],30.5,47.825,#6157C3,Afro-Asiatic,Semitic,Iraq
Arabic_Bukhara [abh],39.77,64.43,#6E50B9,Afro-Asiatic,Semitic,Uzbekistan
Arabic_Chad [shu],14,19,#7676AD,Afro-Asiatic,Semitic,Chad
Arabic_Cypriot [acy],34.343,33.011,#826798,Afro-Asiatic,Semitic,Cyprus
Arabic_Egyptian [arz],30,30,#7645A2,Afro-Asiatic,Semitic,Egypt
Arabic_Gulf [afb],24,54,#646099,Afro-Asiatic,Semitic,United Arab Emirates
Arabic_Harb [acw-5],25.81,42.87,#5A4EC0,Afro-Asiatic,Semitic,Saudi Arabia
Arabic_Hassaniya [mey],16.6,-7.25,#7575CC,Afro-Asiatic,Semitic,Mauritania
Arabic_Hejazi [acw],21.543,41.173,#6B50BC,Afro-Asiatic,Semitic,Saudi Arabia
Arabic_Hejazi_Al'Ula [acw-3],26.627,37.917,#6C5297,Afro-Asiatic,Semitic,Saudi Arabia
Arabic_Jordanian [ajp-2],32,36,#6A5196,Afro-Asiatic,Semitic,Jordan
Arabic_Khuzestan [acm-2],31.33,48.69,#5D4FA3,Afro-Asiatic,Semitic,Iran
Arabic_Lebanese [apc-2],33.883,35.502,#9F6692,Afro-Asiatic,Semitic,Lebanon
Arabic_Libyan [ayl],32,13.25,#6764A6,Afro-Asiatic,Semitic,Libya
Arabic_Mardin [apc-3],37.363,40.91,#5458A6,Afro-Asiatic,Semitic,Turkey
Arabic_Mauritanian [mfe],18.083,-15.986,#90698C,Afro-Asiatic,Semitic,Mauritania
Arabic_Moroccan [ary],34,-7,#773FAC,Afro-Asiatic,Semitic,Morocco
Arabic_Najdi [acw-2],23,45.5,#7253B1,Afro-Asiatic,Semitic,Saudi Arabia
Arabic_Omani [acx],23.589,58.556,#6B59CA,Afro-Asiatic,Semitic,Oman
Arabic_Palestinian [ajp],31.769,35.6,#9A6A8F,Afro-Asiatic,Semitic,Palestine
Arabic_Sa'idi [aec],25,32.75,#7B5A85,Afro-Asiatic,Semitic,Egypt
Arabic_Saudi [ars],24.48,40,#A5588B,Afro-Asiatic,Semitic,Saudi Arabia
Arabic_Sudanese [apd],15.5,32.56,#6265AA,Afro-Asiatic,Semitic,Sudan
Arabic_Syrian [apc],33,37,#7350AD,Afro-Asiatic,Semitic,Syria
Arabic_Tunisian [aeb],36,10,#654AAC,Afro-Asiatic,Semitic,Tunisia
Arabic_Yemeni [jye],14,47,#715C9B,Afro-Asiatic,Semitic,Yemen
Arabic_Yemeni_Adeni [acq],11.5,43,#6D5C97,Afro-Asiatic,Semitic,Yemen
Arabic_Yemeni_Hadhrami [ayh],16.67,49.5,#7A5C96,Afro-Asiatic,Semitic,Yemen
Arabic_Yemeni_Tihamiyya [arb-3],13.083,43.833,#776591,Afro-Asiatic,Semitic,Yemen
Arabic_Yemeni_Zabidi [acq-2],14.2,43.317,#755A99,Afro-Asiatic,Semitic,Yemen
Aragonese [arg],41,-1,#945779,Indo-European,Romance,Spain
Araki [akr],-15.629,166.957,#9B856B,Oceanic,,Vanuatu
Aralle-Tabulahan [atq],-2.756,119.203,#988A60,Malayo-Polynesian,Greater South Sulawesi,Indonesia
Arammba [stk],-8.25,141.5,#85727A,South New Guinea,,Papua New Guinea
Arandai [jbj],-2.17,133,#A85677,Trans New Guinea,South Birds Head,Indonesia
Aranese [oci-5],42.7,0.795,#5D7198,Indo-European,Romance,Spain
Araona  [aro],-12.333,-67.75,#7C486C,Tacanan,Araona-Tacana,Bolivia
Arapaho [arp],39.565,-105.345,#884756,Algic,Algonquian,USA
Arapesh_Muhiang [aoj],-3.564,142.9,#837861,Torricelli,Kombio-Arapesh,Papua New Guinea
Arara do Acra [mcd-2],-8.841,-72.315,#804B71,Panoan,Main,Brazil
Arara do Mato Grosso [mcd-3],-9.5,-60,#778387,Arara_do_Mato_Grosso,,Brazil
Arara do Para [aap-2],-4.24,-53.34,#B19267,Cariban,,Brazil
Arára_Pará [aap],-4.2422,-53.3745,#B5766C,Cariban,Pekodian,Brazil
Araucanian [arn-2],-43,-73.5,#9F896F,Araucanian,,Chile
Arawak [arw],-8,-37.3,#994F7A,Arawak,North,Brazil
Araweté [awt],-4.142017,-52.416914,#A37062,Tupi,Tupi-Guarani,Brazil
Arbanasi [aln-3],44.11,15.23,#5E568D,Indo-European,Albanian,Croatia
Arbëresh [als-3],39.02,16.77,#5556A1,Indo-European,Albanian,Italy
Archi [aqc],42.07,46.86,#3E3C9F,Nakh-Daghestanian,Lezgic,Russia
Are 'Are [alu],-9.342,161.203,#AF6F68,Oceanic,,Solomons
Arem [aem],18.15,105.5,#449C9D,Austroasiatic,Vietic,Laos
Arguni [agf],-2.667,132.5,#967271,Malayo-Polynesian,Eastern Malayo-Polynesian,Indonesia
Ari [aac],-7.916,142.34,#AB756C,Trans New Guinea,Suki-Gogodala,Papua New Guinea
Aribwatsa [laz],-6.667,146.917,#998780,Oceanic,Western Oceanic,Papua New Guinea
Aribwaungg [ylu],-6.592,146.874,#8B72A1,Oceanic,,Papua New Guinea
Arifama-Miniafia [aai],-9.142,149.279,#9B4B66,Oceanic,,Papua New Guinea
Arikapu [ark],-13,-62.5,#935964,Macro-Je,Jabutí,Brazil
Arikara [ari],40,-97,#965E6A,Caddoan,Northern,USA
Aringa [luc],3,31,#4DA281,Nilo-Saharan,Central Sudanic,Uganda
Aritinngithigh [rrt],-13,141.67,#BBA27C,Pama-Nyungan,,Australia
Arizona Tewa [tew],35.8,-110.4,#6C635B,Kiowa-Tanoan,Tewa-Tiwa,USA
Armenian [hye],40,45,#4A4A91,Indo-European,Armenian,Armenia
Armenian_Agulis [hye-5],38.95,45.98,#504594,Indo-European,Armenian,Azerbaijan
Armenian_Aslanberg [hye-9],41.2,30.5,#51468D,Indo-European,Armenian,Turkey
Armenian_Kharpert [hye-8],38.67,39.22,#504594,Indo-European,Armenian,Armenia
Armenian_Khodorjur [hye-4],40.73,41.2,#504490,Indo-European,Armenian,Turkey
Armenian_Malatya [hye-7],38.35,38.3,#4F488C,Indo-European,Armenian,Turkey
Armenian_Sebastia [hye-6],39.75,37.02,#514494,Indo-European,Armenian,Armenia
Armenian_Van [hye-10],38.49,43.38,#5F4880,Indo-European,Armenian,Turkey
Armenian_Western [hye-2],40,40,#416A8E,Indo-European,Armenian,Turkey
Armenian_Yerevan [hye-11],40.18,44.52,#4F3F93,Indo-European,Armenian,Armenia
Aromanian [rup],42,23,#4E488F,Indo-European,Romance,Bulgaria
Arop-Lokep [apr],-5.333,147.083,#A78595,Oceanic,Western Oceanic,Papua New Guinea
Arosi [aia],-10.333,161.5,#A26D78,Oceanic,Southeast Solomonic,Solomons
Arrernte_Central [are],-22.85,133.7,#C8BBA9,Pama-Nyungan,Arandic,Australia
Arrernte_Eastern [are-2],-23.292,134.445,#C0C7B5,Pama-Nyungan,Arandic,Australia
Arrernte_Mparntwe [aer],-24,136,#C3BE97,Pama-Nyungan,Arandic,Australia
Arrernte_Pertame [xxx-82],-24.5,132,#BDCC96,Pama-Nyungan,Arandic,Australia
Arvanitika [als-2],38.42,23.08,#505BAC,Indo-European,Albanian,Greece
As [asz],-0.722,131.787,#9B7A7C,Malayo-Polynesian,Eastern Malayo-Polynesian,Indonesia
Asaro_Upper [aso],-5.967,145.292,#8D5E60,Trans New Guinea,Gorokan,Papua New Guinea
Asharon [acz],10.8,30.3,#A7A174,Kordofanian,Talodi,Sudan
Asheninka_Apurucayali [cpc],-10.018,-74.793,#8F506D,Arawak,South-Southwest,Peru
Ashéninka_Perené [prq],-10.8734,-75.245,#8C717E,Arawak,South-Southwest,Peru
Ashéninka_Pichis [cpu],-9.9833,-74.9833,#8F6D80,Arawak,South-Southwest,Peru
Ashéninka_Ucayali-Yurúa [cpb],-10.1619,-74.0234,#80629E,Arawak,South-Southwest,Brazil
Ashkun [ask],35.178,70.75,#867991,Indo-European,Indo-Iranian,Afghanistan
Ashuslay [cag-2],-23.5,-60.5,#707E61,Matacoan,Nivacle,Paraguay
Asienara [asi],-3.75,133.33,#A14A8B,Trans New Guinea,Asmat-Kamoro,Indonesia
Asmat [asc],-5.167,138.5,#AB5165,Trans New Guinea,Asmat-Kamoro,Indonesia
Asmat_North [nks],-5,138.5,#AF785F,Trans New Guinea,Asmat-Kamoro,Indonesia
Assamese [asm],26.5,93,#6D7B82,Indo-European,Indo-Iranian,India
Assiniboine [asb],49,-100,#653B67,Siouan,Western,Canada
Asturian [ast],43.33,-6,#8C7293,Indo-European,Romance,Spain
Asurini [asn],-3.3,-49.3,#9D846D,Tupi,Tupi-Guarani,Brazil
Asuriní_Tocantins [asu],-3.3,-50,#A57C6A,Tupi,Tupi-Guarani,Brazil
Ata [ata],-5.667,151,#A56E5A,Ata,,Papua New Guinea
Ata Manobo [atd],7.845,125.506,#998763,Malayo-Polynesian,Philippines,Philippines
Atacameño [kuz],-23,-69,#773C79,Atacameño,,Chile
Atakapa [aqp],30,-93,#7F7565,Atakapa,,USA
Atamanu [jal],-3.396,129.313,#958577,Malayo-Polynesian,Central Maluku,Indonesia
Atampaya [amz],-11.33,142.5,#BCA48A,Pama-Nyungan,,Australia
Atayal [tay],24.5,121,#867F94,Austronesian,Atayalic,Taiwan
Atchin [upv],-16,167.333,#767E80,Oceanic,Southern Oceanic,Vanuatu
Ateso [teo],1.915,33.955,#80869E,Nilo-Saharan,East_Sudanic,Uganda
Athpare [aph],26.75,87.33,#797379,Tibeto-Burman,Kiranti,Nepal
Atikamekw [atj],48,-74,#A66374,Algic,Algonquian,Canada
Atong [aot],25.5,90.5,#83878E,Tibeto-Burman,Bodo-Garo,India
Atsi [atb-2],28,93.5,#41A075,Tibeto-Burman,Lolo-Burmese,India
Atsugewi [atw],40.75,-121,#857078,Palaihnihan,,USA
Atta_Pamplona-1 [att-2],18.46,121.341,#AE8277,Malayo-Polynesian,Philippines,Philippines
Atta_Pamplona-2 [att],18.458,121.342,#A5847E,Malayo-Polynesian,Philippines,Philippines
Au [avt],-3.5,142.083,#A35D6D,Torricelli,Central,Papua New Guinea
Auhelawa [kud],-10.284,151.02,#965756,Oceanic,,Papua New Guinea
Aulua [aul],-16.33,167.694,#9A8576,Oceanic,,Vanuatu
Aurland [nob-3],60.87,7.23,#567BAC,Indo-European,Germanic,Norway
Austral [aut],-23.377,-149.498,#9B8753,Oceanic,,French Polynesia
Auyana [auy],-6.523,145.708,#9C5D5A,Trans New Guinea,Kainantu,Papua New Guinea
Auye [auu],-3.495,136.002,#AD6D49,Trans New Guinea,Wissel Lakes,Indonesia
Avá-Canoeiro [avv],-13.166403,-47.928611,#B3817F,Tupi,Tupi-Guarani,Brazil
Avar [ava],42.54,46.7,#552EA1,Nakh-Daghestanian,Avar-Andi,Russia
Avatime [avn],6.85,0.44,#468167,Niger-Kongo,Kwa,Ghana
Avava [tmb],-16.224,167.523,#92886B,Oceanic,,Vanuatu
Aveteian [xxx-101],-16.443,167.43,#969068,Oceanic,,Vanuatu
Avok [xxx-37],-16.53,167.7,#81896B,Oceanic,,Vanuatu
Avokaya [avu],5,30.2,#47A47E,Nilo-Saharan,Central Sudanic,Sudan
Awa [awb],-6.75,145.667,#9A7541,Trans New Guinea,Kainantu,Papua New Guinea
Awa Pit [kwi],0.75,-78.5,#73559B,Barbacoan,Northern,Ecuador
Awad Bing [bcu],-5.584,146.349,#968276,Oceanic,,Papua New Guinea
Awadhi [awa],27.5,81.5,#7579B1,Indo-European,Indo-Iranian,India
Awar [aya],-4,144.625,#848699,Lower Sepik-Ramu,Ramu,Papua New Guinea
Awara [awx],-6.094,146.441,#937A55,Oceanic,,Papua New Guinea
Awbono [awh],-5.119,139.201,#915F6E,Trans New Guinea,Awyu-Dumut,Indonesia
Aweer [bob],-1.717,40.967,#A1849A,Afro-Asiatic,Cushitic,Kenya
Awera [awr],-2.677,136.242,#BB755D,Lakes Plains,Western,Indonesia
Awetí [awe],-12.926,-54.277,#ABA07C,Tupi,Aweti,Brazil
Awin [awi],-5.833,142.5,#937668,Trans New Guinea,AwinPare,Papua New Guinea
Awing [azo],5.88,10.24,#688A60,Niger-Kongo,Bantoid,Cameroon
Awiya [som-2],10.851,36.892,#558F8F,Afro-Asiatic,Cushitic,Ethiopia
Awngi [awn],10.83,36.67,#7E869D,Afro-Asiatic,Cushitic,Ethiopia
Awtuw [kmn],-3.5,141.917,#B09282,Sepik,Ram,Papua New Guinea
Awyi [auw],-3,140.75,#9A7C63,Trans New Guinea,Border,Papua New Guinea
Axamb [ahb],-16.507,167.703,#8A807C,Oceanic,,Vanuatu
Axi [yix],24.4,103.44,#36A768,Tibeto-Burman,Lolo-Burmese,China
Axininca [cpc-2],-9,-75,#845569,Arawak,South-Southwest,Peru
Axvax [akv],42.379,46.384,#445196,Nakh-Daghestanian,Avar-Andi,Russia
Aymara [ayr],-16,-69.5,#8C589B,Aymaran,,Peru
Aymara_Chile [ayc],-19.15,-69.4,#7C6582,Aymaran,,Chile
Aymara_Muylaq' [ayr-2],-16.675,-70.712,#865979,Aymaran,,Peru
Äynu [aib],38.069,76.227,#6B6EB7,Turkic,South-east,China
Ayoré [ayo],-20.5,-59.25,#A4798A,Zamucoan,,Paraguay
Azerbaijani [azj],40.5,48.5,#8266A5,Turkic,South-west,Azerbaijan
Azeri [azb],40.67,47.75,#5950B3,Turkic,South-west,Azerbaijan
Azha [aza],23.37,104.25,#35A95E,Tibeto-Burman,Lolo-Burmese,China
Azhe [yiz],24.2,103.6,#2AAB6B,Tibeto-Burman,Lolo-Burmese,China
Ba:ngingi Sama [sse],6.133,121.805,#93A171,Malayo-Polynesian,Barito,Philippines
Baagandji [drl],-32,142.533,#CEC4A3,Pama-Nyungan,Baagandji,Australia
Babanki [bbk],6.104,10.311,#337D96,Niger-Kongo,Bantoid,Cameroon
Babar_North [bcd],-7.83,129.58,#9E7A6A,Malayo-Polynesian,Southeast Maluku,Indonesia
Babar_Southeast [vbb],-7.92,129.67,#917A6A,Malayo-Polynesian,Southeast Maluku,Indonesia
Babatana [baa],-7.397,157.37,#997665,Oceanic,,Solomons
Babine-Witsuwit'en [bcr],55,-127,#454F64,Dene-Yeniseic,Na-Dene,Canada
Babungo [bav],6.12,10.42,#5A7E6A,Niger-Kongo,Bantoid,Cameroon
Bača [slv-17],46.21,13.97,#635688,Indo-European,Balto-Slavic,Slovenia
Bachamal [xxx-72],-13.17,130.17,#BEA28B,Western Daly,,Australia
Bada [bhz],-1.793,120.313,#9F7B93,Malayo-Polynesian,Celebic,Indonesia
Badimaya [bia],-27.667,119,#C7BF8E,Pama-Nyungan,Kardu,Australia
Badjala [xby],-25.084,152.529,#BE96AD,Pama-Nyungan,,Australia
Badyara [pbp],11.633,-13.4,#8D9C93,Niger-Kongo,Atlantic,Guinea
Baelelea [bvc],-8.453,160.66,#B06C66,Oceanic,,Solomons
Baenggu [bvd],-8.506,160.706,#B46B65,Oceanic,,Solomons
Baetora [btr],-15.258,168.166,#AA6481,Oceanic,,Vanuatu
Bafo [bwt],6.351,10.229,#5E756B,Niger-Kongo,Bantoid,Cameroon
Bafut [bfd],6.083,10.0999,#3F7B99,Niger-Kongo,Bantoid,Cameroon
Baga Mboteni [bcg],10.83,-14.55,#81888A,Niger-Kongo,Atlantic,Guinea
Bagirmi [bmi],10.2,17,#8DAFCA,Nilo-Saharan,Central_Sudanic,Chad
Bagri [bgq],29.6,74.3,#6F63C1,Indo-European,Indo-Iranian,India
Bagulal [kva],42.56,46.17,#6563B3,Nakh-Daghestanian,Avar-Andi,Russia
Bagusa [kwe-3],-1.905,137.932,#B3518B,Kwerba,Nuclear,Indonesia
Bahinemo [bjh],-4.435,142.726,#8E5657,Sepik,Sepik Hill,Papua New Guinea
Bahing [bhj],27.27,86.56,#68B193,Tibeto-Burman,Kiranti,Nepal
Bahnar [bdq],14,108.5,#959B88,Austroasiatic,Bahnaric,Vietnam
Bai [bca],26,100,#3DA151,Tibeto-Burman,Bai,China
Baikeno [bkx],-9.3,124.32,#9C5273,Malayo-Polynesian,Timoric,Timor leste
Baima [bqh],30.32,107.34,#3C94A7,Tibeto-Burman,Bodic,China
Bainapi [dby],-7.904,142.715,#A7766D,Trans New Guinea,Bosavi,Papua New Guinea
Baining [gcc-2],-4.6,152,#928551,Baining,,Papua New Guinea
Bajau_Semporna [ssb],4.5,118.5,#867E71,Malayo-Polynesian,Barito,Indonesia
Bajau_Sulawesi [bdl],-3.75,122.5,#8B8574,Malayo-Polynesian,Barito,Indonesia
Baka [bdh],4.8,31.6,#62B385,Nilo-Saharan,Central Sudanic,Sudan
Bakairí [bkq],-14,-55,#854A98,Cariban,Pekodian,Brazil
Bakairí_West [bkq-2],-14.7302,-56.2479,#896E6D,Cariban,Pekodian,Brazil
Baki [bki],-16.717,168.138,#998070,Oceanic,,Vanuatu
Bakoko [bkh],4.2,9.67,#509871,Niger-Kongo,Bantoid,Cameroon
Balami [new-3],27.8,85.25,#6FA18C,Tibeto-Burman,Newaric,Nepal
Balangao [blw],17.167,120.333,#97A173,Malayo-Polynesian,Philippines,Philippines
Balanta [ble],12,-15,#798987,Niger-Kongo,Atlantic,Guinea Bissau
Balantak [blz],-0.82,123.431,#A3A375,Malayo-Polynesian,Celebic,Indonesia
Balearic [cat-3],39.5,3,#667DC3,Indo-European,Romance,Spain
Balendru [led],1.968,30.485,#4592D4,Nilo-Saharan,Central_Sudanic,Democratic Republic of the Congo
Bali-Vitu [wiv],-4.733,149.283,#B47886,Oceanic,Western Oceanic,Papua New Guinea
Balinese [ban],-8.583,115.25,#8BA091,Malayo-Polynesian,Malayo-Sumbawan,Indonesia
Balochi [bgp-2],27,63.5,#774EA0,Indo-European,Indo-Iranian,Pakistan
Balti [bft],35.2,76,#5289A8,Tibeto-Burman,Bodic,Pakistan
Baluchi [bgp],28,62,#55489F,Indo-European,Indo-Iranian,Iran
Bambara [bam],12.5,-7.5,#7D8AB1,Mande,Western,Mali
Bamu [bcf],-8,143.833,#A75768,Trans New Guinea,Kiwaian,Papua New Guinea
Bamun [bax],5.726,10.904,#5191B8,Niger-Kongo,Bantoid,Cameroon
Bana [bcw],10.42,13.58,#3B8A7C,Afro-Asiatic,Chadic,Cameroon
Banda [bnd],-5.25,133.17,#98777C,Malayo-Polynesian,Central Maluku,Indonesia
Banda [bpd],2,22,#527D80,Adamawa-Ubangi,Ubangi,Central African Republic
Bandiaal [bqj],13.02,-15.32,#98A071,Niger-Kongo,Atlantic,Senegal
Bandjalang [bdy],-28.75,153,#C6B086,Pama-Nyungan,Central-East,Australia
Bandjalang-2 [bdy-2],-28.39,152.61,#C4A17C,Pama-Nyungan,,Australia
Bandjalang-Gidabal [bdy-3],-28.25,152,#C5B184,Pama-Nyungan,Central-East,Australia
Banggai [bgz],-1.42,123.17,#9E9B98,Malayo-Polynesian,Celebic,Indonesia
Banggime [dbb],14.78,-3.76,#709B5F,Banggime,,Mali
Bangolan [bgj],6.05,10.45,#667D89,Niger-Kongo,Bantoid,Cameroon
Bangru [hru-3],27.9,93.35,#8A8F79,Tibeto-Burman,Hrusish,India
Bangubangu [bnx],-4.689,27.693,#6B6E76,Niger-Kongo,Bantoid,Democratic Republic of the Congo
Baniwa_Central [bwi-2],1.4091,-68.1358,#9B8D85,Arawak,,Brazil
Baniwa_Rio Negro [bwi],0.053,-67.43,#8E6090,Arawak,North,Brazil
Banjar [bjn],-2.5,115.5,#9D858A,Malayo-Polynesian,Malayo-Sumbawan,Indonesia
Banjari [lmn-2],16.5,77.455,#7D87A4,Indo-European,Indo-Iranian,India
Bankariya [cdm-2],27.5,85,#6BA1A7,Tibeto-Burman,Chepang,Nepal
Banoni [bcm],-6.417,155.25,#9E6A8A,Oceanic,Western Oceanic,Papua New Guinea
Bantang [pho-5],21.75,102.25,#35A46D,Tibeto-Burman,Lolo-Burmese,Laos
Bantawa [bap],27.2,87.1,#71AC75,Tibeto-Burman,Kiranti,Nepal
Bantik [bnq],1.564,124.859,#989660,Malayo-Polynesian,Celebic,Indonesia
Bantoanon [bno],12.784,122.049,#A28777,Malayo-Polynesian,Philippines,Philippines
Banyum [bab],11.5,-16.5,#799587,Niger-Kongo,Atlantic,Guinea-Bissau
Banyun [bcb],12.75,-16.3,#8896BA,Niger-Kongo,Atlantic,Senegal
Baoan [peh],35.05,102.1,#52A48C,Mongolic,Eastern,China
Baoan [yue-12],22.55,113.9,#63B85B,Tibeto-Burman,Sinitic,China
Bará [bao],0.1,-70.45,#AB5D80,Panoan,,Colombia
Baraba [tat-2],55.333,78.333,#797881,Turkic,North-west,Russia
Barai [bbb],-9.417,148,#AD4765,Trans New Guinea,Koiari,Papua New Guinea
Barain_Giliya [bva-2],12.08,18.58,#AD937E,Afro-Asiatic,,Chad
Barain_Jalking [bva-3],12.22,18.8,#AD937E,Afro-Asiatic,,Chad
Barain_Jalkiya [bva],12.18,18.68,#9F9983,Afro-Asiatic,,Chad
Barain_Komiya [bva-4],12.17,18.75,#9E9B7B,Afro-Asiatic,,Chad
Baram [brd],27.95,85,#72AC93,Tibeto-Burman,Western Himalayan,Nepal
Barang-barang [lji],-6.4,120.5,#9BA385,Malayo-Polynesian,Greater South Sulawesi,Indonesia
Barapasi [brp],-2.247,136.995,#97595F,Geelvink Bay,,Indonesia
Barasano [bsn],-0.25,-70.75,#935D5C,Tucanoan,East,Colombia
Bardi [bcj],-16.58,122.92,#CFB8B4,Nyulnyul,West,Australia
Bare [bae],1.6,-66.8,#7D5D6B,Arawak,North,Venezuela
Bareke [mpr],-8.543,158.113,#937871,Oceanic,,Solomons
Bargam [mlp-2],-4.87,145.76,#8A7E99,Trans New Guinea,Madang,Papua New Guinea
Bari [bfa],3.8,31,#7D7284,Nilo-Saharan,East_Sudanic,South Sudan
Barí [mot],9,-73.5,#956982,Chibchan,East,Venezuela
Bariai [bch],-5.497,148.63,#A78678,Oceanic,,Papua New Guinea
Bariba [bba],10.217,2.667,#7C896D,Niger-Kongo,Gur,Benin
Bariji [bjc],-9.211,148.401,#9D666D,Trans New Guinea,Southeast,Papua New Guinea
Barrow Point [bpt],-14.373,144.63,#C2A39C,Pama-Nyungan,,Australia
Baruga [bjz],-9.328,148.734,#93416E,Trans New Guinea,Binanderean,Papua New Guinea
Barunggam [xxx-64],-26.25,151.25,#C69E9A,Pama-Nyungan,,Australia
Barupu [wra],-3.083,142.083,#9A785C,Skou,East,Papua New Guinea
Baruya [byr],-6.917,145.833,#A18771,Trans New Guinea,Angan,Papua New Guinea
Basaa [bas],5,10.15,#7F9493,Niger-Kongo,Bantoid,Cameroon
Basari [bsc],12.25,-13,#758F87,Niger-Kongo,Gur,Senegal
Basay_Trobriawan [byq],25,122,#8B895C,Austronesian,East Formosan,Taiwan
Basel [gsw-4],47.56,7.59,#5E787A,Indo-European,Germanic,Switzerland
Bashkarik [gwc-2],35.358,72.137,#4A7DB2,Indo-European,Indo-Iranian,Pakistan
Bashkir [bak],53,58,#696982,Turkic,North-west,Russia
Basketo [bst],6.384,36.651,#655D99,Afro-Asiatic,Omotic,Ethiopia
Basque [eus],43.2,-3,#846790,Basque,,Spain
Bata [bta],9.7,12.5,#518399,Afro-Asiatic,Chadic,Nigeria
Batak Dairi [btd],2.546,98.3,#937F87,Malayo-Polynesian,Batak-Barrier Islands,Indonesia
Batak_Palawan [bya],10.115,119.214,#A49076,Malayo-Polynesian,Philippines,Philippines
Batang [khg-5],30.57,98.97,#21A165,Tibeto-Burman,Bodic,China
Bateg [btq],5,102.5,#8D9691,Austroasiatic,Aslian,Malaysia
Bathari [bhm],17.6,56,#59588D,Afro-Asiatic,Semitic,Oman
Batsbi [bbl-2],42.05,45.31,#7D79AD,Nakh-Daghestanian,Nakh,Georgia
Batuley [bay],-5.8,134.75,#9F7869,Malayo-Polynesian,Southeast Maluku,Indonesia
Bau [bbd],-5.213,145.556,#905862,Trans New Guinea,Madang,Papua New Guinea
Baukan Murut [bnb],5.273,116.519,#A98B75,Malayo-Polynesian,North Borneo,Malaysia
Baule [bci],7.5,-5,#776D5F,Niger-Kongo,Kwa,Côte d'Ivoire
Baure [brg],-15,-64,#A24964,Arawak,South-Southwest,Bolivia
Bauro [bxa],-10.647,161.858,#9C7199,Oceanic,,Solomons
Bauzi [bvz],-2.5,137.667,#7C5D63,Geelvink Bay,,Indonesia
Bawm [bgr],22.5,92.25,#51A4B4,Tibeto-Burman,Kuki-Chin-Naga,India
Bayso [baw],6.456,37.745,#764FBC,Afro-Asiatic,Cushitic,Ethiopia
Bayungu [bxj],-23.3,113.7,#D3B198,Pama-Nyungan,,Australia
Bduul [ajp-3],30.33,35.44,#6E49A5,Afro-Asiatic,Semitic,Syria
Bedamini [beo],-6.321,142.489,#98704D,Trans New Guinea,Bosavi,Papua New Guinea
Bedayuh [bth],1.01,110.51,#9583A6,Malayo-Polynesian,Land Dayak,Malaysia
Bedik [tnr],12.75,-12.467,#5D98AE,Niger-Kongo,Atlantic,Senegal
Begak [dbj-2],5.25,118.833,#9E8EA1,Malayo-Polynesian,North Borneo,Malaysia
Beihai [yue-6],21.47,109.1,#659749,Tibeto-Burman,Sinitic,China
Beja [bej],18,36,#844E83,Afro-Asiatic,Cushitic,Sudan
Bela [bxd-2],24.33,98.4,#448C6A,Tibeto-Burman,Lolo-Burmese,Myanmar
Belait [beg],4.382,114.462,#929578,Malayo-Polynesian,North Borneo,Malaysia
Belanda Boor [bxb],6.5,28,#97A992,Nilo-Saharan,Eastern Sudanic,Sudan
Belarussian [bel],54,27,#60578B,Indo-European,Balto-Slavic,Belarus
Belhare [byw],27,87.25,#74A874,Tibeto-Burman,Kiranti,Nepal
Beli [blm],6.75,29.75,#8BA78D,Nilo-Saharan,Central Sudanic,Sudan
Bella Coola [blc],52.5,-126.67,#825048,Salish,Bella Coola,Canada
Bellona [mnv-2],-11.296,159.79,#9A764F,Oceanic,,Solomons
Bemal [bmh],-5.234,145.475,#905D5D,Trans New Guinea,Madang,Papua New Guinea
Bemba [bem],-11,31,#888695,Niger-Kongo,Bantoid,Zambia
Bembe [bmb],-4,14,#6A6360,Niger-Kongo,Bantoid,Democratic Republic of the Congo
Bena-Bena [bef],-6.114,145.567,#8E474B,Trans New Guinea,Gorokan,Papua New Guinea
Bench [bcq],7,35.75,#415C87,Afro-Asiatic,Omotic,Ethiopia
Bende [bdp],-6,30.5,#6B8477,Niger-Kongo,Bantoid,Tanzania
Beng [nhb],7.83,-4.25,#8494AF,Mande,Eastern,Côte d'Ivoire
Benga [bng],1.2,9.5,#78708D,Niger-Kongo,Bantoid,Equatorial Guinea
Bengali [ben],22.5,90,#775482,Indo-European,Indo-Iranian,Bangladesh
Bengni [adi-3],28.66,93.37,#6C9F96,Tibeto-Burman,Tani,China
Beothuk [bue],48,-55,#986E76,Beothuk,,Canada
Berik [bkl],-2.25,138.92,#886B9F,Trans New Guinea,Tor,Indonesia
Berlinerisch [deu-3],52.5,13.15,#577483,Indo-European,Germanic,Germany
Bernese [gsw-3],46.83,7.62,#6A746D,Indo-European,Germanic,Switzerland
Berta [wti],10.67,34.5,#8069A5,Nilo-Saharan,Berta,Ethiopia
Besemah [pse],-4.2,103,#8C849A,Malayo-Polynesian,Malayo-Sumbawan,Indonesia
Bésiro [xxx-16],-16.6375,-61.9271,#966B67,Macro-Je,,Bolivia
Besoa [bep],-1.599,120.379,#9C7E72,Malayo-Polynesian,Celebic,Indonesia
Bété [btg],6.25,-6.25,#58BC7F,Niger-Kongo,Kru,Côte d'Ivoire
Bete [byf],7.05,9.748,#678078,Niger-Kongo,Kru,Nigeria
Betta_Kurumba [xub],11.58,76.55,#9B74AC,Dravidian,South,India
Bewani [pgi],-3.024,141.167,#987D57,Trans New Guinea,Border,Papua New Guinea
Bezhta [kap],42.14,46.13,#4E458E,Nakh-Daghestanian,Tsezic,Russia
Bhatibari [ben-4],26.48,89.54,#7F7497,Indo-European,Indo-Iranian,India
Bhili [bhb],22,73,#777AB4,Indo-European,Indo-Iranian,India
Bhili_Mahikantha [bhb-2],23.83,72.5,#5893B1,Indo-European,Indo-Iranian,India
Bhoi [kha-5],25.9,91.88,#8E907F,Austroasiatic,Khasic,India
Bhojpuri [bho],26.8,85.3,#7976A1,Indo-European,Indo-Iranian,India
Bhojpuri_Nagpuria [bho-4],23.36,85.33,#7A75C1,Indo-European,Indo-Iranian,India
Bhojpuri_Northern [bho-2],26.76,83.37,#7878A0,Indo-European,Indo-Iranian,India
Bhojpuri_Western [bho-3],25.32,83.01,#7878A0,Indo-European,Indo-Iranian,India
Bhumij [muw],21.333,86.5,#828BCD,Austroasiatic,Munda,India
Biak [bhw],-1,136,#A45765,Malayo-Polynesian,Eastern Malayo-Polynesian,Indonesia
Bian Marind [bpv],-7.222,140.548,#667F61,Marind,,Indonesia
Biangai [big],-7.33,146.75,#A47A6E,Trans New Guinea,Goilala,Papua New Guinea
Biaomin Yao [bmt],23.6,111.75,#48BF68,Hmong-Mien,Mienic,China
Biatah [bth-2],1.264,110.32,#9A8682,Malayo-Polynesian,Land Dayak,Indonesia
Bidjara [bym],-24.5,146.592,#C8BDA9,Pama-Nyungan,,Australia
Bierebo [bnk],-16.667,168.131,#998A67,Oceanic,,Vanuatu
Bieria [brj],-16.807,168.194,#9E8456,Oceanic,,Vanuatu
Bih [rad-2],12.48,108.025,#6EC484,Malayo-Polynesian,Malayo-Sumbawan,Vietnam
Bijago [bjg],11.28,-15.83,#949986,Niger-Kongo,Atlantic,Guinea Bissau
Bijago_Orango [bjg-2],11.25,-16.22,#AC8CB4,Niger-Kongo,Atlantic,Guinea Bissau
Bikol [bcl],13.333,123.5,#A1997B,Malayo-Polynesian,Philippines,Philippines
Biksi [yet],-4.013,140.494,#B38B65,Yetfa-Biksi,,Papua New Guinea
Bilba [bpz],-10.67,123.34,#94685B,Malayo-Polynesian,Timoric,Indonesia
Bilbil [brz],-5.26,145.76,#A97F84,Oceanic,,Papua New Guinea
Bilin [byn],15.9,38.3,#9977A1,Afro-Asiatic,Cushitic,Eritrea
Bilinara [nbj],-16,131.667,#D0BAAB,Pama-Nyungan,Ngumbin-Yapa,Australia
Biloxi [bll],32.25,-90,#784566,Siouan,Western,USA
Bilua [blb],-7.75,156.667,#A87772,Solomons East Papuan,,Solomons
Bima [bhp],-8.545,118.677,#807A87,Malayo-Polynesian,Bima,Indonesia
Bimin [bhl],-5.43,141.942,#A47B57,Trans New Guinea,Ok,Papua New Guinea
Bina [bmn],-10.249,149.683,#AE834D,Oceanic,,Papua New Guinea
Binandere [bhg],-8.167,147.917,#AD566A,Trans New Guinea,Binanderean,Papua New Guinea
Binbinga [wmb-2],-16.17,135,#D2ABA7,Mirndi,Barkly,Australia
Bine [bon],-9.05,142.884,#968386,Eastern Trans Fly,,Papua New Guinea
Bini [bin],6.42,5.83,#675874,Niger-Kongo,Edoid,Nigeria
Binigura [pnv],-22.488,116.506,#D5AFB0,Pama-Nyungan,,Australia
Bininj Gun-Wok [gup],-12.5,133.75,#B6B2BA,Gunwinyku,Marne,Australia
Bintulu [bny],3.83,113.67,#717B94,Malayo-Polynesian,North Borneo,Malaysia
Binukid [bkd],8.3,125,#9F8599,Malayo-Polynesian,Philippines,Philippines
Binumarien [bjr],-6.25,146.08,#A8664E,Trans New Guinea,Kainantu,Papua New Guinea
Binyang [cmn-36],23.22,108.82,#54AA5A,Tibeto-Burman,Sinitic,China
Bipi [biq],-2.109,146.4,#8A8E86,Oceanic,,Papua New Guinea
Birao [brr],-9.746,160.515,#A07E72,Oceanic,,Solomons
Birgid [btf],13,27,#728789,Nilo-Saharan,,Sudan
Biri [bvi],7.55,6.233,#42A2A0,Adamawa-Ubangi,Ubangi,Nigeria
Biri [bzr],-20.5,146.5,#CDBCA2,Pama-Nyungan,GreaterMari,Australia
Biritai [bqq],-3,137.6,#955645,Lakes Plains,Eastern,Indonesia
Birom [bom],9.67,8.83,#707C79,Niger-Kongo,Platoid,Nigeria
Bisa [bib],11.783,0.366,#82927B,Mande,Eastern,Burkina Faso
Bisayah_Sarawak [bsb],5.33,115.5,#878385,Malayo-Polynesian,North Borneo,Malaysia
Bishnupriya [bpy],25.08,92.92,#989D67,Indo-European,Indo-Iranian,India
Bisu [bii],19.75,100,#3C948F,Tibeto-Burman,Lolo-Burmese,Thailand
Bizkaian [eus-3],43.25,-2.98,#938579,Basque,,Spain
Blablanga [blp],-8.17,159.42,#787784,Oceanic,,Solomons
Blablanga_Ghove [blp-2],-8.33,159.5,#6B718A,Oceanic,,Solomons
Black_Tai [blt],19.75,105,#578A7A,Tai-Kadai,South,Vietnam
Blackfoot [bla],50,-112.67,#A45469,Algic,Algonquian,Canada
Blagar [beu],-8.33,124.25,#928098,Timor-Alor-Pantar,Alor-Pantar,Indonesia
Blang [blr],23.3,100,#74B17F,Austroasiatic,Palaungic,China
Boazi [kvg],-7,141.25,#736260,Marind,,Papua New Guinea
Boazi_Kuni [kvg-2],-6.913,141.326,#65787F,Marind,,Papua New Guinea
Bobangi [bni],0,17.8,#79707F,Niger-Kongo,Bantoid,Democratic Republic of the Congo
Bobo-Fing [bbo],11.83,-4.42,#718E7E,Mande,Western,Burkina Faso
Bobongko [bgb],-0.5,121.75,#A4938A,Malayo-Polynesian,Celebic,Indonesia
Bobot [bty],-3.33,130.17,#996889,Malayo-Polynesian,Central Maluku,Indonesia
Bocota [sab],9.34,-82.24,#9A7E7A,Chibchan,,Panama
Bogaya [boq],-5.621,142.231,#9C734B,Trans New Guinea,Duna,Papua New Guinea
Boholano [ceb-2],9.9,124.2,#A19593,Malayo-Polynesian,Philippines,Philippines
Bohutu [bxh],-10.5,150.33,#7D7862,Oceanic,,Papua New Guinea
Boiken [bzf],-3.525,143.415,#8A6665,Sepik,Ndu,Papua New Guinea
Bokar [adi-2],29,94.35,#8AAA86,Tibeto-Burman,Tani,India
Bola [bnp],-5.5,150,#AE7193,Oceanic,,Papua New Guinea
Bola [bxd-3],24.45,98.6,#3BA761,Tibeto-Burman,Lolo-Burmese,China
Bole [bol],11.007,10.747,#597899,Afro-Asiatic,Chadic,Nigeria
Bolinao [smk],16.341,119.893,#A88B74,Malayo-Polynesian,Philippines,Philippines
Bologna [ita-3],44.51,11.35,#718498,Indo-European,Romance,Italy
Bolyu [ply],24.78,105.35,#3AA668,Austroasiatic,Mangic,China
Bonda [bfw-2],19,82.75,#9C84BA,Austroasiatic,Munda,India
Bondei [bou],-5.082,38.432,#6B737D,Niger-Kongo,Bantoid,Tanzania
Bongaigaon [asm-2],26.48,90.56,#7F7197,Indo-European,Indo-Iranian,India
Bonggi [bdg],7.3,117.2,#A4767E,Malayo-Polynesian,North Borneo,Philippines
Bongo [bot],7.5,28,#868CBF,Nilo-Saharan,Central_Sudanic,Sudan
Bontok [bnc],17.083,120.917,#AD9893,Malayo-Polynesian,Philippines,Philippines
Bor [bvf],5.605,27.472,#A1A6BC,Nilo-Saharan,,South Sudan
Bora [boa],-2.25,-71.75,#8D547B,Witoto,Bora-Muinane,Peru
Bori [adi-7],28.2,94.6,#879480,Tibeto-Burman,Tani,India
Bornholmsk [scy],55,15,#497488,Indo-European,Germanic,Denmark
Boro [brx],26.75,92,#8C7F71,Tibeto-Burman,Bodo-Garo,India
Borong_Kosorong [ksr],-6.534,147.502,#948790,Trans New Guinea,Finisterre-Huon,Papua New Guinea
Boróro [bor],-15,-52,#A95B78,Macro-Je,Bororo,Brazil
Boruca [brn],9,-83.3,#7D7F7B,Chibchan,,Costa Rica
Bosavi [bco-2],-6.425,142.765,#868152,Trans New Guinea,Bosavi,Papua New Guinea
Bosnian [bos],44,18,#6F4F94,Indo-European,Balto-Slavic,Bosnia
Botin_Samban [kbx-2],-4.33,144.17,#9A8386,Lower Sepik-Ramu,Ramu,Papua New Guinea
Botlikh [bph],42.66,46.22,#626076,Nakh-Daghestanian,Avar-Andi,Russia
Bouye [bye],-3.714,141.883,#B88565,Sepik,Ram,Papua New Guinea
Bouyei [pcc-3],25.817,107.55,#5C9C55,Tai-Kadai,North,China
Bouyei_west [pcc-2],25.75,107.333,#7FB054,Tai-Kadai,North,China
Brag-g.yab [khg-2],30.65,97.55,#5AA8D0,Tibeto-Burman,Bodic,China
Brahui [brh],29,67,#6D45AB,Dravidian,North,Pakistan
Brajbhasha [bra],27.49,77.67,#735ADB,Indo-European,Indo-Iranian,India
Brao [brb],14,107,#75A0B6,Austroasiatic,Bahnaric,Vietnam
Brda [slv-9],46.47,15.14,#5B4697,Indo-European,Balto-Slavic,Slovenia
Breton [bre],48,-3.5,#5C5C79,Indo-European,Celtic,France
Bribri [bzd],9.5,-83,#834E8B,Chibchan,West,Costa Rica
Brokpa [sgt],27.33,92,#53A4AA,Tibeto-Burman,Bodic,Bhutan
Bru_Western [brv],16.75,104.75,#7EA885,Austroasiatic,Katuic,Laos
Brugge [vls-2],51.22,3.23,#5C7079,Indo-European,Germanic,Netherlands
Bruu [bru],17.167,104.333,#50A581,Austroasiatic,Katuic,Thailand
Buang_Central [bzh],-6.855,146.774,#9B7C97,Oceanic,,Papua New Guinea
Budong-bundong [bdx],-2.171,119.328,#9C807A,Malayo-Polynesian,Greater South Sulawesi,Indonesia
Buduma [bdm],13.6,14,#8D6279,Afro-Asiatic,Chadic,Chad
Budux [bdk],41.19,48.37,#443F94,Nakh-Daghestanian,Lezgic,Russia
Bugan [bbh],23.75,105,#34AF64,Austroasiatic,Mangic,China
Bughotu [bgt],-8.478,159.808,#986E96,Oceanic,,Solomons
Bugis [bug],-4,120,#8F9784,Malayo-Polynesian,Greater South Sulawesi,Indonesia
Bugun [bgn],27.3,92.35,#4D7CA4,Kho-Bwa,Bugun,India
Buhid [bku],12.574,121.25,#A3809D,Malayo-Polynesian,Philippines,Philippines
Buin [buo],-6.75,155.833,#B07C6A,East Bougainville,,Papua New Guinea
Bukawa [buk],-6.732,147.359,#886A57,Oceanic,,Papua New Guinea
Bukiyip_Arapesh [ape],-3.667,142.5,#84669E,Torricelli,Kombio-Arapesh,Papua New Guinea
Bukusu [bxk],1.02,35,#9B8372,Niger-Kongo,Bantoid,Kenya
Bularnu [yil],-21.5,137.5,#BDBDBB,Pama-Nyungan,Ngarna,Australia
Bulgarian [bul],43,25,#6D5288,Indo-European,Balto-Slavic,Bulgaria
Bulgarian_Banat [bul-2],45.7,20.9,#655496,Indo-European,Balto-Slavic,Bulgaria
Bulgarian_Moesian [bul-2],42.7,27.75,#7A598C,Indo-European,Balto-Slavic,Bulgaria
Buli [bzq],0.833,128.5,#8C8693,Malayo-Polynesian,Eastern Malayo-Polynesian,Indonesia
Bulu [bum],2.917,11.15,#628370,Niger-Kongo,Bantoid,Cameroon
Buma [tkw],-11.63,166.83,#B6847C,Oceanic,TeMotu,Solomons
Bumang [bvp],22.5,96.5,#2CA95D,Austroasiatic,Palaungic,Laos
Bumbita_Arapesh [aon],-3.667,142.833,#8D7D84,Torricelli,Kombio-Arapesh,Papua New Guinea
Bumthang [kjz],27.8,90.8,#49AEB7,Tibeto-Burman,Bodic,Bhutan
Bumthang_Ura [kjz-2],27.48,90.905,#49BE9B,Tibeto-Burman,Bodic,Bhutan
Bunama [bdd],-10.064,151.075,#A15E5A,Oceanic,,Papua New Guinea
Bunan [bfu],32.61,76.91,#428F96,Tibeto-Burman,Western Himalayan,India
Bunaq [bfn],-9.1,125.15,#7A656C,Timor-Alor-Pantar,Mainland,Indonesia
Bunaq_Lolotoen [bfn-2],-9.161,125.26,#6E875D,Timor-Alor-Pantar,Mainland,Timor leste
Bunaq_South [bfn-3],-9.227,125.393,#7A6A6A,Timor-Alor-Pantar,Mainland,Timor leste
Bundeli [bns],25.45,78.57,#806DB8,Indo-European,Indo-Iranian,India
Bunganditj [xbg],-36.5,141,#D7BEB0,Pama-Nyungan,,Australia
Bungku [bkz],-3,122.33,#968071,Malayo-Polynesian,Celebic,Indonesia
Bunu [buh],25.5,108.7,#30AF5C,Hmong-Mien,Hmongic,China
Bunuba [bck],-17.75,125.75,#CAC68E,Bunuban,,Australia
Bunun [bnn],23.5,121,#917F59,Austronesian,Bunun,Taiwan
Bunun_Isbukun [bnn-2],23.459,121.056,#798963,Austronesian,Bunun,Taiwan
Buol [blf],1,121.5,#98727D,Malayo-Polynesian,Philippines,Indonesia
Bura [bwr],10.611,12.195,#2C7FB6,Afro-Asiatic,Chadic,Nigeria
Burarra [bvr],-12.25,134.667,#B8B3B4,Maningrida,,Australia
Buriram_Khmer [kxm-2],15,103.1,#6E9D84,Austroasiatic,Khmer,Cambodia
Burji [bji],5.5,37.9,#8547BB,Afro-Asiatic,Cushitic,Ethiopia
Burmbar [vrt],-16.372,167.749,#A47E60,Oceanic,,Vanuatu
Burmese [mya],20,96,#50B866,Tibeto-Burman,Lolo-Burmese,Myanmar
Burmese_Arakan [mya-4],20.14,92.9,#49C26D,Tibeto-Burman,Lolo-Burmese,Myanmar
Burmese_Intha [mya-3],20.55,96.92,#51B650,Tibeto-Burman,Lolo-Burmese,Myanmar
Burmese_Myeik [mya-2],12.43,98.6,#50AA5F,Tibeto-Burman,Lolo-Burmese,Myanmar
Burmese_Tavoyan [mya-5],14.08,98.2,#42B161,Tibeto-Burman,Lolo-Burmese,Myanmar
Burmeso [bzu],-2.447,138.209,#A4436E,Burmeso,,Indonesia
Buru [mhs],-3.5,126.5,#94937E,Malayo-Polynesian,Central Maluku,Indonesia
Burum [bmu],-6.484,147.311,#A08C64,Trans New Guinea,Finisterre-Huon,Papua New Guinea
Burun [bdi],10.8,33.8,#A6AC92,Nilo-Saharan,Eastern Sudanic,Sudan
Burushaski [bsk],36.5,74.5,#5176B6,Burushaski,,Pakistan
Buryat [bxm],52,108,#7C6187,Mongolic,Eastern,Russia
Busa [bqp],9.67,4,#90845E,Mande,Eastern,Nigeria
Bushong [buf],-4.67,21.3,#7196A1,Niger-Kongo,Bantoid,Democratic Republic of the Congo
Busoa [bup],-5.62,122.616,#757C71,Malayo-Polynesian,Celebic,Indonesia
Butmas Tur [bnr],-15.376,167.028,#B38B63,Oceanic,,Vanuatu
Buwal [bhs],10.5,13.86,#418E7A,Afro-Asiatic,Chadic,Cameroon
Buyang [yha],24,104.8,#348B9B,Tai-Kadai,North,China
Buyuan Jino [jiy],22.05,101,#4F927E,Tibeto-Burman,Lolo-Burmese,China
Bwaidoka [bwd],-9.479,150.311,#92565A,Oceanic,,Papua New Guinea
Byansi [bee],30.17,80.5,#58B19C,Tibeto-Burman,Western Himalayan,India
Caac [msq],-20.42,164.42,#86AA7F,Oceanic,,New Caledonia
Cabecar [cjp],9.91,-83.68,#687FA2,Chibchan,,Costa Rica
Cabiyarí [cbb],-0.1302,-70.6927,#B16D86,Arawak,North,Colombia
Caddo [cad],33.33,-93.5,#73555F,Caddoan,Caddo,USA
Cahuilla [chl],33.75,-117.75,#8D7872,Uto-Aztecan,North,USA
Cakchiquel [ckf],14.5,-91,#7D526A,Mayan,Quiche-Mam,Guatemala
Callahuaya [caw],-15,-69,#7A5D82,Puquina,,Bolivia
Caló [rmq],41.5,0,#6A628C,Indo-European,Indo-Iranian,Spain
Camling [rab],27.3,86.8,#647C76,Tibeto-Burman,Kiranti,Nepal
Campa [cni],-12,-74,#9C4C6E,Arawak,South-Southwest,Peru
Camsá [kbh],1,-77,#7A5795,Camsá,,Colombia
Candoshi [cbu],-4.17,-77,#8A4C66,Candoshi,,Peru
Canela-Krahô [ram],-6.5,-45,#8EA163,Macro-Je,Je,Brazil
Cantabrian_East [spa-7],43.2,4.1,#876783,Indo-European,Romance,Spain
Cantabrian_West [spa-6],43.2,3.9,#886685,Indo-European,Romance,Spain
Cantonese [yue],22.333,114,#5EB171,Tibeto-Burman,Sinitic,China
Cantonese_Nanning [yue-4],22.817,108.317,#5EAE4D,Tibeto-Burman,Sinitic,China
Caodeng_rGyalrong [jya-2],32.2,101.8,#2189BF,Tibeto-Burman,Qiangic,China
Capanahua [kaq],-7,-74,#88527A,Panoan,Main,Peru
Cappadocian [cpg],38.66,34.85,#4B799D,Indo-European,Greek,Turkey
Caquinte [cot],-11.7092,-73.9252,#94679E,Arawak,South-Southwest,Peru
Car [caq],9.167,92.75,#89A782,Austroasiatic,Nicobar,India
Carapana [cbc],0.45,-71,#925863,Tucanoan,East,Colombia
Carib [car],7.85,-59,#9E6C7F,Cariban,Guianan,Guyana
Carijona [cbd-2],0.148,-70.708,#994D76,Cariban,Guianan,Colombia
Carolinian [cal],15,146,#707894,Oceanic,,USA Federated States of Micronesia
Carrier [crx],53.5,-125,#2D455C,Dene-Yeniseic,Na-Dene,Canada
Cashibo-Cacataibo [cbr],-9.1,-75.5,#8D4971,Panoan,Main,Peru
Cashinahua [cbs],-10.5,-71.75,#6C6D77,Panoan,Main,Peru
Catalan [cat],41.4,2.3,#736694,Indo-European,Romance,Spain
Catawba [chc],34,-81,#826979,Siouan,Eastern,USA
Cauho [pho-6],21.4,102,#4BA869,Tibeto-Burman,Lolo-Burmese,Laos
Cavineña [cav],-12.25,-67.5,#945A97,Tacanan,Araona-Tacana,Bolivia
Cayapa [cbi],1.2,-78.75,#8B6BA1,Barbacoan,Southern,Ecuador
Cayuga [cay],42.75,-76.75,#9C6B5E,Iroquoian,Northern,USA
Cayuvava [cyb],-12.5,-67,#89487C,Cayuvava,,Bolivia
Cebuano [ceb],10,124,#A49D8D,Malayo-Polynesian,Philippines,Philippines
Cemuhi [cam],-20.833,165,#98996C,Oceanic,Southern Oceanic,New Caledonia
Cerkno [slv-18],46.13,13.99,#564093,Indo-European,Balto-Slavic,Slovenia
Cerma [cme],10.25,-4.85,#84928A,Niger-Kongo,Gur,Burkina Faso
Cha'palaachi  [cbi-2],0.838,-78.877,#7566A9,Barbacoan,Southern,Ecuador
Chacobo [cao],-12.25,-65,#934661,Panoan,Southern,Bolivia
Chadong [cdy],25.2,110.2,#3DBC51,Tai-Kadai,South,China
Chaha [sgw],8.2,38,#693EAE,Afro-Asiatic,Semitic,Ethiopia
Chakavian [svm],45.17,14.85,#6D6F8C,Indo-European,Balto-Slavic,Croatia
Chakma [ccp],22.9,92.23,#79658F,Indo-European,Indo-Iranian,Bangladesh
Chali [tgf],27.3,91,#4FBC88,Tibeto-Burman,Bodic,Bhutan
Cham_Eastern [cjm],11.333,108.5,#76B686,Malayo-Polynesian,Malayo-Sumbawan,Vietnam
Cham_Western [cja],12,105.5,#7F8572,Malayo-Polynesian,Malayo-Sumbawan,Cambodia
Chama [ese-2],-11.33,-66.25,#92697D,Tacanan,Ese'ejja,Bolivia
Chamacoco [ceg],-22.3578,-59.7197,#695DAF,Zamucoan,,Paraguay
Chamalal_Gigatil [cji],42.54,46.06,#45519C,Nakh-Daghestanian,Avar-Andi,Russia
Chamalal_Nizhnee Gakvari [cji-2],42.53,46.05,#44519D,Nakh-Daghestanian,Avar-Andi,Russia
Chambri [can],-4.167,143.083,#9E7775,Lower Sepik-Ramu,Lower Sepik,Papua New Guinea
Chamicuro [ccc],-5.114,-75.736,#856190,Arawak,South-Southwest,Peru
Chamorro [cha],13.583,145,#71A06A,Malayo-Polynesian,Chamorro,Guam
Chang [chg],26.23,94.817,#6C8A90,Tibeto-Burman,Kuki-Chin-Naga,India
Changchow [nan-5],24.75,117.833,#309E6B,Tibeto-Burman,Sinitic,China
Changchun [cmn-57],43.88,125.32,#47AA3F,Tibeto-Burman,Sinitic,China
Changle [cmn-37],25.92,119.55,#3BA73B,Tibeto-Burman,Sinitic,China
Changpaoyao [bmt-2],25.417,107.88,#2EC15E,Hmong-Mien,Mienic,China
Changsha [hsn],28,113,#3D9A62,Tibeto-Burman,Sinitic,China
Changting [hak-7],25.83,116.35,#4FA441,Tibeto-Burman,Sinitic,China
Changzhi [cjy-6],36.167,113,#637C5E,Tibeto-Burman,Sinitic,China
Changzhou [wuu-31],31.783,119.967,#25A85D,Tibeto-Burman,Sinitic,China
Chantyal [chx],28.75,83.5,#7AAA87,Tibeto-Burman,Bodic,Nepal
Chaoyang [nan-26],23.32,116.48,#66A358,Tibeto-Burman,Sinitic,China
Chaozhou [nan-2],23.667,116.667,#509B53,Tibeto-Burman,Sinitic,China
Chaplino [ess-2],65,-173,#807172,Eskimo-Aleut,Eskimo,Russia
Chaplino_Alaska [ess-3],63.5,-170.5,#827662,Eskimo-Aleut,Eskimo,USA
Chara [cra],6.617,36.238,#5D4D96,Afro-Asiatic,Omotic,Ethiopia
Charleroi [wln-2],50.41,4.45,#6A77B5,Indo-European,Romance,Belgium
Chatino [ctp],16.5,-97.25,#81568C,Otomanguean,Zapotecan,Mexico
Chatino_Tataltepec [cta],16.3,-97.55,#6D6F83,Otomanguean,Zapotecan,Mexico
Chatino_Yaitepec [ctp-2],16.225,-97.27,#84517D,Otomanguean,Zapotecan,Mexico
Chatino_Zenzontepec [czn],17.34,-92.34,#7D6862,Otomanguean,Zapotecan,Mexico
Chattisgarhi [hne],21.25,81.25,#7A72CC,Indo-European,Indo-Iranian,India
Che'_Wong [cwg],3.833,102,#9194A4,Austroasiatic,Aslian,Malaysia
Chechen [che],43.13,45.54,#3E3F95,Nakh-Daghestanian,Nakh,Russia
Cheke Holo_Maringe [mrn],-8.5,159.67,#657DB0,Oceanic,,Solomons
Chemakum [xch],48.08,-122.93,#7F3A5F,Chimakuan,,USA
Chemehuevi [ute-3],34.33,-115.17,#936E65,Uto-Aztecan,North,USA
Chemnitz [nds-4],50.83,12.92,#6B7972,Indo-European,Germanic,Germany
Chenapian [cjn],-4.25,142.33,#8B8375,Sepik,Wogamusin-Chenapian,Papua New Guinea
Cheng [jeg],15,107.167,#8B8CA0,Austroasiatic,Bahnaric,Laos
Chengdu [cmn-14],30.6,104.1,#479944,Tibeto-Burman,Sinitic,China
Chengfeng [xxx-109],29.685,113.49,#398575,Hmong-Mien,Hmongic,China
Chengqiao [wuu-5],31.63,121.4,#1D9E5D,Tibeto-Burman,Sinitic,China
Chepang [cdm],28.05,83.92,#65AF7A,Tibeto-Burman,Chepang,Nepal
Cheremis [mrj],55.624,55.484,#766DAE,Mongolic,Eastern,Russia
Cherokee [chr],35.5,-83.5,#925768,Iroquoian,Southern,USA
Cherokee_lower [chr-2],37.48,-82.53,#8C7651,Iroquoian,Southern,USA
Cheyenne [chy],43.5,-104,#914E4B,Algic,Algonquian,USA
Chichimec [pei],24.87,-103.7,#68707B,Otomanguean,Otopamean,Mexico
Chickasaw [cic],34,-88,#685969,Muskogean,Western,USA
Chiguano_Izoceño [gui-2],-20,-63,#A36486,Tupi,Tupi-Guarani,Bolivia
Chilcotin [clc],52,-125,#495E87,Dene-Yeniseic,Na-Dene,Canada
Chimariko [cid],41,-123,#7E5090,Chimariko,,USA
Chimila [cbg],10.75,-73,#9D7C9A,Chibchan,East,Colombia
Chimwiini [swh-2],1.1,43,#60769F,Niger-Kongo,Bantoid,Somalia
Chin_Daai [dao],21.1,93.65,#50B157,Tibeto-Burman,Kuki-Chin-Naga,Myanmar
Chin_Falam [cfm],22.9,93.67,#5AB37C,Tibeto-Burman,Kuki-Chin-Naga,Myanmar
Chin_Tiddim [ctd],23.333,93.667,#8BAC77,Tibeto-Burman,Kuki-Chin-Naga,Myanmar
Chinali [cih],32.5,77.83,#6954B1,Indo-European,Indo-Iranian,India
Chinantec_Chiltepec [csa],17.93,-96.17,#8A8371,Otomanguean,Chinantec,Mexico
Chinantec_Comaltepec [cco],17.57,-96.55,#708186,Otomanguean,Chinantec,Mexico
Chinantec_Lalana [cnl],17.62,-95.97,#638D84,Otomanguean,Chinantec,Mexico
Chinantec_Lealao [cle],17.34,-95.88,#687C84,Otomanguean,Chinantec,Mexico
Chinantec_Ojitlan [chj],18.05,-96.4,#7D9568,Otomanguean,Chinantec,Mexico
Chinantec_Ozumacin [chz],17.68,-96.23,#78847A,Otomanguean,Chinantec,Mexico
Chinantec_Palantla [cpa],17.85,-96.39,#698D5A,Otomanguean,Chinantec,Mexico
Chinantec_Quiotepec [chq],17.6,-96.58,#538C7E,Otomanguean,Chinantec,Mexico
Chinantec_Sochiapan [cso],18.65,-95.73,#68814D,Otomanguean,Chinantec,Mexico
Chinantec_Temextitlan [cco-2],17.59,-96.55,#787853,Otomanguean,Chinantec,Mexico
Chinantec_Tepetotutla [cnt],17.26,-96.11,#68887B,Otomanguean,Chinantec,Mexico
Chinantec_Tlacoatzintepec [ctl],17.83,-96.55,#748E66,Otomanguean,Chinantec,Mexico
Chinantec_Usila [cuc],17.88,-96.52,#629464,Otomanguean,Chinantec,Mexico
Chinantec_Valle Nacional [cvn],17.77,-96.3,#85875F,Otomanguean,Chinantec,Mexico
Chinantec_Yolox [xty],17.62,-96.57,#688878,Otomanguean,Chinantec,Mexico
Chinook [chh],46,-124,#81516F,Chinook,,USA
ChiNyanja [nya],-15,35,#5C8278,Niger-Kongo,Bantoid,Malawi
Chipaya [cap],-19,-68,#67619D,Uru-Chipaya,,Bolivia
Chipewyan [chp],59,-106,#4B4683,Dene-Yeniseic,Na-Dene,Canada
Chiquitano [cax],-17.5,-62,#8D4986,Chiquitano,,Bolivia
Chiricahua [apm],33.5,-108,#2E4080,Dene-Yeniseic,Na-Dene,USA
Chiriguano_Chané [gui-3],-17.793,-63.18,#A1705C,Tupi,Tupi-Guarani,Bolivia
Chiru [cdf],24.99,93.5,#72A37F,Tibeto-Burman,Kuki-Chin-Naga,India
Chitimacha [ctm],29.67,-91,#795464,Totozoquean-Chitimacha,Chitimacha,USA
Chittagong [ben-2],22.37,91.8,#598385,Indo-European,Indo-Iranian,Bangladesh
Chöcangacakha [cgk],27.5,90.88,#41A5AB,Tibeto-Burman,Bodic,Bhutan
Chöcangacakha-2 [cgk-2],27.55,90.92,#56B07F,Tibeto-Burman,Bodic,Bhutan
Chochenyo [cst],37.65,-121.91,#8C6B7E,Yok-Utian,Costanoan,USA
Chocho [coz],17.67,-97.33,#64616E,Otomanguean,Popolocan,Mexico
Choctaw [cho],32.25,-88.5,#875664,Muskogean,Western,USA
Chokobo [cbo],10.35,8.85,#5D95A5,Niger-Kongo,Kainji,Nigeria
Chokri [nri],26.67,93.75,#367078,Tibeto-Burman,Kuki-Chin-Naga,India
Chokri-2 [nri-2],25.7,94.3,#3B6685,Tibeto-Burman,Kuki-Chin-Naga,India
Chokwe [cjk],-9.702,22.876,#665CA8,Niger-Kongo,Bantoid,Democratic Republic of the Congo
Cholon [cht],-8,-77.5,#8B585D,Cholon,,Peru
Chong [cog],12.91,102.01,#84A2AE,Austroasiatic,Pearic,Thailand
Chongming [wuu-32],31.67,121.5,#319C61,Tibeto-Burman,Sinitic,China
Chongqing [cmn-48],29.55,106.6,#41B843,Tibeto-Burman,Sinitic,China
Chono [xxx-39],-46,-75,#8E7C91,Chonan,,Chile
Chontal [chd],18.17,-92.58,#7A5D91,Mayan,Chol-Tzeltal,Mexico
Chontal [clo],16.3,-95.5,#7F5386,Tequistlatecan,,Mexico
Chopi [cce],-24.718,34.744,#4B9077,Niger-Kongo,Bantoid,Mozambique
Chorote [crq],-22,-63,#8D747C,Matacoan,Chorote,Argentina
Chorti [caa],14.8,-89.3,#86687A,Mayan,Chol-Tzeltal,Guatemala
Chrau [crw],10.667,107.5,#81B181,Austroasiatic,Bahnaric,Vietnam
Chru [cje],11.774,108.575,#949986,Malayo-Polynesian,Malayo-Sumbawan,Vietnam
Chuave [cjv],-6.168,145.119,#935E60,Trans New Guinea,Chimbu,Papua New Guinea
Chuj [cac],16,-91.5,#8C7480,Mayan,Kanjobal-Chuj,Mexico
Chuj_Ixtatán [cnm],15.833,-91.483,#887478,Mayan,Kanjobal-Chuj,Guatemala
Chukchansi [yok-4],36.99,-119.64,#676D71,Yok-Utian,Yokuts,USA
Chukchi [ckt],67,-173,#ABA36D,Chukotko-Kamchatkan,Main,Russia
Chumash [boi],34.67,-120.25,#42566C,Chumash,,USA
Chumash_Ineseño [boi-2],34.61,-120.09,#44566C,Chumash,,USA
Chumash_Ventureño [veo],34.22,-118.72,#47546A,Chumash,,USA
Chung [scq],14.004,99.55,#729AC1,Austroasiatic,Pearic,Laos
Chungcheong Korean [kor-4],35.83,127.15,#6F7B73,Korean,,Korea
Chuukese [chk],7.333,151.75,#A1968D,Oceanic,Micronesian,USA Federated States of Micronesia
Chuvash [chv],55.5,47.5,#9A6E72,Turkic,Oghur,Russia
Chuxnabán Mixe [pxm],17,-96,#847376,Totozoquean-Chitimacha,Totozoquean,Mexico
Ciacia [cia],-5.75,122.75,#967B84,Malayo-Polynesian,Celebic,Indonesia
Čičarija [slv-10],45.55,14,#5E5C83,Indo-European,Balto-Slavic,Slovenia
Cicipu [awc],10.911,5.703,#606592,Niger-Kongo,Kainji,Nigeria
CiLuba [lua],-6,22,#60747A,Niger-Kongo,Bantoid,Democratic Republic of the Congo
Cimbrian [cim],45.62,11.13,#4A7195,Indo-European,Germanic,Italy
Citak [tml],-5.509,139.218,#B95D68,Trans New Guinea,Asmat-Kamoro,Indonesia
Citumbuka [tum],-11,33.5,#5E828E,Niger-Kongo,Bantoid,Malawi
Clallam [clm],48.08,-123.75,#716660,Salish,Central,USA
Classical Malay [xxx-96],2.2,102.5,#94A18E,Malayo-Polynesian,Malayo-Sumbawan,Malaysia
Coahuilteco [xxx-6],28,-100,#6E4A62,Coahuilteco,,USA
Cocama-Cocamilla [cod],-5,-74.3,#AE6566,Tupi,Tupi-Guarani,Peru
Cochimi [coj],27.28,-112.89,#816575,Yuman-Cochimi,Cochimi,Mexico
Coconucan [cca],2.55,-76.65,#A1799E,Barbacoan,,Colombia
Cocopa [coc],32.5,-115,#9A5097,Yuman-Cochimi,Yuman,USA
Coeur d'Alene [crd],47.33,-117,#643777,Salish,Interior,USA
Cofan [con],0.25,-77,#604C99,Kofan,,Ecuador
Cog-rtse rGyalrong-2 [jya-4],31.5,102,#3E8796,Tibeto-Burman,Qiangic,China
Cogtse Gyarong [jya],32.1,100.6,#4E6BA3,Tibeto-Burman,Qiangic,China
Colac [xxx-73],-38.33,143.5,#D3BFAF,Pama-Nyungan,,Australia
Colloquial_Tamil [tam-2],9.23,78.12,#967E9F,Dravidian,South,India
Comanche [com],33.5,-101.5,#9C5A6E,Uto-Aztecan,North,USA
Comorian [wlc],-12.25,43.75,#4E639B,Niger-Kongo,Bantoid,Comoros
Comox [coo],49.75,-125,#714E81,Salish,Central,Canada
Coos [csz],43.5,-124.17,#4D3E63,Coos,,USA
Cora [crn],23.333,-99,#7B5F56,Uto-Aztecan,South,Mexico
Cora_Ixcatan [crn-2],20.88,-103.35,#937169,Uto-Aztecan,South,Mexico
Cornish [cor],50.5,-4.5,#5D66A6,Indo-European,Celtic,Britain
Corsican [cos],42.1,9.5,#7B78A5,Indo-European,Romance,France
Cotabato Manobo_Kalamansig [mta],6.421,124.29,#947B60,Malayo-Polynesian,Philippines,Philippines
Cowlitz [cow],46.5,-123.17,#826A4C,Salish,Tsamosan,USA
Cree_East [crl],50.42,-73.87,#9A4A62,Algic,Algonquian,Canada
Cree_Moose [crm],51.33,-80.5,#975578,Algic,Algonquian,Canada
Cree_Plains [crk],54,-116,#A45A65,Algic,Algonquian,Canada
Cree_Swampy [csw],54.5,-84,#A65764,Algic,Algonquian,Canada
Cree_Woods [cwd],58,-102,#9D5952,Algic,Algonquian,Canada
Creek [mus],30.41,-85.2,#81795A,Muskogean,Eastern,USA
Črni Vrh [slv-19],45.92,14.05,#5A4798,Indo-European,Balto-Slavic,Slovenia
Croatian [hrv],45.5,17.3,#725097,Indo-European,Balto-Slavic,Croatia
Crow [cro],45.5,-108,#7B5057,Siouan,Western,USA
Cua [cua],15.167,108.667,#6BB7AA,Austroasiatic,Bahnaric,Vietnam
Cubeo [cub],1.33,-70.5,#865E5F,Tucanoan,Cubeo,Colombia
Cuiba [cui-2],6.5,-70.5,#778262,Guahiban,,Colombia
Cuicatec [xtu],17.98,-96.72,#8B6649,Otomanguean,Mixtecan,Mexico
Cuitlatec [qpb],18.1,-100.34,#896F67,Cuitlatec,,Mexico
Cup'ik [esu-2],61.525,-165.65,#817B81,Eskimo-Aleut,Eskimo,USA
Cupeño [cup],33.17,-116.5,#916A7A,Uto-Aztecan,North,USA
Cuvok [cuv],10.7,14,#59667B,Afro-Asiatic,Chadic,Cameroon
Czech [ces],50,14.5,#5D439E,Indo-European,Balto-Slavic,Czech Republic
Da'a [kzf],-1.356,119.549,#9F6E7C,Malayo-Polynesian,Celebic,Indonesia
Daba [dbq],10.1,13.8,#616080,Afro-Asiatic,Chadic,Cameroon
Dabu [hak-22],24.35,116.7,#3EA843,Tibeto-Burman,Sinitic,China
Dadibi [mps],-6.55,144.58,#8D636A,Trans New Guinea,Teberan,Papua New Guinea
Dadua [gal-2],-8.135,125.638,#90626B,Malayo-Polynesian,Timoric,Timor leste
Dafang [cmn-31],27.29,105.66,#4AB64F,Tibeto-Burman,Sinitic,China
Daga [dgz],-10,149.25,#A55D57,Trans New Guinea,Southeast,Papua New Guinea
Dagaare [dga],11.5,-2.5,#6D849E,Niger-Kongo,Gur,Burkina Faso
Dagbani [dag],9.58,-0.5,#739473,Niger-Kongo,Gur,Ghana
Dagur [dta],48,124,#5D6DB2,Mongolic,Eastern,China
Dahalik [dlk],15.75,40.25,#6D6295,Afro-Asiatic,Semitic,Eritrea
Dahalo [dal],-2.217,40.483,#4F50B3,Afro-Asiatic,Cushitic,Kenya
Dai [dij],-7.5,129.5,#9C7467,Malayo-Polynesian,Southeast Maluku,Indonesia
Daju_Dar Fur [daj],12.25,25.25,#79999C,Nilo-Saharan,Daju,Sudan
Dakaka [bpa],-16.269,167.964,#9F8D77,Oceanic,,Vanuatu
Dakota [dak],43.1,-98.4,#424E73,Siouan,Western,USA
Dakpa [dka],27.75,91.5,#4BBB86,Tibeto-Burman,Bodic,Bhutan
Dalabon [ngk],-14.25,134,#B2BEA0,Gunwinyku,Marne,Australia
Dalian [cmn-8],38.91,121.61,#4C9E4A,Tibeto-Burman,Sinitic,China
Dalmatian [dlm],45.35,14.5,#7D5287,Indo-European,Romance,Croatia
Damal [uhn],-4,137.5,#987D5C,Damal,,Indonesia
Damal Wa [uhn-2],-4.185,137.275,#AA7F61,Damal,,Indonesia
Damar_East [dmr],-7.25,128.52,#8D8475,Malayo-Polynesian,Southeast Maluku,Indonesia
Damar_West [drn],-7,128.5,#928C7B,Malayo-Polynesian,West Damar,Indonesia
Dameli [dml],35.375,71.693,#5C55AF,Indo-European,Indo-Iranian,Pakistan
Dami [dad],-5.315,145.613,#A94D6A,Oceanic,,Papua New Guinea
Damin [xxx-7],-16.4,139.35,#C6BF9B,Tangkic,,Australia
Damu [adi-11],27.63,94.35,#44BF8D,Tibeto-Burman,Tani,India
Dan [dnj],7.5,-8,#706A83,Mande,Eastern,Côte d'Ivoire
Danau [dnu],22.333,99.333,#41B09F,Austroasiatic,Palaungic,Myanmar
Dandami Maria [daq],19.1,82.06,#9A5BA5,Dravidian,South-central,India
Danezaa [bea],57,-120,#375D60,Dene-Yeniseic,Na-Dene,Canada
Dangaléat_Western [daa],12.17,18.33,#879F99,Afro-Asiatic,Chadic,Chad
Danggaura Tharu [thl],28.1,82.3,#786E90,Indo-European,Indo-Iranian,Nepal
Dangla [daa-2],12.15,18.25,#89A496,Afro-Asiatic,Chadic,Chad
Dani [dni],-4,138.917,#936747,Trans New Guinea,Dani,Indonesia
Dani Aikhe [dni-3],-3.95,138.97,#916A55,Trans New Guinea,Dani,Indonesia
Dani Bele [dni-2],-3.93,138.73,#AB7273,Trans New Guinea,Dani,Indonesia
Dani Gorge [dnt],-4.33,139.13,#A77A66,Trans New Guinea,Dani,Indonesia
Dani Hablifoeri [dni-4],-3.640848,138.759428,#91845B,Trans New Guinea,Dani,Indonesia
Dani Mugogo [dni-5],-3.97,138.8,#8B9558,Trans New Guinea,Dani,Indonesia
Dani Wodo [wlw],-3.816,138.718,#A97555,Trans New Guinea,Dani,Indonesia
Danish [dan],56,10,#6C7676,Indo-European,Germanic,Denmark
Danisi [shg],-20.206,25.26,#417D8D,Khoe,Khoe,Botswana
Danyang [wuu-33],32,119.6,#4B885E,Tibeto-Burman,Sinitic,China
Danzhai [cmn-56],26.244,107.895,#409D3A,Tibeto-Burman,Sinitic,China
Danzhou [gan-3],19.5,109.6,#58A945,Tibeto-Burman,Sinitic,China
Danzhou [nan-36],19.52,109.58,#55B269,Tibeto-Burman,Sinitic,China
Dao_Ngan_Tay [tyz],22.3,102.5,#59AD6C,Tai-Kadai,South,Vietnam
Darai [dry],27.85,84.1,#747EAC,Indo-European,Indo-Iranian,Nepal
Darang [mhu-2],28.67,97.47,#52C66B,Tibeto-Burman,Tani,India
Dargi [dar-2],42.27,47.34,#4E3A8A,Nakh-Daghestanian,Dargi,Russia
Dargwa [dar],42.15,47.4,#533CAB,Nakh-Daghestanian,Dargi,Russia
Dari [prs],36.01,70.026,#675C95,Indo-European,Indo-Iranian,Afghanistan
Darma [drd],29.84,80.517,#76AF7B,Tibeto-Burman,Western Himalayan,India
Dasenech [dsh],4.802,36.05,#6777B6,Afro-Asiatic,Cushitic,Ethiopia
Datian_Houlu [nan-21],25.8,117.75,#439B44,Tibeto-Burman,Sinitic,China
Datian_Qianlu [nan-20],25.7,117.85,#55904B,Tibeto-Burman,Sinitic,China
Datooga [tcc],-4.75,36.67,#99868E,Nilo-Saharan,Eastern Sudanic,Tanzania
Dâw [kwa],-0.15,-67.05,#6DA96E,Nadahup,,Brazil
Dawawa [dww],-10.151,149.968,#905266,Oceanic,,Papua New Guinea
Dawera-Daweloor [ddw],-7.759,130.04,#9D796D,Malayo-Polynesian,Southeast Maluku,Indonesia
Deang_Guangka [rbb],24.833,99.75,#5AAE82,Austroasiatic,Palaungic,China
Debri [dil],12.04,29.66,#838A9A,Nilo-Saharan,East_Sudanic,Sudan
Dedua [ded],-6.381,147.576,#977B70,Trans New Guinea,Finisterre-Huon,Papua New Guinea
Dege [khg-6],31.817,98.667,#2EA56B,Tibeto-Burman,Bodic,China
Degema [deg],4.75,6.75,#6F9C7C,Niger-Kongo,Edoid,Nigeria
Dehong [tdd],24,98,#5BA079,Tai-Kadai,South,China
Deirate [tad-2],-3,137.17,#90504D,Lakes Plains,Eastern,Indonesia
Dekwana [mch],4.5,-63.5,#8F4D65,Cariban,Guianan,Venezuela
Dela-Oenale [row],-10.92,123,#957261,Malayo-Polynesian,Timoric,Indonesia
Delaware [unm],41.5,-74.67,#7A657F,Algic,Algonquian,USA
Demena [mbp],10.9,-73.6,#8A4876,Chibchan,East,Colombia
Denaina [tfn],62,-150,#544256,Dene-Yeniseic,Na-Dene,USA
Dengebu [dec],10.6,29.9,#91A7A9,Kordofanian,Talodi,Sudan
Dengka [dnk],-10.775,122.89,#925B4A,Malayo-Polynesian,Timoric,Indonesia
Dení [dny],-6,-68,#945F5C,Arawá,,Brazil
Deni [stc],-10.83,166.08,#9E8065,Oceanic,,Solomons
Denjongkha [sip],27.5,88.5,#479ABB,Tibeto-Burman,Bodic,India
Dényá [anv],5.963,9.309,#6A9D90,Niger-Kongo,Bantoid,Cameroon
Dermuha [kpp],17.79,95.34,#279587,Tibeto-Burman,Karen,Myanmar
Desano [des],0.579,-69.067,#927786,Tucanoan,East,Colombia
Deuri [der],27.23,94.1,#64878A,Tibeto-Burman,Bodo-Garo,India
Dhalandji [dhl],-22.7,115.2,#D1C59C,Pama-Nyungan,,Australia
Dhao [nfa],-10.83,122.75,#879087,Malayo-Polynesian,Flores-Sawu-Sumba,Indonesia
Dharawal [tbh],-34.5,150.5,#C9BC8C,Pama-Nyungan,Yuin,Australia
Dharuk [xxx-8],-33.1,151.75,#CCC193,Pama-Nyungan,Yuin,Australia
Dharumbal [bjy],-22.75,150,#BAAF90,Pama-Nyungan,Rockhampton,Australia
Dhatki [mki],24.9,70.2,#4771BA,Indo-European,Indo-Iranian,Pakistan
Dhimal [dhi],26.6,86.75,#737F83,Tibeto-Burman,Bodic,Nepal
Dhudhuroa [ddr],-36.5,148,#C5A77C,Pama-Nyungan,,Australia
Dhurgal [xxx-74],-35.67,150,#CAA5A1,Pama-Nyungan,,Australia
Dia [dia-2],-3.476,142.413,#967063,Torricelli,Wapei,Papua New Guinea
Dianbai [nan-33],21.7,111.18,#77AD4D,Tibeto-Burman,Sinitic,China
Dibabawon Manobo [mbd],7.83,126,#9A8977,Malayo-Polynesian,Philippines,Philippines
Dida [dic],5.518,-5.245,#578D6A,Niger-Kongo,Kru,Côte d'Ivoire
Didinga [did],4.33,33.6,#7997CD,Nilo-Saharan,Eastern Sudanic,Sudan
Didra [tdr],14.527,108.251,#929990,Austroasiatic,Bahnaric,Vietnam
Diegueño [dih],32.67,-116.17,#915784,Yuman-Cochimi,Yuman,USA
Digaru Mishmi [mhu],28.2,96.2,#689C98,Tibeto-Burman,Tani,India
Dii [dur],8.07,13.882,#4F8D83,Adamawa-Ubangi,Ubangi,Cameroon
Dimasa [dis],25.33,93,#877A7C,Tibeto-Burman,Bodo-Garo,India
Dime [dim],6.25,36.33,#366F9B,Afro-Asiatic,Omotic,Ethiopia
Dimili [diq],38,40,#5645BB,Indo-European,Indo-Iranian,Turkey
Ding'an [nan-8],19.7,110.32,#5A8952,Tibeto-Burman,Sinitic,China
Dingri [bod-4],28.567,86.633,#6CA9B2,Tibeto-Burman,Bodic,China
Dinik [aft],12.458,30.751,#9C8D97,Nilo-Saharan,East_Sudanic,Sudan
Dinka [dip],8.5,28,#95C1AC,Nilo-Saharan,East_Sudanic,South Sudan
Diola [dyo],13,-16,#9585B0,Niger-Kongo,Atlantic,Senegal
Diola-Husuy [dyo-2],12.58,-16.3,#778385,Niger-Kongo,Atlantic,Senegal
Dixon Reef [dix],-15.5,167.5,#A78981,Oceanic,,Vanuatu
Diyari [dif],-28,139,#CABCB6,Pama-Nyungan,Karnic,Australia
Dizi [mdx],6.17,36.5,#6946A3,Afro-Asiatic,Omotic,Ethiopia
Djabugay [dyy],-16.65,145.5,#C7BD86,Pama-Nyungan,Yidinic,Australia
Djambarrpuyngu [djr],-12,135.5,#BBAFAC,Pama-Nyungan,Yolngu,Australia
Djapu [duj],-12.667,136,#C7BAB2,Pama-Nyungan,Yolngu,Australia
Djaru [ddj],-18.75,128,#D1BFAC,Pama-Nyungan,Ngumbin-Yapa,Australia
Djeoromitxi [jbt-2],-12.1,-63.1,#965774,Macro-Je,Jabutí,Brazil
Djinang [dji],-12.5,134.833,#B7BCB2,Pama-Nyungan,Yolngu,Australia
Djingili [jig],-17.25,133.833,#CDB998,Mirndi,Barkly,Australia
Dla [kbv],-3.7,142.05,#9E645F,Trans New Guinea,Border,Papua New Guinea
Doabi [pan-2],30.1,76.17,#4D69A9,Indo-European,Indo-Iranian,Pakistan
Dobel [kvo],-6.083,134.5,#B0676E,Malayo-Polynesian,Southeast Maluku,Indonesia
Dobu [dob],-9.75,150.83,#9F5E5C,Oceanic,,Papua New Guinea
Dogon [dbu],14.5,-2.5,#998184,Niger-Kongo,Dogon,Mali
Dogri [dgo],32.03,75.4,#5D63B0,Indo-European,Indo-Iranian,India
Dogrib [dgr],65,-115,#4D356E,Dene-Yeniseic,Na-Dene,Canada
Dohoi [otd],-0.5,113,#AD628E,Malayo-Polynesian,Barito,Indonesia
Dolpo [dre],29,83,#5EADBE,Tibeto-Burman,Bodic,Nepal
Dom [doa],-6,144.917,#997557,Trans New Guinea,Chimbu,Papua New Guinea
Domung [dev],-5.82,146.68,#A38471,Trans New Guinea,Finisterre-Huon,Papua New Guinea
Dong [doc],26,109,#59B671,Tai-Kadai,South,China
Dong'an [hsn-9],26.4,111.3,#519050,Tibeto-Burman,Sinitic,China
Dongguan [yue-15],22.844,114.164,#56AB4B,Tibeto-Burman,Sinitic,China
Dongolawi [doo],18,32,#856AA0,Nilo-Saharan,East_Sudanic,Sudan
Dongwang [khg],28.25,99.55,#3A9AAE,Tibeto-Burman,Bodic,China
Dori'o [dor],-9.2,160.83,#B17C68,Oceanic,,Solomons
Dorig [wwo],-14.35,167.57,#A28468,Oceanic,,Vanuatu
Doromu_Koki [kqc],-9.629,147.914,#A74F74,Trans New Guinea,Southeast,Papua New Guinea
Doumen_2 [yue-17],22.21,113.29,#56AF4A,Tibeto-Burman,Sinitic,China
Doutai [tds],-3.25,138.25,#856048,Lakes Plains,Eastern,Indonesia
Doyayo [dow],8.67,13.08,#775D9C,Adamawa-Ubangi,Adamawa,Cameroon
Drehu [dhv],-21,167.083,#6D74A9,Oceanic,Southern Oceanic,New Caledonia
Drokpa [bod-5],29.05,84.5,#6EB2BB,Tibeto-Burman,Bodic,China
Dschang [ybb],5.45,10.067,#368E74,Niger-Kongo,Bantoid,Cameroon
Duala [dua],4.3,9.8,#7F7F87,Niger-Kongo,Bantoid,Cameroon
Duau [dva],-10,151.17,#946893,Oceanic,,Papua New Guinea
Duka [dud],11.17,5.08,#676FB2,Niger-Kongo,Kainji,Nigeria
Dulong [duu],28,98.333,#6BB793,Tibeto-Burman,Nungish,China
Dumagat_Casiguran [dgc],16.653,122.303,#928C76,Malayo-Polynesian,Philippines,Philippines
Dumaki [dmk],36.167,74,#3E7A99,Indo-European,Indo-Iranian,Pakistan
Dumbea [duf],-22.094,166.372,#A69B8F,Oceanic,,New Caledonia
Dumi [dus],27.25,86.67,#70AFA1,Tibeto-Burman,Kiranti,Nepal
Dumo [vam],-2.667,141.25,#7A664E,Skou,West,Papua New Guinea
Dumun_Saep [dui],-5.53,146.083,#997F6D,Trans New Guinea,Madang,Papua New Guinea
Duna [duc],-5.417,142.5,#7D8554,Trans New Guinea,Duna,Papua New Guinea
Duoxu [ers-2],28.6,102.08,#26927A,Tibeto-Burman,Qiangic,China
Dura [drq],28.5,84.25,#58B28C,Tibeto-Burman,Dura,Nepal
Duruwa [pci],19.07,82.03,#B3A5A6,Dravidian,Central,India
Dusun_Deyah [dun],-2,115.5,#917DA4,Malayo-Polynesian,Barito,Indonesia
Dusun_Malang [duq],-0.732,115.108,#9B7C9C,Malayo-Polynesian,Barito,Indonesia
Dusun_Tambunan [kzt],5.686,116.376,#9E8B77,Malayo-Polynesian,North Borneo,Indonesia
Dusun_Witu [duw],-1.576,114.857,#99807E,Malayo-Polynesian,Barito,Indonesia
Dusur [vam-2],-2.75,141.33,#809661,Skou,West,Papua New Guinea
Dutch [nld],52,7,#7F6D96,Indo-European,Germanic,Netherlands
Duungidjawu [wkw],-26.222,152.081,#C5BD7A,Pama-Nyungan,,Australia
Duvle [duv],-3.139,137.976,#65814E,Lakes Plains,Eastern,Indonesia
Duwet [gve],-6.441,146.886,#887E73,Oceanic,,Papua New Guinea
Dye [gng],10.177,0.449,#8AA58F,Niger-Kongo,Gur,Togo
Dyirbal [dbl],-17.583,145.5,#CBBC92,Pama-Nyungan,Dyirbalic,Australia
Dzala [dzl],27,91.5,#4EB88E,Tibeto-Burman,Bodic,Bhutan
Dzongkha [dzo],27.5,89.5,#4EB5C3,Tibeto-Burman,Bodic,Bhutan
E [eee],25.05,109.25,#4DA653,Tibeto-Burman,Sinitic,China
East Flemish [vls-3],51,3.75,#69728A,Indo-European,Germanic,Netherlands
East_Franconian [vmf],50.57,10.42,#696F86,Indo-European,Germanic,Germany
Eastern Lawa [lwl],19.01,98.76,#62CB7B,Austroasiatic,Waic,Thailand
Ebang [hbn],11.214,30.524,#A6B29C,Kordofanian,Heiban,Sudan
Ebriach [slv-3],46.76,13.82,#554794,Indo-European,Balto-Slavic,Austria
Ebrie [igb],5.3,-4,#8D926B,Niger-Kongo,Nupoid,Côte d'Ivoire
Eda [kad],9.87,7.95,#4B8E73,Niger-Kongo,Plateau,Nigeria
Edolo [etr],-6.083,142.667,#905A4B,Trans New Guinea,Bosavi,Papua New Guinea
Efik [efi],4.92,8.5,#8A8A6F,Niger-Kongo,CrossRiver,Nigeria
Ega [ega],5.5,-5.5,#54927B,Niger-Kongo,Kwa,Côte d'Ivoire
Eipomek [eip],-4.322,140.079,#9583A1,Trans New Guinea,Mek,Indonesia
Eivo [eiv],-6.056,155.333,#A64D59,West Bougainville,,Papua New Guinea
Ejagham [etu],5.6,9,#78837F,Niger-Kongo,Bantoid,Cameroon
Ekagi [ekg],-3.917,136.25,#A96852,Trans New Guinea,Wissel Lakes,Indonesia
Ekoti [eko],-16.538,39.677,#56919C,Niger-Kongo,Bantoid,Mozambique
Eleme [elm],4.763,7.242,#75898B,Niger-Kongo,CrossRiver,Nigeria
Elfdalian [swe-2],61.2,14.075,#648D98,Indo-European,Germanic,Sweden
Elopi [dbf],-3.083,137.333,#885A54,Lakes Plains,Eastern,Indonesia
Eloyi [afo],8.001,7.844,#5789B4,Niger-Kongo,Idomoid,Nigeria
Elseng [mrf],-3,140.5,#888B5E,Trans New Guinea,Border,Indonesia
Emae [mme],-17.033,168.167,#908572,Oceanic,Central Pacific,Vanuatu
Emai [ema],7,5.9,#714CB5,Niger-Kongo,Kwa,Nigeria
Embaloh [emb],1.1628,112.37,#9BAD7F,Malayo-Polynesian,Greater South Sulawesi,Indonesia
Embera_Baudo [bdc],5.2,-76.8,#7B769E,Chocoan,Emberá,Colombia
Embera_Caito [cto],7.5,-77.75,#70587C,Chocoan,Emberá,Colombia
Embera_Chamí [cmi],5,-76,#924E7F,Chocoan,Emberá,Colombia
Embera_Saija [tdc],4.5,-77.2,#7A789E,Chocoan,Emberá,Colombia
Embera_Saija_2 [emp],-6.673,-77.365,#8E4D75,Chocoan,Emberá,Peru
Embera_SanJuan [tdc-2],6,-75.85,#7F7879,Chocoan,Emberá,Colombia
Emerillon [eme],2.9266,-53.0419,#7D606F,Tupi,Tupi-Guarani,French Guiana
Emplawas [emw],-8.035,129.729,#A47E69,Malayo-Polynesian,Southeast Maluku,Indonesia
Enawené-Nawé [unk],-13.2294,-58.8853,#956C70,Arawak,,Brazil
Ende [end],-8.83,121.67,#7D7784,Malayo-Polynesian,Flores-Sawu-Sumba,Indonesia
Enga [enq],-5.48,143.668,#9C9757,Trans New Guinea,Engan,Papua New Guinea
Engenni [enn],5.17,6.38,#796671,Niger-Kongo,Kwa,Nigeria
Enggano [eno],-5.333,102.25,#9C5A73,Malayo-Polynesian,Batak-Barrier Islands,Indonesia
English [eng],52,0,#5D5B9B,Indo-European,Germanic,Britain
English_Irish [eng-5],54,-6.5,#605D99,Indo-European,Germanic,Ireland
Enping [yue-8],22.183,112.3,#5E9D6C,Tibeto-Burman,Sinitic,China
Enschede [nld-2],52.22,6.9,#5A6383,Indo-European,Germanic,Netherlands
Epena [sja],3,-77,#826E81,Chocoan,Emberá,Colombia
Epie [epi],5.036,6.246,#706871,Niger-Kongo,Edoid,Nigeria
Erave [kjy],-6.608,143.898,#AC604E,Trans New Guinea,Engan,Papua New Guinea
Ere [twp],-2.153,147.063,#A88563,Oceanic,,Papua New Guinea
Ergong [ero],30.983,101.133,#299671,Tibeto-Burman,Qiangic,China
Eritai [ert],-2.75,138,#955A51,Lakes Plains,Eastern,Indonesia
Erre [err],-12.279,132.903,#CABA91,Giimbiyu,,Australia
Erromintxela [emx],43,-2,#6B68AB,Indo-European,Indo-Iranian,Spain
Ersu [ers],29.02,102.712,#1B8E8F,Tibeto-Burman,Qiangic,China
Erzgebirgisch [nds-3],50.58,13,#606E93,Indo-European,Germanic,Germany
Erzya [myy],52,45.5,#4C7A9D,Uralic,Mordvin,Russia
Esan [ish],6.743,6.142,#5772B7,Niger-Kongo,Edoid,Nigeria
Ese Ejja [ese],-11,-65.9,#884859,Tacanan,Ese'ejja,Bolivia
Esmeraldeño [xxx-10],1,-79.5,#8D5DA3,Esmeraldeño,,Ecuador
Esselen [esq],36.25,-121.75,#957364,Esselen,,USA
Estonian [est],59,25,#927975,Uralic,Finnic,Estonia
Eton [etn],-17.75,168.53,#B68C66,Oceanic,,Vanuatu
Eton [eto],4,11.5,#6396A9,Niger-Kongo,Bantoid,Cameroon
Etsako [ets],7.067,6.267,#676172,Niger-Kongo,Edoid,Nigeria
Etulo [utr],7.85,9.4,#64938C,Niger-Kongo,Idomoid,Nigeria
Even [eve],68,130,#8997AC,Tungusic,North,Russia
Evenki [evn],56,125,#9490AF,Tungusic,North,Russia
Ewage-Notu [nou],-8.865,148.479,#A26F5D,Trans New Guinea,Binanderean,Papua New Guinea
Ewe [ewe],6,1,#609F86,Niger-Kongo,Kwa,Ghana
Ewondo [ewo],4.5,12,#5E928E,Niger-Kongo,Bantoid,Cameroon
Extremadura [ext],39,-6,#866482,Indo-European,Romance,Spain
Eyak [eya],60.5,-145,#5B5868,Dene-Yeniseic,Na-Dene,USA
Faetar [ita-2],41.32,15.16,#737C90,Indo-European,Romance,Italy
Fagani [faf],-10.5,161.611,#A57F72,Oceanic,,Solomons
Faiwol [fai],-5.528,141.744,#9A7A51,Trans New Guinea,Ok,Papua New Guinea
Fang [fan],0.5,11,#3E8870,Niger-Kongo,Bantoid,Equatorial Guinea
Fante [aka-2],5.912,-0.996,#837468,Niger-Kongo,Kwa,Ghana
Faroese [fao],61.5,-7,#657887,Indo-European,Germanic,Denmark
Farsi [pes],32,54,#693D8E,Indo-European,Indo-Iranian,Iran
Fasu [faa],-6.417,143.167,#A25754,Trans New Guinea,Kutubuan,Papua New Guinea
Fataleka [far],-8.58,160.83,#B36984,Oceanic,,Solomons
Fataluku [ddg],-8.5,127,#89595D,Timor-Alor-Pantar,Mainland,Timor leste
Fayu [fau],-3.138,136.885,#93486A,Lakes Plains,Eastern,Indonesia
Fe'fe' [fmp],5.25,10.17,#68798A,Niger-Kongo,Bantoid,Cameroon
Fengshun [hak-21],25.72,116.2,#4CA543,Tibeto-Burman,Sinitic,China
Fering Fries [frr],54.7,8.5,#677C8A,Indo-European,Germanic,Germany
Feroge [fer],8.75,26,#89A0C0,Adamawa-Ubangi,Ubangi,South Sudan
Fijian [fij],-18,178.333,#AE8D84,Oceanic,Central Pacific,Fiji
Fijian_Boumaa [fij-2],-16.83,179.83,#A0856B,Oceanic,,Fiji
Fijian_Eastern [fij-3],-16.82,-179.87,#BA8477,Oceanic,,Fiji
Fijian_Western  [wyy-2],-17.17,177.33,#A36E7D,Oceanic,,Fiji
Finnish [fin],62,25,#945E70,Uralic,Finnic,Finland
Finnish_Peräpohjola [fin-5],66.72,27.43,#98606B,Uralic,Finnic,Finland
Finnish_Rauma [fin-3],61.13,21.5,#955F6D,Uralic,Finnic,Finland
Finnish_Savonian [fin-4],62.58,27.82,#8F5E78,Uralic,Finnic,Finland
Finnish_Western [fin-2],63.5,24.25,#98606B,Uralic,Finnic,Finland
Finongan [fag],-6.351,146.606,#8A7F72,Trans New Guinea,Finisterre-Huon,Papua New Guinea
Flemish [vls],51.2,3.2,#71679F,Indo-European,Germanic,Belgium
Flinders Island [fln],-14.184,144.255,#B4B2C6,Pama-Nyungan,,Australia
Foau [flh],-3,139.17,#9D574A,Lakes Plains,Eastern,Indonesia
Foe [foi],-6.333,143.5,#82505E,Trans New Guinea,Kutubuan,Papua New Guinea
Foia Foia [ffi],-7.717,143.165,#875B57,Trans New Guinea,Inland Gulf,Papua New Guinea
Folopa [ppo],-7.002,144.511,#85595A,Trans New Guinea,Teberan,Papua New Guinea
Fon Gbe [fon],6.42,2.17,#655F67,Niger-Kongo,Kwa,Benin
Foodo [fod],9.6,1.77,#678596,Niger-Kongo,Kwa,Benin
Fordata [frd],-7.17,131.5,#908E89,Malayo-Polynesian,Southeast Maluku,Indonesia
Fore [for],-6.75,145.5,#A06A43,Trans New Guinea,Gorokan,Papua New Guinea
Fort Senal [frt],-15.416,166.924,#8F8B69,Oceanic,,Vanuatu
Fox [sac],43,-83,#8C4F57,Algic,Algonquian,USA
Fraser [xxx-40],49.67,-121.33,#82744E,Salish,Interior,Canada
French [fra],48,3,#626296,Indo-European,Romance,France
Frisian [frs],53.2,5.76,#697CB1,Indo-European,Germanic,Netherlands
Friulian [fur],46.2,13,#827793,Indo-European,Romance,Italy
Fu'an [cdo-10],27.09,119.65,#5DA93B,Tibeto-Burman,Sinitic,China
Fula [fuh],11.5,-12.5,#8E9387,Niger-Kongo,Atlantic,Guinea
Fuliiru [flr],-3.4,29.15,#6B785E,Niger-Kongo,Bantoid,Democratic Republic of the Congo
Fulniô [fun],-8.2,-37.3,#816771,Macro-Je,Yate,Brazil
Fuqing [cdo-5],25.725,118.4,#66AA42,Tibeto-Burman,Sinitic,China
Fur [fvr],13,25,#8C9BAE,Nilo-Saharan,Fur,Sudan
Futuna_East [fud],-14.29,-178.16,#9E7A5A,Oceanic,Central Pacific,Vanuatu
Futuna_West [fut-2],-19.667,170.667,#9E739D,Oceanic,Central Pacific,Vanuatu
Fuyuge [fuy],-8.667,147.333,#916160,Trans New Guinea,Goilala,Papua New Guinea
Fuzhou [cdo],26.5,119,#74AA68,Tibeto-Burman,Sinitic,China
Fwai [fwa],-20.67,164.67,#609D7C,Oceanic,,New Caledonia
Fyam [pym],9.65,9.25,#618098,Niger-Kongo,Platoid,Nigeria
G||abake [hio],-23.109,26.826,#587664,Khoe,Khoe,Botswana
Gã [gaa],5.67,-0.17,#746CB4,Niger-Kongo,Kwa,Ghana
Ga'anda [gqa],10.33,12.58,#77777E,Afro-Asiatic,Chadic,Nigeria
Gaagudju [gbu],-12.583,132.833,#C4B790,Gaagudju,,Australia
Gaahmg [tbi-2],11.767,34.35,#6B9388,Nilo-Saharan,East_Sudanic,Sudan
Gabadi [kbt],-9.006,146.932,#9C7872,Oceanic,,Papua New Guinea
Gabigabi [xxx-11],-25.5,153,#C4B18C,Pama-Nyungan,WakaKabic,Australia
Gabrielino [xgf],33.93,-118.4,#987068,Uto-Aztecan,North,USA
Gadaba [gdb],19,83.667,#9268D1,Dravidian,Central,India
Gaddang [gad],16.515,121.194,#A28295,Malayo-Polynesian,Philippines,Philippines
Gade Lohar [gda],25.75,71.38,#7965B3,Indo-European,Indo-Iranian,India
Gadsup [gaj],-6.333,146,#A06548,Trans New Guinea,Kainantu,Papua New Guinea
Gadsup-Akuna  [gaj-2],-6.39,146.031,#9A8949,Trans New Guinea,Kainantu,Papua New Guinea
Gadsup-Ontena [ont],-6.444,145.757,#907745,Trans New Guinea,Kainantu,Papua New Guinea
Gafat [gft],11.008,35.19,#5A589D,Afro-Asiatic,Semitic,Ethiopia
Gagauz [gag],46.32,28.67,#4E57A4,Turkic,South-west,Moldova
Gahuku [gah],-6.083,145.4,#8A554D,Trans New Guinea,Gorokan,Papua New Guinea
Gaikundi [gbf],-4,143.17,#9B636E,Sepik,Ndu,Papua New Guinea
Gail Valley [slv-4],46.61,13.89,#554A99,Indo-European,Balto-Slavic,Austria
Galela [gbi],2,128.417,#9E8B94,West Papuan,North Halmahera,Indonesia
Galeya [gar],-9.576,150.846,#9D8363,Oceanic,,Papua New Guinea
Galice [gce],42.42,-124.43,#62425F,Dene-Yeniseic,Na-Dene,USA
Galician [glg],43.4,-5.8,#8A8593,Indo-European,Romance,Spain
Galician_west [glg-2],43.18,-8.7,#8E898C,Indo-European,Romance,Spain
Galke [gke],8.4,14.167,#5875A0,Adamawa-Ubangi,Adamawa,Cameroon
Galo [adi],28,94.75,#87A8A1,Tibeto-Burman,Tani,India
Galolen [gal],-8.58,126,#A4605A,Malayo-Polynesian,Timoric,Timor leste
Galpu [dhg],-11.947,135.775,#C8AAB6,Pama-Nyungan,,Australia
Galu [dia],-3.504,142.275,#977E76,Torricelli,Wapei,Papua New Guinea
Gamilaraay [kld-2],-31,149.5,#CCBDA8,Pama-Nyungan,,Australia
Gangwon Korean [kor-6],37.75,128.9,#6A846D,Korean,,Korea
Ganja [bjt],12.563,-15.688,#76A68F,Niger-Kongo,Atlantic,Senegal
Ganyu [cmn-27],34.9,119.04,#519640,Tibeto-Burman,Sinitic,China
Ganza [gza],10.25,34.9,#847780,Afro-Asiatic,Omotic,Sudan
Gao [gga],-8.351,159.788,#8D7C74,Oceanic,,Solomons
Gaoan [xxx-54],28.667,115,#549580,Tibeto-Burman,Sinitic,China
Gapapaiwa [pwg],-9.8,149.833,#9A5C8A,Oceanic,Western Oceanic,Papua New Guinea
Garawa [gbc],-17.25,137.667,#CDBD8C,Wanyi-Garrwa,,Australia
Garhwali [gbm],30.767,78.587,#7B5A9C,Indo-European,Indo-Iranian,India
Garifuna [cab],15.85,-85,#94537A,Arawak,North,Honduras
Garig [ilg],-11.25,132.33,#D2B189,Iwaidjan,,Australia
Garlali [nbx-2],-28.5,144.5,#C1BDC7,Pama-Nyungan,,Australia
Garo [grt],26,90,#987B6E,Tibeto-Burman,Bodo-Garo,India
Gascon [oci-2],43.02,0.95,#5F5792,Indo-European,Romance,France
Gasu [ykt],24.05,105.07,#27AC65,Tibeto-Burman,Lolo-Burmese,China
Gathang [kda],-32,152.5,#C9B6A5,Pama-Nyungan,Yuin,Australia
Gavião [gvo],-11,-61,#938B93,Tupi,Mondé,Brazil
Gavião_Pará [gvp],-4.7452,-49.2521,#A47982,Macro-Je,Je,Brazil
Gawar-Bati [gwt],35.31,71.55,#526AB4,Indo-European,Indo-Iranian,Pakistan
Gawdi [knn-2],15.5,73.83,#837CB1,Indo-European,Indo-Iranian,India
Gawwada [gwd],5.431,37.238,#7D527E,Afro-Asiatic,Cushitic,Ethiopia
Gayo [gay],4.55,96.95,#8D888C,Malayo-Polynesian,Batak-Barrier Islands,Indonesia
Gazhuo [kaf],24.093,102.75,#3DB04C,Tibeto-Burman,Qiangic,China
Gbanu [gbv],5.25,17,#537A61,Adamawa-Ubangi,Ubangi,Central African Republic
Gbanzili [gbg],5.114,19.815,#5EA063,Adamawa-Ubangi,Ubangi,Democratic Republic of the Congo
Gbaya-Kara [gya],6,15,#778EA7,Adamawa-Ubangi,Ubangi,Central African Republic
Gbaya-Mbodomo [mdo],4.5,15,#6D8BA0,Adamawa-Ubangi,Ubangi,Central African Republic
Gbeya [gya-2],6.491,17.455,#5B94A2,Adamawa-Ubangi,Ubangi,Central African Republic
Gbeya_Bossangoa [gbp],6.67,17.5,#65AA7E,Adamawa-Ubangi,Ubangi,Central African Republic
Ge'ez [gez],14,39,#947585,Afro-Asiatic,Semitic,Ethiopia
Gebe [gei],0,129.5,#8A808B,Malayo-Polynesian,Eastern Malayo-Polynesian,Indonesia
Gedaged [gdd],-5.05,145.88,#8C8966,Oceanic,,Papua New Guinea
Gedeo [drs],6.158,38.196,#88419A,Afro-Asiatic,Cushitic,Ethiopia
Gela [nlg],-9.167,160.333,#9E698E,Oceanic,Southeast Solomonic,Solomons
Gelao [gio],22.92,105.5,#339782,Tai-Kadai,North,China
Gelao_Sanchong [gio-2],27.8,107.325,#20AA62,Tai-Kadai,North,China
Geman [mxj-2],27.93,93.48,#5AAE68,Tibeto-Burman,Kaman,China
Gemzek [gnd],10.7,14.31,#627882,Afro-Asiatic,Chadic,Cameroon
Gende [gaf],-5.674,145.162,#936261,Trans New Guinea,Gorokan,Papua New Guinea
Genoese [lij],44.4,8.9,#6A6B91,Indo-European,Romance,Italy
Geordie [eng-6],54.99,-1.46,#5A5D9B,Indo-European,Germanic,Britain
Georgian [kat],41.72,44.78,#4A3F89,Kartvelian,Georgian,Georgia
Gepu [ygp],25.87,102.59,#30A770,Tibeto-Burman,Lolo-Burmese,China
German [deu],50,10,#516984,Indo-European,Germanic,Germany
German_Austrian [deu-4],47.07,15.43,#6B7668,Indo-European,Germanic,Austria
German_Swiss [gsw],46.975,8.405,#71816E,Indo-European,Germanic,Switzerland
Geser [ges-2],-4,131,#9B7A72,Malayo-Polynesian,Central Maluku,Indonesia
Geser-Gorom [ges],-3.886,130.933,#957F75,Malayo-Polynesian,Central Maluku,Indonesia
Ghadamese [gha],30.13,9.5,#68619C,Afro-Asiatic,Berber,Libya
Ghale [ghe],28.25,84.9,#69C090,Tibeto-Burman,Ghale,Nepal
Ghale_Uiya [ghh],28.284,84.885,#55B49A,Tibeto-Burman,Ghale,Nepal
Ghanonga [ghn],-8.08,156.5,#A16D6D,Oceanic,,Solomons
Ghari_Gae [gri],-9.33,159.58,#9E7F6A,Oceanic,,Solomons
Ghari_Ndi [gri-2],-9.5,160.25,#9A7D69,Oceanic,,Solomons
Ghomara [gho],35.57,-5.37,#635586,Afro-Asiatic,Berber,Morocco
Gibaio [kiw],-7.406,144.699,#A46871,Trans New Guinea,Kiwaian,Papua New Guinea
Gidra [gdr],-8.817,143.034,#988E88,Eastern Trans Fly,,Papua New Guinea
Gikuyu [kik],-0.75,36.75,#94788F,Niger-Kongo,Bantoid,Kenya
Gilaki [glk],37.75,49,#6357B9,Indo-European,Indo-Iranian,Iran
Giman [gzn],-0.25,128,#8B838A,Malayo-Polynesian,Eastern Malayo-Polynesian,Indonesia
Gimi [gim],-6.639,145.377,#9C5863,Trans New Guinea,Gorokan,Papua New Guinea
Girawa [bbr],-5.333,145.313,#B2625B,Trans New Guinea,Madang,Papua New Guinea
Gitksan [git],55.33,-127.75,#646992,Tsimshian,,Canada
Gitua [ggt],-6.002,147.486,#9F8577,Oceanic,,Papua New Guinea
Gizra [tof],-9.157,142.803,#9A887C,Eastern Trans Fly,,Papua New Guinea
Glavda [glw],11.106,13.81,#417FB5,Afro-Asiatic,Chadic,Nigeria
Goalpariya_Caruwi [asm-8],26.02,90,#757D9E,Indo-European,Indo-Iranian,India
Goalpariya_Ghullia [asm-3],26.17,90.62,#797EA7,Indo-European,Indo-Iranian,India
Goalpariya_Jharua [asm-4],26.23,90.34,#7A7DA6,Indo-European,Indo-Iranian,India
Gobasi_Oiba [goi],-6.462,142.142,#924957,Trans New Guinea,Bosavi,Papua New Guinea
Godoberi [gdo],42.63,46.11,#61537E,Nakh-Daghestanian,Avar-Andi,Russia
Goemai [ank],8.67,9.75,#5599B9,Nilo-Saharan,Central_Sudanic,Nigeria
Goeng-Goeng [xxx-75],-25,151.83,#C0B97F,Pama-Nyungan,,Australia
Gog-narr [xxx-76],-18.1,141.6,#C5B3A0,Pama-Nyungan,,Australia
Gogodala [ggw],-8.083,143,#AA576D,Trans New Guinea,Suki-Gogodala,Papua New Guinea
Gojri [gju],33,76,#4B54B3,Indo-European,Indo-Iranian,India
Gokana [gkn],4.578,7.366,#686A95,Niger-Kongo,CrossRiver,Nigeria
Gold [gld-2],49.853,136.762,#9E77AC,Tungusic,South,Russia
Golden Palaung [pll],22.97,97.17,#3FA2AA,Austroasiatic,Palaungic,Myanmar
Golin [gvf],-6.25,144.833,#9B686C,Trans New Guinea,Chimbu,Papua New Guinea
Gondi [gno],19,84.6,#9F62C0,Dravidian,South-central,India
Gondi_East [gno-2],18.9,84.8,#A664AC,Dravidian,South-central,India
Gondi_South [gno-3],18.7,84.5,#A664AC,Dravidian,South-central,India
Gongduk [goe],27.075,91.145,#6789A8,Tibeto-Burman,Gongduk,Bhutan
Gonja [gjn],8.5,-0.5,#7E9488,Niger-Kongo,Kwa,Ghana
Gonja_Hill [gjn-2],8.9,-0.8,#678D8E,Niger-Kongo,Kwa,Ghana
Gooniyandi [gni],-18.5,126.6,#C5C096,Bunuban,,Australia
Gorani [srp-4],41.98,20.66,#69529D,Indo-European,Balto-Slavic,Kosovo
Gorazkhon [pes-2],36.44,50.59,#7250AD,Indo-European,Indo-Iranian,Iran
Gorontalo [gor],0.5,122,#A97A6E,Malayo-Polynesian,Philippines,Indonesia
Gorum [pcj],18.5,82.733,#A271C1,Austroasiatic,Munda,India
Gottscheerish [cim-3],45.64,14.86,#4E657D,Indo-European,Germanic,Slovenia
Great Andamanese [abj],12.5,92.83,#8990B3,Andaman,,India
Grebo [gry],5.3,-8,#75A9A1,Niger-Kongo,Kru,Liberia
Greek [ell],38,23,#637887,Indo-European,Greek,Greece
Greek_Cypriot [ell-2],35,32.7,#715685,Indo-European,Greek,Cyprus
Greek_Lesbian [ell-5],39.17,26.33,#627D89,Indo-European,Greek,Greece
Greek_northern [ell-4],40.3,21.7,#717C77,Indo-European,Greek,Greece
Green_Hmong [hnj],28,105,#32868B,Hmong-Mien,Hmongic,China
Greenlandic [kal],61,-48,#8B696D,Eskimo-Aleut,Eskimo,Greenland (Denmark)
Griko [ell-3],40.35,18.17,#75818E,Indo-European,Greek,Italy
Gros Ventre [ats],48.5,-108.75,#87685A,Algic,Algonquian,USA
Gtaq [gaq],18.633,83.5,#9885B4,Austroasiatic,Munda,India
Gtob [gbj],18.583,82.867,#A282B8,Austroasiatic,Munda,India
Guahibo [guh],5,-69,#855370,Guahiban,,Colombia
Guajá [gvj],-3.8641,-46.1477,#A46F59,Tupi,Tupi-Guarani,Brazil
Guajajara [gub],-5,-45,#94696E,Tupi,Tupi-Guarani,Brazil
Guajira [guc],12,-72,#A1646B,Arawak,North,Colombia
Guambiano [gum],2.5,-76.67,#986271,Barbacoan,Northern,Colombia
Guanano [gvc],1,-69.75,#966593,Tucanoan,East,Colombia
Guangde [wuu-xxx],30.941,118.759,#2BA95D,Tibeto-Burman,Sinitic,China
Guangshun [hmm],26,106.45,#57AE6B,Hmong-Mien,Hmongic,China
Guangzhou [yue-14],23.13,113.27,#5DB148,Tibeto-Burman,Sinitic,China
Guarani [gug],-23,-56,#996979,Tupi,Tupi-Guarani,Paraguay
Guarani_Bolivia [gui],-20.25,-63.5,#966C65,Tupi,Tupi-Guarani,Bolivia
Guarani_Paraguay [gug-2],-23.5,-57.5,#7E6D7D,Tupi,Tupi-Guarani,Paraguay
Guarayu [gyr],-15.5,-61.4,#9D6A60,Tupi,Tupi-Guarani,Bolivia
Guarijio [var],27.75,-108.67,#9F5C7F,Uto-Aztecan,South,Mexico
Guató [gta],-16,-66,#915092,Macro-Je,Guato,Bolivia
Guatuso [gut],10.67,-84.82,#9F7584,Chibchan,,Costa Rica
Guayabero [guo],2.709,-71.98,#8D5077,Guahiban,,Colombia
Guaymi [gym-2],8.77,-81.73,#8B7686,Chibchan,West,Panama
Gubeeher [bcb],12.5,-16.5,#7F94AF,Niger-Kongo,Atlantic,Senegal
Gudandji [nji],-16.33,136.6,#CCB8A0,Mirndi,Barkly,Australia
Gude [gde],10.05,14.3,#688A81,Afro-Asiatic,Chadic,Cameroon
Guere [gxx],7.33,-7.67,#61A473,Niger-Kongo,Kru,Côte d'Ivoire
Gugada [ktd],-30,134,#CBB392,Pama-Nyungan,Western Desert,Australia
Gugu-Badhun [gdc],-18.549,144.484,#CBA57C,Pama-Nyungan,,Australia
Gugu-Bujun [xxx-77],-18,144.75,#CAC186,Pama-Nyungan,,Australia
GuhuSamane [ghs],-8,147.25,#9B697C,Trans New Guinea,Southeast,Papua New Guinea
Guichicovi Lowland Mixe [mir],16.9,-95,#7C7881,Totozoquean-Chitimacha,Totozoquean,Mexico
Guigang [yue-19],23.22,109.6,#4FBF46,Tibeto-Burman,Sinitic,China
Guilin [cmn-41],25.273,110.29,#50A94A,Tibeto-Burman,Sinitic,China
Guiqiong [gqi],30.055,101.964,#04947A,Tibeto-Burman,Qiangic,China
Guiyang [cmn-55],26.573,106.706,#5B9644,Tibeto-Burman,Sinitic,China
Guizhu [hme],26.43,106.67,#408960,Hmong-Mien,Hmongic,China
Gujarati [guj],23.25,72.7,#6954C7,Indo-European,Indo-Iranian,India
Gula-Iro [glj],10.25,19.42,#958F98,Adamawa-Ubangi,Adamawa,Chad
Gumawana [gvs],-9.25,150.833,#93645B,Oceanic,Western Oceanic,Papua New Guinea
Gumbaynggir [kgs],-30.4,152.5,#CAB0A1,Pama-Nyungan,Central-East,Australia
Gunbarlang [wlg],-11.8,133.7,#CEB6A3,Gunwinyku,,Australia
Gundungura [xxx-65],-34,151,#C8A685,Pama-Nyungan,,Australia
Gunggara [kvs],-17.5,141.17,#BFA781,Pama-Nyungan,,Australia
Gününa Yajich [xxx-41],-38,-62.5,#6D6894,Chonan,,Argentina
Gununu-Kena [cag],-41.5,-65.6,#6C4F7A,Matacoan,Nivacle,Argentina
Gupapuyngu [guf],-12.166,135.466,#BCACBD,Pama-Nyungan,,Australia
Gurage_East [stv],7.794,38.243,#6D5B9B,Afro-Asiatic,Semitic,Ethiopia
Gurage_West_Chaha [sgw-3],8.119,37.931,#574693,Afro-Asiatic,Semitic,Ethiopia
Gureng Gureng [gnr],-25.25,151,#C5B59C,Pama-Nyungan,Central-East,Australia
Gurenne [gur],10.785,-0.848,#539B94,Niger-Kongo,Gur,Ghana
Gurindji [gue],-17.401,130.805,#D5B898,Pama-Nyungan,,Australia
Gurma [gvm],12.651,0.491,#879B7C,Niger-Kongo,Gur,Burkina Faso
Gurr-goni [gge],-12.25,134.417,#C3B49F,Maningrida,,Australia
Gurung [gvr],28.333,84.333,#62AC8F,Tibeto-Burman,Bodic,Nepal
Gurung_Sikles [gvr-2],28.358,84.105,#648AB2,Tibeto-Burman,Bodic,Nepal
Gusii [guz],-0.677,34.772,#8A7F8D,Niger-Kongo,Bantoid,Kenya
Gusiilaay [gsl],12.79,-16.52,#7F9F8C,Niger-Kongo,Atlantic,Senegal
Gussenhoven [nld-6],50.8,5.05,#5B6290,Indo-European,Germanic,Netherlands
Gutian [cdo-6],26.575,118.75,#5DA93B,Tibeto-Burman,Sinitic,China
Guugu Yimidhirr [kky],-15,144.833,#CEB7A4,Pama-Nyungan,Southeast Cape York,Australia
Guwa [gwu],-27.83,149,#D2B09B,Pama-Nyungan,,Australia
Gwahatike [dah],-5.652,146.468,#997C7F,Trans New Guinea,Finisterre-Huon,Papua New Guinea
Gwandara [gwn],8.84,7.878,#806D8D,Afro-Asiatic,Chadic,Nigeria
Gwari [gby],9.5,7,#705A92,Niger-Kongo,Nupoid,Nigeria
Gwere [gwr],1.131,33.88,#7696BA,Niger-Kongo,Bantoid,Uganda
Gwich'in [gwi],67,-146,#39509E,Dene-Yeniseic,Na-Dene,USA
Gyalsumdo [bod-7],28.552,84.24,#67B28B,Tibeto-Burman,Bodic,Nepal
Gyeongsang [kor-2],35.85,128.6,#748082,Korean,,Korea
Haa Zongkha [dzo-2],27.135,89.12,#37B293,Tibeto-Burman,Bodic,Bhutan
Haags [nld-7],52.08,4.32,#687174,Indo-European,Germanic,Netherlands
Habun [hbu],-8.7,126.05,#A2766E,Malayo-Polynesian,Timoric,Timor leste
Hadiyya [hdy],7.55,37.85,#893CAF,Afro-Asiatic,Cushitic,Ethiopia
Hadoti [hoj],25.1,76.52,#B66751,Indo-European,Indo-Iranian,India
Hadza [hts],-3.75,35.17,#486283,Hadza,,Tanzania
Haerbin [cmn-22],45.75,126.63,#4C983E,Tibeto-Burman,Sinitic,China
Haida [hdn],53,-132,#5A7A52,Haida,,Canada
Haifeng [nan-27],22.97,115.32,#69A25A,Tibeto-Burman,Sinitic,China
Haikang [nan-32],20.68,109.77,#6DAC56,Tibeto-Burman,Sinitic,China
Haikou [nan-23],20.043,110.342,#4F904A,Tibeto-Burman,Sinitic,China
Hainan [nan-34],19.8,110.55,#50B14C,Tibeto-Burman,Sinitic,China
Haininh [mji],20.1,106.225,#439A84,Hmong-Mien,Mienic,Vietnam
Haisla [has],54,-128.75,#4D4B5A,Wakashan,North,Canada
Hajong [haj],26.2,90.5,#7E778B,Indo-European,Indo-Iranian,India
Hakha_Lai [cnh],22.667,93.667,#42B587,Tibeto-Burman,Kuki-Chin-Naga,Myanmar
Hakka [hak],24.25,116.5,#68B14C,Tibeto-Burman,Sinitic,China
Hakö [hao],-5.064,154.612,#9D8275,Oceanic,,Papua New Guinea
Halam_Bongcher [cfm-3],23.8,91.3,#779695,Tibeto-Burman,Kuki-Chin-Naga,Myanmar
Halang [hal],14.662,107.575,#62A98D,Austroasiatic,Bahnaric,Vietnam
Halari [guj-2],22.78,70.08,#725D9F,Indo-European,Indo-Iranian,India
Halia [hla],-5.25,154.75,#997D9C,Oceanic,Western Oceanic,Papua New Guinea
Halkomelem [hur],49.5,-122.5,#6B4565,Salish,Central,Canada
Hamer [amf],5,36.5,#719AA9,Afro-Asiatic,Omotic,Ethiopia
Hamgyong Korean [kor-7],43.13,129.18,#7A8E5A,Korean,,North Korea
Hamont [lim-3],51.25,5.55,#557084,Indo-European,Germanic,Netherlands
Hän [haa],65,-140,#335CAB,Dene-Yeniseic,Na-Dene,Canada
Hanga_Hundi [wos],-3.833,142.833,#935F6C,Sepik,Ndu,Papua New Guinea
Hangzhou [wuu-2],30.25,120.167,#41B747,Tibeto-Burman,Sinitic,China
Hani [hni],23.48,100.7,#478F78,Tibeto-Burman,Lolo-Burmese,China
Hanis [csz-2],43.43,-124.23,#516966,Coos,,USA
Hankou [cmn-15],30.58,114.27,#62B451,Tibeto-Burman,Sinitic,China
Hanunoo [hnn],12.33,121.25,#A5819F,Malayo-Polynesian,Philippines,Philippines
Haoni [xxx-126],23.42,101.73,#3BA953,Tibeto-Burman,Lolo-Burmese,China
Haroi [hro],13.335,108.907,#619D85,Malayo-Polynesian,Malayo-Sumbawan,Vietnam
Harsusi [hss],19.7,55.85,#6052A7,Afro-Asiatic,Semitic,Oman
Haruku [hrk],-3.58,128.5,#AF797B,Malayo-Polynesian,Central Maluku,Indonesia
Haryanvi [bgc],30.73,76.78,#7979BE,Indo-European,Indo-Iranian,India
Hasköy Arabic [arb-2],36.685,41.7,#595D9E,Afro-Asiatic,Semitic,Turkey
Hatam [had],-1,134,#917488,Hatam,,Indonesia
Hateruma [rys],24.06,123.78,#776F62,Japonic,Ryukyuan,Japan
Hausa [hau],12,7,#674F9F,Afro-Asiatic,Chadic,Nigeria
Haush [xxx-12],-54.7832,-64.2848,#8C6371,Chonan,,Argentina
Havasupai [yuf-2],35.75,-112.5,#9A5496,Yuman-Cochimi,Yuman,USA
Hawaiian [haw],21,-157,#B06059,Oceanic,Central Pacific,USA
Hayu [vay],27.25,86,#6C9D8A,Tibeto-Burman,Kiranti,Nepal
Hdi [xed],11.87,13.72,#3C9064,Afro-Asiatic,Chadic,Nigeria
Hebbar [tam-5],13,78.67,#7B809E,Dravidian,South,India
Hebrew [heb],31.75,35.17,#6D4390,Afro-Asiatic,Semitic,Israel
Hefei [cmn-35],31.87,117.283,#42AF4C,Tibeto-Burman,Sinitic,China
Helong [heg],-10.25,123.67,#99966B,Malayo-Polynesian,Timoric,Indonesia
Hengshan [hsn-10],27.22,112.7,#5DB24C,Tibeto-Burman,Sinitic,China
Herero [her],-21,20,#848179,Niger-Kongo,Bantoid,Namibia
Heshan [yue-9],22.767,112.95,#52B349,Tibeto-Burman,Sinitic,China
Hessian [sxu],49.5,8.45,#818D6D,Indo-European,Germanic,Germany
Hewa [ham],-5.066,142.489,#A5574A,Sepik,Sepik Hill,Papua New Guinea
Hewa [ski-2],-8.603,122.73,#899785,Malayo-Polynesian,Timoric,Indonesia
Hezhou [cmn-64],35.6,103.22,#5FBA56,Tibeto-Burman,Sinitic,China
Hianacoto [cbd],1,-72,#877692,Cariban,Guianan,Colombia
Hidatsa [hid],48,-110,#974B87,Siouan,Western,USA
Higi [hig],10.569,13.321,#3F80A4,Afro-Asiatic,Chadic,Nigeria
Hiligaynon [hil],10.25,123,#979B86,Malayo-Polynesian,Philippines,Philippines
Hill Miri [mrg-2],27.945,93.88,#7684B8,Tibeto-Burman,Tani,India
Hill_Madia [mrr],18.9,81.15,#C06573,Dravidian,South-central,India
Hindi [hin],27.2,79.5,#6D63B9,Indo-European,Indo-Iranian,India
Hinukh [gin],42.274,45.793,#7B6785,Nakh-Daghestanian,Tsezic,Russia
Hitu [htu],-3.67,128.17,#A78C70,Malayo-Polynesian,Central Maluku,Indonesia
Hiw [hiw],-13.25,166.5,#958050,Oceanic,Southern Oceanic,Vanuatu
Hixkaryana [hix],1.5,-60,#7F4F81,Cariban,Parukotan,Brazil
Hkongso [mro],21.5,93,#3ABF6A,Tibeto-Burman,Mru,Myanmar
Hlai [lic],18.65,109.7,#53C47B,Tai-Kadai,South,China
Hlai-Baisha [lic-12],19.3,109.3,#3CC872,Tai-Kadai,South,China
Hlai-Baoting [lic-7],18.64,109.7,#38CA6B,Tai-Kadai,South,China
Hlai-Bouhin [lic-2],18.45,109.11,#54C37E,Tai-Kadai,South,China
Hlai-Changjiang [lic-10],19.3,109.06,#30C36F,Tai-Kadai,South,China
Hlai-Cun [lic-8],19.33,108.7,#43C665,Tai-Kadai,South,China
Hlai-Ha Em [lic-3],18.75,108.83,#4AC47D,Tai-Kadai,South,China
Hlai-Lauhut [lic-4],19.15,109.3,#48B982,Tai-Kadai,South,China
Hlai-Moyfaw [lic-11],18.17,107.21,#36C27A,Tai-Kadai,South,China
Hlai-Nadou [lic-9],19.36,108.9,#45C865,Tai-Kadai,South,China
Hlai-Tongzha [lic-5],18.7,109.6,#3EC17E,Tai-Kadai,South,China
Hlai-Yuanmen [lic-13],18.05,108.28,#43CD73,Tai-Kadai,South,China
Hlai-Zandui [lic-6],18.95,110,#43CA63,Tai-Kadai,South,China
Hlersu [hle],24.05,101.975,#269579,Tibeto-Burman,Lolo-Burmese,China
Hmar [hmr],25,92.2,#43AE99,Tibeto-Burman,Kuki-Chin-Naga,India
Hmong_Taigong [hea],26.63,108.28,#328D6A,Hmong-Mien,Hmongic,China
"Hmu_Northern [hea, hms]",26.77,108.22,#2CA965,Hmong-Mien,Hmongic,China
Hmwaveke [mrk],-20.92,164.58,#519F67,Oceanic,,New Caledonia
Ho [cmn-39],21.68,102.1,#2DA452,Tibeto-Burman,Sinitic,Laos
Ho [hoc],22,86,#9D62BC,Austroasiatic,Munda,India
Hoava [hoa],-8.17,157.58,#9B7C66,Oceanic,,Solomons
Hobyot [hoh],16.21,52.2,#574DB2,Afro-Asiatic,Semitic,Oman
Hohhot [cjy-8],40.82,111.65,#52AF45,Tibeto-Burman,Sinitic,China
Holoholo [hoo],-5.5,28.25,#857C81,Niger-Kongo,Bantoid,Democratic Republic of the Congo
Homshetsma [hye-3],40.72,41.44,#5169A6,Indo-European,Armenian,Turkey
Hong Kong Hakka [hak-18],22.31,114.23,#568753,Tibeto-Burman,Sinitic,China
Hopi [hop],36,-110,#8E927C,Uto-Aztecan,North,USA
Horjul [slv-20],46.02,14.3,#504491,Indo-European,Balto-Slavic,Slovenia
Hote_Misim [hot],-7.027,146.924,#9E7A60,Oceanic,,Papua New Guinea
Hoti [yau],5.5116,-65.496,#8C7D74,Hoti,,Venezuela
Houan [wuu-27],30.7,118.5,#33A648,Tibeto-Burman,Sinitic,China
Hoyahoya [hhy],-7.797,143.27,#965F76,Trans New Guinea,Inland Gulf,Papua New Guinea
Hpun [hpo],24.27,97.23,#3D946E,Tibeto-Burman,Lolo-Burmese,Myanmar
Hre [hre],15,108.667,#74967B,Austroasiatic,Bahnaric,Vietnam
Hresuk [adb],-8.22,125.61,#979872,Malayo-Polynesian,Timoric,Timor leste
Hu [huo],22.08,100.895,#5EB45D,Austroasiatic,Palaungic,China
Hua [ygr],-6.333,145.3,#9C615E,Trans New Guinea,Gorokan,Papua New Guinea
Huambisa [hub],-4.26,-77.84,#995287,Jivaroan,,Peru
Huaqie [sfm],27.3,105.3,#36916B,Hmong-Mien,Hmongic,China
Huariapano [pno-2],-7.17,-75,#896956,Panoan,Main,Peru
Huastec [hsf],22.08,-99.33,#86445E,Mayan,Huastecan,Mexico
Huastec_San Luis Potosi [hva],22.6,-100.43,#7F5C81,Mayan,Huastecan,Mexico
Huave [huv],16.2,-95,#8B5E63,Huave,,Mexico
Huaxuan [yue-10],23.4,113.2,#5EB95B,Tibeto-Burman,Sinitic,China
Huayang [czh],30.05,118.6,#36B042,Tibeto-Burman,Sinitic,China
Huayuan [mmr],28.3,109.7,#19957D,Hmong-Mien,Hmongic,China
Huichol [hch],22,-104,#A26373,Uto-Aztecan,South,Mexico
Huitoto_Minica [huu],-2.4,-72.25,#9A67A0,Witoto,Huitoto-Ocaina,Colombia
Huitoto_Murui [hux],-1,-73.5,#9D4299,Witoto,Huitoto-Ocaina,Colombia
Huizhou [yue-16],23.067,114.4,#4AB947,Tibeto-Burman,Sinitic,China
Hula [hul],-10.03,147.7,#AC7D66,Oceanic,,Papua New Guinea
Huli [hui],-5.845,142.947,#9E7A6A,Trans New Guinea,Engan,Papua New Guinea
Humla [hut],29.97,81.82,#36B2B2,Tibeto-Burman,Bodic,Nepal
Hungarian [hun],47,19,#6976BA,Uralic,Ugric,Hungary
Hunzib [huz],42.16,46.23,#4A3992,Nakh-Daghestanian,Tsezic,Russia
Hup [jup],0.167,-69.25,#886F84,Nadahup,,Brazil
Hupa [hup],41.08,-123.67,#636F6B,Dene-Yeniseic,Na-Dene,USA
I’saka [ksi],-2.9,141.4,#936949,Skou,South,Papua New Guinea
Iaai [iai],-20.417,166.417,#7D7EB3,Oceanic,Southern Oceanic,New Caledonia
Iamalele [yml],-9.38,150.588,#865753,Oceanic,,Papua New Guinea
Iatmul [ian],-4.25,143.25,#92916A,Sepik,Ndu,Papua New Guinea
