name,latitude,longitude,color,family,subgroup,country
!Xoon [nmn],-24,21.5,#1A7AC1,Tuu,Hua,Botswana
’Weenhayek [mtp],-21.99,-63.6,#4EB196,Matacoan,Mataguayo II,Bolivia
||Ana [gnk],-22.2,22.4,#1F7583,Khoe,Khoe,Botswana
||Ani [hnh],-19.3,22.5,#278097,Khoe,Khoe,Botswana
||Gana [gnk-2],-19,22.5,#246288,Khoe,Khoe,Botswana
||Xekwi [xeg],-23,22,#30A6AB,Tuu,!Kwi,Botswana
|Gwi [gwj],-22.435,21.654,#276FA6,Khoe,Khoe,Botswana
|Xam [xam],-30.34,21.82,#367AA3,Tuu,/Xam,South Africa
A'iwa [ash],-2,-74.5,#768D4F,A'iwa,,Peru
A'jië [aji],-21.342,165.459,#A382B4,Oceanic,Southern Oceanic,New Caledonia
Aari [aiw],6,36.6,#2C818F,Afro-Asiatic,Omotic,Ethiopia
Aashing [adi-10],28.99,94.9,#A87087,Tibeto-Burman,Macro-Tani,India
Abanyom [abm],6.499,8.647,#6A58AB,Niger-Kongo,Atlantic-Congo,Nigeria
Abar [mij-3],6.59,10.26,#466DB6,Niger-Kongo,Atlantic-Congo,Cameroon
Abau [aau],-4,141.167,#674E59,Sepik,Abau,Papua New Guinea
Abawiri [flh],-3.05,139.21,#364963,Lakes Plains,Eastern Lakes Plains,Indonesia-Papua
Abaza [abq],44.34,41.67,#2EEB7C,Northwest Caucasus,Abaza-Abkhaz,Russia
Abduyi [pes-4],29.7,52.07,#4A825A,Indo-European,Indo-Iranian,Iran
Abelam [abt-2],-3.83,143.17,#C4837B,Ndu,Nuclear Ndu,Papua New Guinea
Abellen [abp],15.41,120.2,#A97458,Malayo-Polynesian,Philippines,Philippines
Abenaki_Western [abe],44,-72.25,#75744F,Algic,Algonquian,USA
Aberdeenshire_English [sco-4],57.3,-2,#3F797F,Indo-European,Germanic,Britain
Abidji [abi],5.66,-4.58,#4F6296,Niger-Kongo,Atlantic-Congo,Côte d'Ivoire
Abinomn [bsa],-3,138.8,#6E704A,Abinomn,,Indonesia-Papua
Abipon [axb],-26,-61,#9E8755,Guaicuruan,Southern Guaicuruan,Argentina
Abkhaz [abk],43,41.03,#3CE47A,Northwest Caucasus,Abaza-Abkhaz,Abkhazia
Abkhaz_Bzyp [ady-13],43.32,40.41,#32ED83,Northwest Caucasus,Abaza-Abkhaz,Abkhazia
Abkhaz_Sadz [ady-12],43.33,40.22,#3BEB7A,Northwest Caucasus,Abaza-Abkhaz,Abkhazia
Abron [abr],8.03,-2.8,#3F4A88,Niger-Kongo,Atlantic-Congo,Ghana
Abruzzo [nap],42.66,13.7,#6581B3,Indo-European,Romance,Italy
Abua [abn],4.8,6.654167,#4D62B2,Niger-Kongo,Atlantic-Congo,Nigeria
Abui [abz],-8.417,124.6,#7C5661,Timor-Alor-Pantar,Alor-Pantar,Indonesia-NTT
Abujh_Maria [mrr-2],18.75,80.68,#B68269,Dravidian,South-Central Dravidian,India
Abun [kgr],-0.833,132,#4A5B89,West Papuan,Birds Head,Indonesia-Papua
Abure [abu],5.22,-3.64,#5B5C9F,Niger-Kongo,Atlantic-Congo,Côte d'Ivoire
Acatec [agu-2],15.7,-91.617,#53A067,Mayan,Core Mayan,Guatemala
Aceh_Lhokseumawe [ace-7],5.19,97.14,#6775CE,Malayo-Polynesian,Malayo-Sumbawan,Indonesia-Sumatra
Aceh_Pidie [ace-2],5.38,95.96,#6C74CC,Malayo-Polynesian,Malayo-Sumbawan,Indonesia-Sumatra
Acehnese [ace],5.333,96.167,#6273C6,Malayo-Polynesian,Malayo-Sumbawan,Indonesia-Sumatra
Acehnese_Northeast [ace-6],4.62,97.62,#5872C3,Malayo-Polynesian,Malayo-Sumbawan,Indonesia-Sumatra
Acehnese_South [ace-4],4.1,96.23,#5971C2,Malayo-Polynesian,Malayo-Sumbawan,Indonesia-Sumatra
Acehnese_Southwest [ace-3],5.05,95.34,#5A71C1,Malayo-Polynesian,Malayo-Sumbawan,Indonesia-Sumatra
Acehnese_West [ace-5],5.47,95.26,#5870C2,Malayo-Polynesian,Malayo-Sumbawan,Indonesia-Sumatra
Achagua [aca],4.002,-72.814,#6C8656,Arawak,Northern Maipuran,Colombia
Achang_Lianghe [acn-2],24.8,98.3,#4E7DD8,Tibeto-Burman,Lolo-Burmese,China
Achang_Longchuan [can-2],24.25,97.833,#4485E9,Tibeto-Burman,Lolo-Burmese,China
Achang_Luxi [can-3],24.527,103.764,#4469C2,Tibeto-Burman,Lolo-Burmese,China
Aćharêtâʹ [phl-2],35.4,71.75,#547FBF,Indo-European,Indo-Iranian,Afghanistan
Aché [guq],-25.25,-55.17,#7C6263,Tupian,Tupi-Guarani,Paraguay
Achi [acr],15.25,-90.5,#66975A,Mayan,Core Mayan,Guatemala
Achuar [acu],-3,-76,#9A8054,Jivaroan,Shuaric,Peru
Achumawi [acv],41.5,-121,#45B287,Palaihnihan,,USA
Acipa [acp],10.71,6.01,#1E9098,Niger-Kongo,Atlantic-Congo,Nigeria
Acoma [kjq-2],34.92,-107.58,#34A2B6,Keresan,Western Keresan,USA
Acooli [ach],3.293,32.871,#926FB5,Nilo-Saharan,Eastern Sudanic,Uganda
Adamawa Fulfulde [fub],8.9,15.84,#5C6CAF,Niger-Kongo,Atlantic-Congo,Cameroon
Adang [adn],-8.163,124.456,#896260,Timor-Alor-Pantar,Alor-Pantar,Indonesia-NTT
Adangme [ada],5.8,0.33,#4962AC,Niger-Kongo,Atlantic-Congo,Ghana
Adim [yay],5.81,8.03,#417378,Niger-Kongo,Atlantic-Congo,Nigeria
Adyghe [ady],44.1,39.08,#30DA76,Northwest Caucasus,Ubykh-Circassian,Russia
Adyghe_Abzakh [ady-11],44.7,38.9,#2ADC78,Northwest Caucasus,Ubykh-Circassian,Russia
Adyghe_Besleney [ady-5],44.7,40.75,#2CDF79,Northwest Caucasus,Ubykh-Circassian,Russia
Adyghe_Black Sea Shapsugh [ady-14],44.375,38.4,#21EC87,Northwest Caucasus,Ubykh-Circassian,Russia
Adyghe_Bzhedug [ady-6],45,39.3,#23E185,Northwest Caucasus,Ubykh-Circassian,Russia
Adyghe_Cherkess [ady-9],44.25,42.05,#2FDD75,Northwest Caucasus,Ubykh-Circassian,Russia
Adyghe_Hakuchi [ady-8],44.88,38,#2FDD75,Northwest Caucasus,Ubykh-Circassian,Russia
Adyghe_Natukai [ady-3],44.4,38.35,#2BEA7B,Northwest Caucasus,Ubykh-Circassian,Russia
Adyghe_Shapsugh [ady-2],44.3,39,#20EC87,Northwest Caucasus,Ubykh-Circassian,Russia
Adyghe_Temirgoy [ady-10],45.125,39.83,#30DB76,Northwest Caucasus,Ubykh-Circassian,Russia
Adyghe_Uzunyayla [ady-4],44.25,38.77,#2FDE79,Northwest Caucasus,Ubykh-Circassian,Russia
Adynyamathanha [adt],-31,139.5,#F08E9C,Pama-Nyungan,Thura-Yura,Australia
Adyukru [adj],5.38,-4.53,#755BB2,Niger-Kongo,Atlantic-Congo,Ghana
Adzera [azr],-6.417,146.25,#786C62,Oceanic,Western Oceanic,Papua New Guinea
Aeka [aez],-8.601,147.994,#6F5966,Trans New Guinea,Oro-Wharton,Papua New Guinea
Afar [aar],11.85,42,#CC7066,Afro-Asiatic,Cushitic,Djibouti
Afitti [aft-2],12.44,31,#8A6199,Nilo-Saharan,Eastern Sudanic,Sudan
Afrikaans [afr],-33.9,18.5,#705F83,Indo-European,Germanic,South Africa
Afshar [azj-2],37.475,57.33,#4E8D83,Turkic,Common Turkic,Iran
Agabag [mvv-3],3.965,117.095,#AF6C7F,Malayo-Polynesian,North Borneo,Indonesia-Kalimantan
Agarabi [agd],-6.25,145.917,#8A4B64,Trans New Guinea,Morobe-Eastern Highlands,Papua New Guinea
Agatu [agc],7.98,7.72,#5575B4,Niger-Kongo,Atlantic-Congo,Nigeria
Aghem [agq],6.39,10.12,#3765D0,Niger-Kongo,Atlantic-Congo,Cameroon
Aghu [ahh],-6.333,140,#555B51,Trans New Guinea,Awyu-Dumut,Indonesia-Papua
Aghu-Tharrnggala [gtu],-13.73,142.43,#D080AE,Pama-Nyungan,Paman,Australia
Aghul_Huppuq’ [agx-6],41.836,47.6602,#2FA279,Nakh-Daghestanian,Lezgic,Russia
Aglla [idu-3],6.8,7.95,#5983C9,Niger-Kongo,Atlantic-Congo,Nigeria
Agöb [kit],-9.09,142.53,#A06B91,South New Guinea,East Morehead,Papua New Guinea
Agta [agt],17.967,121.833,#836860,Malayo-Polynesian,Philippines,Philippines
Aguaruna [agr],-5.25,-78,#8C7E45,Jivaroan,Aguaruna,Peru
Aguatec [agu],15.4,-91.4,#509A66,Mayan,Core Mayan,Guatemala
Agul [agx],41.78,47.59,#33A072,Nakh-Daghestanian,Lezgic,Russia
Agul_Burkixan [agx-2],41.78,47.6,#34AC7C,Nakh-Daghestanian,Lezgic,Russia
Agul_Burshag [agx-3],41.86,47.62,#39B178,Nakh-Daghestanian,Lezgic,Russia
Agul_Fite [agx-4],41.79,47.59,#31AF82,Nakh-Daghestanian,Lezgic,Russia
Agul_Richa [agx-5],41.78,47.61,#2FB77E,Nakh-Daghestanian,Lezgic,Russia
Agusan [mbb-2],8.68,125.79,#A1705A,Malayo-Polynesian,Philippines,Philippines
Agusan_Manobo [msm],8.63,125.74,#9F6C62,Malayo-Polynesian,Philippines,Philippines
Agutaynen [agn],11.15,120.95,#B57F61,Malayo-Polynesian,Philippines,Philippines
Agwamin [wmi],-16.986,143.001,#DF768E,Pama-Nyungan,Paman,Australia
Ahamb [ahb],-16.507,167.703,#6E6497,Oceanic,Southern Oceanic,Vanuatu
Ahan [ahn],7.44,6.01,#4D68A4,Niger-Kongo,Atlantic-Congo,Nigeria
Ahanta [aha],4.85,-1.95,#4D6AA3,Niger-Kongo,Atlantic-Congo,Ghana
Ahi [yix],24.4,103.4,#2976C6,Tibeto-Burman,Lolo-Burmese,China
Ahom [aho],25,95,#4B5BAD,Tai-Kadai,Kam-Tai,India
Ahtna [aht],62,-145,#369370,Dene-Yeniseic,Na-Dene,USA-Alaska
Ai-cham_Diwo [aih],25.8,107,#346AD3,Tai-Kadai,Kam-Tai,China
Aikaná [tba],-12.1,-60.6,#55667C,Aikaná,,Brazil
Aimaq [aiq],35.28,59.18,#4B8B5D,Indo-European,Indo-Iranian,Iran
Ainu [ain],43.5,142,#795F4F,Ainu,,Japan
Ainu_Kuril [ain-2],46.5,151.5,#8E6B44,Ainu,,Japan
Ainu_Sakhalin [ain-3],49.07,142.03,#79614B,Ainu,,Japan
Airoran [air],-1.7,138.15,#827545,Tor-Kwerba,West Foya Range,Indonesia-Papua
Aisi [mmq],-5.35,145.15,#9E625D,Trans New Guinea,Madang,Papua New Guinea
Ait_Seghrouchen [tzm-2],33,-5,#5AB25E,Afro-Asiatic,Berber,Morocco
Aita_Rotokas [roo-2],-6,155.08,#A75E50,North Bougainville,Rotokas,Papua New Guinea-Bougainville
Aiton [aio-2],24,94,#5958B9,Tai-Kadai,Kam-Tai,India
Aitutaki [rar-2],-18.872,-159.782,#AA644F,Oceanic,Central Pacific,Cook Islands
Aiwoo [nfl],-10.5,166.5,#7E87A7,Oceanic,Te Motu,Solomons_East
Aizi [ahp],5.25,-4.5,#4E65A3,Niger-Kongo,Atlantic-Congo,Côte d'Ivoire
Aja [ajg],7.06,1.66,#5180CC,Niger-Kongo,Atlantic-Congo,Benin
Ajagbe [ajg-2],7.08,1.64,#59809A,Niger-Kongo,Atlantic-Congo,Benin
Ajumbu [muc-2],6.55,10.27,#3467C3,Niger-Kongo,Atlantic-Congo,Cameroon
Aka [axk],3.46,15.73,#2E5B9F,Ubangian,,Central African Republic
Aka [hru-2],27.2,92.9,#3493A2,Tibeto-Burman,Hrusish,India
Akabea [abj-2],12.38,92.78,#D0799B,Andaman,,India_Andaman-Nicobars
Akan [aka],6.5,-1.25,#346B7F,Niger-Kongo,Atlantic-Congo,Ghana
Akaselem [aks],8.89,1.37,#605BAC,Niger-Kongo,Atlantic-Congo,Togo
Akawaio [ake],6,-59.5,#88664D,Cariban,Venezuelan,Guyana
Ake [aik],8.6,8.76,#3D5CA5,Niger-Kongo,Atlantic-Congo,Nigeria
Akei [tsr],-15.49,166.75,#986E4C,Oceanic,Southern Oceanic,Vanuatu
Akha [ahk],20.3,99.6,#366191,Tibeto-Burman,Lolo-Burmese,Thailand
Akha_Akhe [ahk-8],21.916,100.465,#356DC7,Tibeto-Burman,Lolo-Burmese,Thailand
Akha_Buli [ahk-4],21.2,101.15,#3A69C2,Tibeto-Burman,Lolo-Burmese,Laos
Akha_Chicho [ahk-2],20.92,101.4,#3A68CF,Tibeto-Burman,Lolo-Burmese,Laos
Akha_Senchai [ahk-3],26.9,99,#306BB6,Tibeto-Burman,Lolo-Burmese,Myanmar
Akie [oki],-5.43,37.19,#7C5AB6,Nilo-Saharan,Eastern Sudanic,Kenya
Aklanon [akl],11.58,122.33,#9D785C,Malayo-Polynesian,Philippines,Philippines
Akosse [bss],5,9.7,#455B96,Niger-Kongo,Atlantic-Congo,Cameroon
Akoye [miw-2],-7.645,145.65,#614867,Trans New Guinea,Morobe-Eastern Highlands,Papua New Guinea
Akpes [ibe],7.5,5.96,#476794,Niger-Kongo,Atlantic-Congo,Nigeria
Akuntsu [aqz],-12.74,-60.8,#B46A57,Tupian,Tupari,Brazil
Akurio [ako],3.0132,-55.6434,#A4684B,Cariban,Guianan Carib,Suriname
Akwa [akw],-0.005,15.612,#4159A5,Niger-Kongo,Atlantic-Congo,Congo
Akweya [akf],7.33,8.02,#7A86CF,Niger-Kongo,Atlantic-Congo,Nigeria
Akye-Gnan [ati-2],5.48,-4.09,#1D58AD,Niger-Kongo,Atlantic-Congo,Côte d'Ivoire
Alaaba [alw],7.31,38.09,#438077,Afro-Asiatic,Cushitic,Ethiopia
Alaala [nrz],-9,146.667,#A06164,Oceanic,Western Oceanic,Papua New Guinea
Alaba-K'abeena [alw-2],7.39,38.17,#447691,Afro-Asiatic,Cushitic,Ethiopia
Alabama [akz],32.7,-86.1,#6B734B,Muskogean,Alabama-Koasati,USA
Alacalufe_Central [alc-2],-53.528,-70.9573,#667C47,Alaculufan,,Chile
Alacalufe_Southern [alc-3],-55.2,-69.4,#688454,Alaculufan,,Chile
Alagwa [wbj],-4.64,35.72,#5AB881,Afro-Asiatic,Cushitic,Tanzania
Alamblak [amp],-4.667,143.25,#797048,Sepik,Sepik Hill,Papua New Guinea
Alangan-Mangyan [alj],13.1,121.02,#A3705B,Malayo-Polynesian,Philippines,Philippines
Alas_Batak [btz],2.64,98,#8D6676,Malayo-Polynesian,Batak-Barrier Islands,Indonesia-Sumatra
Alawa [alh],-15.75,134.333,#E8859C,Macro-Gunwinygu,Marran,Australia
Albanian_Cham [als-4],39.6,20.8,#5487A7,Indo-European,Albanian,Greece
Albanian_Gheg [aln-2],42.43,20.73,#457797,Indo-European,Albanian,Albania
Albanian_Gheg_Kosovo [aln],42.58,21,#4C8570,Indo-European,Albanian,Kosovo
Albanian_Lab [als-5],40.17,19.83,#4E81AB,Indo-European,Albanian,Albania
Albanian_Mandritsa [aln-5],41.38,26.13,#547EAD,Indo-European,Albanian,Bulgaria
Albanian_Tosk [als],40.5,20,#4986B3,Indo-European,Albanian,Albania
Albanian_Upper_Reka [aln-4],41.72,20.57,#4B8A9A,Indo-European,Albanian,Montenegro
Albanian_Vaccarizzo [als-6],39.58,16.43,#5396B3,Indo-European,Albanian,Italy
Albese [ita-14],44.7,8.04,#7466AD,Indo-European,Romance,Italy
Alekano [gah-2],-6,145.4,#565D5C,Trans New Guinea,Morobe-Eastern Highlands,Papua New Guinea
Aleut [ale],54,-166,#66B18B,Eskimo-Aleut,Aleut,USA-Alaska
Aleut_Atkan [ale-2],52,-174,#66B381,Eskimo-Aleut,Aleut,USA-Alaska
Aleut_Attuan [ale-3],52.85,172.9,#69B486,Eskimo-Aleut,Aleut,USA-Alaska
Aleut_Eastern [ale-4],54.75,-164,#68B381,Eskimo-Aleut,Aleut,USA-Alaska
Aleut_Unangas [ale-5],55.3,166,#A7A774,Eskimo-Aleut,Aleut,USA-Alaska
Algherese [cat-3],40.55,8.32,#7B7DAD,Indo-European,Romance,Italy-Sardinia
Algonquin [alq],46,-82,#597348,Algic,Algonquian,Canada
Ali [ykm],-3.17,142.25,#BD756D,Oceanic,Western Oceanic,Papua New Guinea
Alladian [ald],5.17,-4.33,#3C6C99,Niger-Kongo,Atlantic-Congo,Côte d'Ivoire
Allentiac [qbt],-32,-66,#81885B,Huarpe,,Argentina
Alngith [aid],-12.5,142.17,#CB8AAA,Pama-Nyungan,Paman,Australia
Alo-Teqel [tql-2],-13.8,167.47,#A0716A,Oceanic,Southern Oceanic,Vanuatu
Alor [aol],-8.245,124.412,#8C6C5E,Malayo-Polynesian,Timoric,Indonesia-NTT
Alsatian [gsw-2],48.32,7.44,#4B7698,Indo-European,Germanic,France
Alsea [aes],44.67,-123.93,#39CF7C,Alsean,,USA
Altai [alt],51,87,#569290,Turkic,Common Turkic,Russia
Altai_Kumandy [atv],51.3,87.7,#5F667D,Turkic,Common Turkic,Russia
Alumbis_Murut [mvv],4.799,115.496,#A87061,Malayo-Polynesian,North Borneo,Malaysia-Borneo
Alune [alp],-3.167,128.333,#7C7043,Malayo-Polynesian,Central Maluku,Indonesia-Maluku-north
Alur [alz],2.5,31.25,#5569B7,Nilo-Saharan,Eastern Sudanic,Uganda
Alutiiq [ems],58.015,-152.765,#67BE74,Eskimo-Aleut,Eskimo,USA-Alaska
Alyawarr [aly],-24.6,134.5,#EE99AE,Pama-Nyungan,Arandic,Australia
Alyutor [alr],61,165,#B09C67,Chukotko-Kamchatkan,Main Chukotko-Kamchatkan,Russia
Ama [amm],-4.168,141.671,#58536C,Left May,,Papua New Guinea
Amahai_Soahuku [amq],-3.332,128.949,#A76E52,Malayo-Polynesian,Central Maluku,Indonesia-Maluku-north
Amahuaca [amc],-10.8,-73.5,#5B7A4E,Panoan,Southern Panoan,Peru
Amaimon [ali],-5.193,145.325,#A06E60,Trans New Guinea,Madang,Papua New Guinea
Amam [wer-2],-7.85,146.95,#A46352,Trans New Guinea,Oro-Wharton,Papua New Guinea
Amami_Ryukyu [ams],28,129,#3F7195,Japonic,Ryukyuan,Japan-Ryukyu
Amanab [amn],-3.5,141.167,#875C60,Trans New Guinea,Border,Papua New Guinea
Amanuban [aoz-2],-9.82,124.47,#796D41,Malayo-Polynesian,Timoric,Indonesia-NTT
Amanutun [aoz-4],-9.69,124.83,#7D794B,Malayo-Polynesian,Timoric,Indonesia-NTT
Amara [aie],-5.533,148.667,#AE6171,Oceanic,Western Oceanic,Papua New Guinea-Bismarcks
Amarakaeri [amr-2],-12.6938,-70.3235,#8D6856,Harakmbet,Harakmbut,Peru
Amarasi [aaz],-10.08,124.33,#7F7046,Malayo-Polynesian,Timoric,Indonesia-NTT
Amba_Nembao [utp-2],-11.27,166.48,#736A6E,Oceanic,Te Motu,Solomons_East
Ambae_West [omb],-15.5,167.75,#9E7261,Oceanic,Southern Oceanic,Vanuatu
Ambai [amk],-1.917,136.533,#776648,Malayo-Polynesian,Eastern Malayo-Polynesian,Indonesia-Papua
Ambel [xmt-2],-0.05,130.7,#805D6A,Malayo-Polynesian,Eastern Malayo-Polynesian,Indonesia-Papua
Ambelau [mhs-4],-3.89,127.205,#855C77,Malayo-Polynesian,Central Maluku,Indonesia-Maluku-north
Ambele [ael],5.94,9.62,#4563B1,Niger-Kongo,Atlantic-Congo,Cameroon
Amblong [alm],-15.497,166.926,#866852,Oceanic,Southern Oceanic,Vanuatu
Ambonese Malay [abs],-3.7,128.2,#B3727C,Malayo-Polynesian,Malayo-Sumbawan,Indonesia-Maluku-north
Ambrym_Southeast [tvk-2],-16.33,168.08,#876661,Oceanic,Southern Oceanic,Vanuatu
Ambulas [abt],-3.75,143.083,#9F6580,Ndu,Nuclear Ndu,Papua New Guinea
Amdo [adx],36,94,#5B91BA,Tibeto-Burman,Bodic,China
Ameland [frs-3],53.45,5.77,#4B6185,Indo-European,Germanic,Netherlands
Amele_Haija [aey],-5.25,145.75,#746645,Trans New Guinea,Madang,Papua New Guinea
Amele_Huar [aey-3],-5.287,145.718,#82664A,Trans New Guinea,Madang,Papua New Guinea
Amele_Jagahala [aey-2],-5.264,145.642,#796745,Trans New Guinea,Madang,Papua New Guinea
Amfo'an [aoz-3],-9.45,123.9,#6F7642,Malayo-Polynesian,Timoric,Indonesia-NTT
Amharic [amh],10,38,#4C8877,Afro-Asiatic,Semitic,Ethiopia
Ami [amy],-14,130,#DB7779,Western Daly,Maranunggu-Ame-Manda,Australia
Amis [ami],23.333,121.333,#929054,Austronesian,East Formosan,Taiwan
Amo [amo],10.33,8.67,#4C659B,Niger-Kongo,Atlantic-Congo,Nigeria
Amonap / Apalakiri / Matipu [mzo],-12.05,-53.4,#8B7461,Cariban,Nahukwa,Brazil
Amoy [nan],24.5,118,#2B4F85,Tibeto-Burman,Sinitic,China
Ampale [apz],-6.753,146.107,#5E5C8D,Trans New Guinea,Morobe-Eastern Highlands,Papua New Guinea
Ampibabo [law-2],-0.46,120.06,#B4716A,Malayo-Polynesian,Celebic,Indonesia-Sulawesi
Amu [swh-9],-2.27,40.9,#6192A5,Niger-Kongo,Atlantic-Congo,Tanzania
Amuesha [ame],-10,-73,#80AA82,Arawak,Western Maipuran,Peru
Amundava [adw],-10.9942,-63.0642,#9A6254,Tupian,Tupi-Guarani,Brazil
Amurdak [amg],-12.022,132.892,#FC8C98,Iwaidjan,Amurdak,Australia
Amuzgo [amu],16.83,-98,#3A67C5,Otomanguean,Eastern Otomanguean,Mexico
Amuzgo_Huixtepec [amu-2],16.5,-98.1,#4B6D6A,Otomanguean,Eastern Otomanguean,Mexico
Amuzgo_San_Pedro [azg],16.85,-98,#495D73,Otomanguean,Eastern Otomanguean,Mexico
Amuzgo_Xochistlahuaca [amu-3],16.79,-98.24,#486DB6,Otomanguean,Eastern Otomanguean,Mexico
Amwi [aml],25.209,92.068,#46629F,Austroasiatic,Khasi-Palaung,India
Anaguta [nar],9.964,8.731,#5A71A5,Niger-Kongo,Atlantic-Congo,Nigeria
Anakalang [akg],-9.67,119.67,#9E677A,Malayo-Polynesian,Flores-Sawu-Sumba,Indonesia-NTT
Anal [anm],24.33,93.99,#577CC0,Tibeto-Burman,Kuki-Chin-Naga,India
Anamuxra [imi],-4.667,145,#737B45,Trans New Guinea,Madang,Papua New Guinea
Andalusian [spa-4],37.5,-3.6,#73655A,Indo-European,Romance,Spain
Andi [ani],42.79,46.27,#31A67F,Nakh-Daghestanian,Avar-Andi,Russia
Andi_Tad-Magitil [ani-2],42.75,46.25,#2FA27C,Nakh-Daghestanian,Avar-Andi,Russia
Andoa [anb],-2.9,-76.4051,#7C9C60,Zaparoan,Iquito-Arabela,Peru
Andoké [ano],0,-72,#455455,Andoké,,Colombia
Anejom [aty],-20.25,169.833,#818B9D,Oceanic,Southern Oceanic,Vanuatu
Anem [anz],-5.667,149,#9D5D7B,Anem,,Papua New Guinea-Bismarcks
Aneme_Wake [aby],-9.733,148.52,#7C5B3B,Southeast Papuan,Owen Stanley Ranges,Papua New Guinea
Anfillo [myo],8.57,34.65,#517F61,Afro-Asiatic,Omotic,Ethiopia
Anfu [gan-21],27.38,114.62,#3956CB,Tibeto-Burman,Sinitic,China
Angaatiha [agm],-7.22,146.25,#BB6870,Trans New Guinea,Morobe-Eastern Highlands,Papua New Guinea
Angal [age],-6,143.6,#75635E,Trans New Guinea,Engan,Papua New Guinea
Angal_Heneng [akh],-6.13,143.42,#805857,Trans New Guinea,Engan,Papua New Guinea
Angali [pes-2],29.75,50.96,#4A9372,Indo-European,Indo-Iranian,Iran
Angami [njm],25.667,94.5,#628CD4,Tibeto-Burman,Kuki-Chin-Naga,India
Angas [anc],9.75,8.75,#3C73AC,Afro-Asiatic,Chadic,Nigeria
Anggor [agg],-3.667,141.167,#755E5B,Trans New Guinea,Border,Papua New Guinea
Anggreso [kwe-2],-2.17,138.25,#927547,Tor-Kwerba,West Foya Range,Indonesia-Papua
Angkamuthi [avm],-11.5,142.25,#CB839B,Pama-Nyungan,Paman,Australia
Angkola_Batak [akb],1.518,99.531,#AF6D74,Malayo-Polynesian,Batak-Barrier Islands,Indonesia-Sumatra
Anguthimri [awg],-12.333,141.833,#A97FBE,Pama-Nyungan,Paman,Australia
Ani_Phowa [ypn],23.6,103.3,#1687BA,Tibeto-Burman,Lolo-Burmese,China
Anib [kni],9.55,8.6,#3060A6,Niger-Kongo,Atlantic-Congo,Nigeria
Anii [blo],9.003,1.669,#5665C1,Niger-Kongo,Atlantic-Congo,Benin
Anindilyagwa [aoi],-14,136.5,#EC9CAA,Macro-Gunwinygu,East Arnhem,Australia
Anindilyagwa_East [aoi-2],-13.86,136.81,#E093B2,Macro-Gunwinygu,East Arnhem,Australia
Aniwa [fut-2],-19.256,169.6,#96614A,Oceanic,Central Pacific,Vanuatu
Anjam [boj],-5.441,145.737,#B47382,Trans New Guinea,Madang,Papua New Guinea
Ankave [aak],-7.137,145.744,#A56551,Trans New Guinea,Morobe-Eastern Highlands,Papua New Guinea
Anlong [pcc-6],25.1,105.44,#457ECD,Tai-Kadai,Kam-Tai,China
Anmatyerr_East [amx],-22.256,131.5,#F98BA3,Pama-Nyungan,Arandic,Australia
Anmatyerr_West [amx-2],-21,135,#FF9391,Pama-Nyungan,Arandic,Australia
Anong [nun],27.2,98.8,#4C81E4,Tibeto-Burman,Nungish,China
Ansus [and],-1.73,135.806,#826349,Malayo-Polynesian,Eastern Malayo-Polynesian,Indonesia-Papua
Anta [tci-3],-8.65,141.52,#696C62,South New Guinea,East Morehead,Indonesia-Papua
Antakarinya [ant],-27.11,134.85,#F7858B,Pama-Nyungan,Wati,Australia
Antakirinya [ant-2],-27.13,134.83,#F3878C,Pama-Nyungan,Wati,Australia
Antekerrepinhe [adg],-22.52,137.34,#EE92B3,Pama-Nyungan,Arandic,Australia
Antioquian [xxx-107],7,-73,#7D634C,Chibchan,Core Chibchan,Colombia
Antwerps [nld-2],51.22,4.4,#507699,Indo-European,Germanic,Belgium
Añú [pbg],11,-71.62,#8B654F,Arawak,Northern Maipuran,Venezuela
Anuak [anu],7.18,34.097,#B0639A,Nilo-Saharan,Eastern Sudanic,South Sudan
Anufo [cko],10.218,0.33,#6658A1,Niger-Kongo,Atlantic-Congo,Ghana
Anus [auq],-2.13,139.51,#895E56,Oceanic,Western Oceanic,Indonesia-Papua
Anuta [aud],-11.611,169.85,#9C5D4A,Oceanic,Central Pacific,Solomons_East
Anyi [gan-18],28.84,115.6,#425CC2,Tibeto-Burman,Sinitic,China
Anyin [any],5.9,-2.9,#47586B,Niger-Kongo,Atlantic-Congo,Côte d'Ivoire
Anywa [anu-2],7.3,33,#B065AD,Nilo-Saharan,Eastern Sudanic,South Sudan
Aoheng [pni],1.025,114.175,#9E5E70,Malayo-Polynesian,North Borneo,Indonesia-Kalimantan
Aore [aor],-15.577,167.181,#9F686A,Oceanic,Southern Oceanic,Vanuatu
Apache_Western [apw],33.9,-109.55,#289673,Dene-Yeniseic,Na-Dene,USA
Apalachee [xap],30.04,-84.17,#867F44,Muskogean,Alabama-Koasati,USA
Apalai [apy],0,-54,#7B6B43,Cariban,Apalai,Brazil
Apali [ena],-5.088,145.017,#7C725A,Trans New Guinea,Madang,Papua New Guinea
Apatani [apt],27.4,93.8,#625EB1,Tibeto-Burman,Macro-Tani,India
Apiaká [api],-7.9484,-57.7365,#9A6054,Tupian,Tupi-Guarani,Brazil
Apinaye [apn],-6.25,-48,#6C558F,Macro-Je,Je,Brazil
Apma [app],-15.775,168.158,#74686A,Oceanic,Southern Oceanic,Vanuatu
Apma_Suru Kavian [app-2],-15.61,168.14,#7C6975,Oceanic,Southern Oceanic,Vanuatu
Apurinã [apu],-7.26,-64.8,#88704C,Arawak,Southern Maipuran,Brazil
Apurinã-2 [apu-2],-5.63,-63.17,#8B7751,Arawak,Southern Maipuran,Brazil
Aputai [apx],-7.888,126.505,#866F4A,Malayo-Polynesian,Timoric,Indonesia-NTT
Arabana [ard],-28,137,#FB8E9B,Pama-Nyungan,Karnic,Australia
Arabela [arl],-2,-75.17,#797148,Zaparoan,Iquito-Arabela,Peru
Arabic [arb],30,42,#5FB15A,Afro-Asiatic,Semitic,Saudi Arabia
Arabic_Abéché [ayl-4],13.83,20.83,#5DB88A,Afro-Asiatic,Semitic,Chad
Arabic_Abha [acw-2],18.22,42.51,#4C9F58,Afro-Asiatic,Semitic,Saudi Arabia
Arabic_Afghanistan [acm-3],36.7,67.12,#649751,Afro-Asiatic,Semitic,Afghanistan
Arabic_Algerian [arq],36.7,3.1,#979A57,Afro-Asiatic,Semitic,Algeria
Arabic_Andalusian [xaa],35.767,-5.8,#53B069,Afro-Asiatic,Semitic,Spain
Arabic_Attuwair [acw-3],29.9,40.1,#59BC73,Afro-Asiatic,Semitic,Saudi Arabia
Arabic_Baghdad [acm-4],33.33,44.38,#5AA451,Afro-Asiatic,Semitic,Iran
Arabic_Bareqi [acw-7],18.93,41.94,#60AC55,Afro-Asiatic,Semitic,Saudi Arabia
Arabic_Basra [acm],30.5,47.825,#4AB86E,Afro-Asiatic,Semitic,Iraq
Arabic_Bukhara [abh],39.76,64.42,#639A54,Afro-Asiatic,Semitic,Uzbekistan
Arabic_Chad [shu-3],14,19,#5F9265,Afro-Asiatic,Semitic,Chad
Arabic_Chowa [shu-4],12.5,14.5,#5D8C5E,Afro-Asiatic,Semitic,Nigeria
Arabic_Coastal-Dhofari [acx],20.7,58.2,#4B9D56,Afro-Asiatic,Semitic,Oman
Arabic_Cypriot [acy],34.343,33.011,#4F9262,Afro-Asiatic,Semitic,Cyprus
Arabic_Egyptian [arz],30,30,#4E9455,Afro-Asiatic,Semitic,Egypt
Arabic_Faifa [jye-3],17.25,43.1,#4DA663,Afro-Asiatic,Semitic,Yemen
Arabic_Fezzan [ayl-3],26.33,13.43,#65C26A,Afro-Asiatic,Semitic,Libya
Arabic_Gulf [afb],24,54,#4AA864,Afro-Asiatic,Semitic,United Arab Emirates
Arabic_Hadhrami_coast [jye-5],14.95,50.34,#63A152,Afro-Asiatic,Semitic,Yemen
Arabic_Hadhrami_wadi [jye-6],16.05,49,#5EA353,Afro-Asiatic,Semitic,Yemen
Arabic_Harb [acw],25.81,42.87,#3AA36D,Afro-Asiatic,Semitic,Saudi Arabia
Arabic_Hassaniya [mey],16.6,-7.25,#69B473,Afro-Asiatic,Semitic,Mauritania
Arabic_Hejazi [acw-4],21.543,41.173,#489A5A,Afro-Asiatic,Semitic,Saudi Arabia
Arabic_Hejazi_Al'Ula [acw-5],26.627,37.917,#4B9857,Afro-Asiatic,Semitic,Saudi Arabia
Arabic_Hejazi_Badr [acw-8],23.78,38.79,#509556,Afro-Asiatic,Semitic,Saudi Arabia
Arabic_Ilbahariyya [arz-2],28.35,28.93,#57A554,Afro-Asiatic,Semitic,Egypt
Arabic_Jijel [ary-3],36.821,5.75,#9A9856,Afro-Asiatic,Semitic,Algeria
Arabic_Jordanian [ajp-5],32,36,#3BA35F,Afro-Asiatic,Semitic,Jordan
Arabic_Judeo-Tunisian [ajt],33.87,10.85,#51B170,Afro-Asiatic,Semitic,Tunisia
Arabic_Khawetna [arb-3],36.42,41.225,#55B66D,Afro-Asiatic,Semitic,Turkey
Arabic_Khuzestan [acm-2],31.33,48.69,#49A35F,Afro-Asiatic,Semitic,Iran
Arabic_Lebanese [apc-2],33.883,35.502,#87774B,Afro-Asiatic,Semitic,Lebanon
Arabic_Levantine_al-Karak [ajp-10],31.2,35.7,#4A945A,Afro-Asiatic,Semitic,Jordan
Arabic_Levantine_Amman [ajp-9],31.9,35.9,#4A945A,Afro-Asiatic,Semitic,Jordan
Arabic_Levantine_Homs [ajp-7],34.7,36.7,#4D9357,Afro-Asiatic,Semitic,Syria
Arabic_Levantine_Jerusalem [ajp-8],31.8,35.2,#518D52,Afro-Asiatic,Semitic,Israel
Arabic_Levantine_Northern_coast [ajp-11],34.9,35.9,#5C8F50,Afro-Asiatic,Semitic,Syria
Arabic_Levantine_Northern_inland [ajp-12],33.1,35.7,#539255,Afro-Asiatic,Semitic,Syria
Arabic_Levantine_Outer-south [ajp-14],31.3,34.6,#659151,Afro-Asiatic,Semitic,Israel
Arabic_Levantine_Southern [ajp-13],31.7,34.9,#639E56,Afro-Asiatic,Semitic,Israel
Arabic_Libyan [ayl],32,20.25,#3FA162,Afro-Asiatic,Semitic,Libya
Arabic_Libyan_Western [ayl-2],32.5,13,#53A657,Afro-Asiatic,Semitic,Libya
Arabic_Mardin [apc-3],37.363,40.91,#46A664,Afro-Asiatic,Semitic,Turkey
Arabic_Mauritanian [ary-2],20.92,-11.62,#A0A77C,Afro-Asiatic,Semitic,Mauritania
Arabic_Mesopotamian [acm-5],33,44,#55A752,Afro-Asiatic,Semitic,Israel
Arabic_Moroccan [ary],34,-7,#65B45D,Afro-Asiatic,Semitic,Morocco
Arabic_Muscat [acx-2],23.63,58.55,#4BAB5A,Afro-Asiatic,Semitic,Oman
Arabic_Najdi [acw-6],23,45.5,#56A055,Afro-Asiatic,Semitic,Saudi Arabia
Arabic_Negev [ajp-15],31.386,34.758,#50AF5E,Afro-Asiatic,Semitic,Syria
Arabic_Omani [acx-3],23.589,58.556,#419764,Afro-Asiatic,Semitic,Oman
Arabic_Omani_Shawawi [acx-4],22.92,57.79,#549E5A,Afro-Asiatic,Semitic,Syria
Arabic_Oran [arq-2],35.7,-0.63,#53AB62,Afro-Asiatic,Semitic,Algeria
Arabic_Palestinian_Urban [ajp-3],31.52,34.45,#499862,Afro-Asiatic,Semitic,Palestine
Arabic_Qatari [afb-3],25.3,51.52,#51AA66,Afro-Asiatic,Semitic,Qatar
Arabic_Sa'idi [aec],25,32.75,#70A04C,Afro-Asiatic,Semitic,Egypt
Arabic_Sason [arb-2],38.333,41.42,#52A275,Afro-Asiatic,Semitic,Turkey
Arabic_Saudi [ars],24.48,40,#4B9A56,Afro-Asiatic,Semitic,Saudi Arabia
Arabic_Sudanese [apd-2],15.5,32.56,#3C9A67,Afro-Asiatic,Semitic,Sudan
Arabic_Syrian [apc],33,37,#4CB171,Afro-Asiatic,Semitic,Syria
Arabic_Ta'izzi_Adeni [acq],11.502,43,#76B257,Afro-Asiatic,Semitic,Djibouti
Arabic_Tillo [arb-4],37.95,42.013,#4DBA81,Afro-Asiatic,Semitic,Turkey
Arabic_Traras-Msirda [ary-4],35.18,-1.65,#989353,Afro-Asiatic,Semitic,Algeria
Arabic_Tunisian [aeb],36,10,#4AB570,Afro-Asiatic,Semitic,Tunisia
Arabic_Wadi Mousa [ajp-2],30.32,35.48,#539252,Afro-Asiatic,Semitic,Jordan
Arabic_Yemeni [jye-2],14,47,#6FAE50,Afro-Asiatic,Semitic,Yemen
Arabic_Yemeni_Hadhrami [ayh],16.67,49.5,#66A450,Afro-Asiatic,Semitic,Yemen
Arabic_Yemeni_Tihamiyya [arb-6],13.083,43.833,#7DAC4E,Afro-Asiatic,Semitic,Yemen
Arabic_Yemeni_Zabidi [acq-2],14.2,43.317,#63AB54,Afro-Asiatic,Semitic,Yemen
Arabic; North Israel Bedouin [ajp-4],32.83,35.33,#3BB67B,Afro-Asiatic,Semitic,Israel
Aragonese [arg],41,-1,#9E7D5F,Indo-European,Romance,Spain
Araki [akr],-15.629,166.957,#AC6F61,Oceanic,Southern Oceanic,Vanuatu
Arakmbut [hug],-13.27,-71.21,#A25C5A,Harakmbet,Harakmbut,Peru
Aralle-Tabulahan [atq],-2.756,119.203,#956655,Malayo-Polynesian,Greater South Sulawesi,Indonesia-Sulawesi
Arammba [stk],-8.25,141.5,#49648D,South New Guinea,East Morehead,Papua New Guinea
Arandai [jbj],-2.17,133,#826950,Trans New Guinea,South Birds Head,Indonesia-Papua
Aranese [oci-4],42.7,0.795,#4E848C,Indo-European,Romance,Spain
Araona [aro],-12.333,-67.75,#63804B,Tacanan,Takanik-Chamik,Bolivia
Arapaho [arp],39.565,-105.345,#52713C,Algic,Algonquian,USA
Arapesh_Muhiang [aoj],-3.564,142.9,#68844C,Torricelli,Kombio-Arapesh,Papua New Guinea
Arara_do_Acre [adc],-8.841,-72.315,#6B7246,Panoan,Southern Panoan,Brazil
Arara_do_Mato_Grosso [axg],-9.5,-60,#64617D,Arara_do_Mato_Grosso,,Brazil
Arara_do_Para [aap-2],-4.24,-53.34,#C36963,Cariban,Pekodian,Brazil
Arára_Pará [aap],-4.2422,-53.3745,#C16E60,Cariban,Pekodian,Brazil
Araucanian lg [arn-2],-43,-73.5,#B88597,Araucanian,,Chile
Arawak [arw],5.64,-56.92,#776651,Arawak,Northern Maipuran,Guyana
Araweté [awt],-4.142017,-52.416914,#8E6A45,Tupian,Tupi-Guarani,Brazil
Arbanasi [aln-3],44.11,15.23,#4D7390,Indo-European,Albanian,Croatia
Arbëresh [als-2],37.995,13.283,#429CA5,Indo-European,Albanian,Italy
Arbëresh Kundisa [als-10],37.73,13.18,#4F9D98,Indo-European,Albanian,Italy
Arbëresh_Pianese [als-8],37.8,12.8,#5BA09A,Indo-European,Albanian,Italy
Arbore [arv],4.92,36.8,#437398,Afro-Asiatic,Cushitic,Ethiopia
Archi [aqc],42.07,46.86,#25CA82,Nakh-Daghestanian,Lezgic,Russia
Arctic Bay_Inuit [ikt],73.036,-85.15,#958749,Eskimo-Aleut,Eskimo,Canada
Are [mwc],-9.67,150,#897048,Oceanic,Western Oceanic,Papua New Guinea
Are'are [alu],-9.342,161.203,#8E6943,Oceanic,Southeast Solomonic,Solomons
Arem [aem],18.15,105.5,#3A6AD0,Austroasiatic,Vietic,Laos
Argobba [agj],10.66,39.76,#468B74,Afro-Asiatic,Semitic,Ethiopia
Arguni [agf],-2.667,132.5,#976999,Malayo-Polynesian,Eastern Malayo-Polynesian,Indonesia-Papua
Ari [aac],-7.916,142.34,#875D4A,Papuan Gulf,Gogodala-Suki,Papua New Guinea
Aribwatsa [laz],-6.667,146.917,#88705F,Oceanic,Western Oceanic,Papua New Guinea
Aribwaungg [ylu],-6.592,146.874,#487A84,Oceanic,Western Oceanic,Papua New Guinea
Arifama-Miniafia [aai],-9.142,149.279,#7E6241,Oceanic,Western Oceanic,Papua New Guinea
Arikapu [ark],-13,-62.5,#7A6252,Macro-Je,Jabutí,Brazil
Arikara [ari],40,-97,#717439,Caddoan,Northern Caddoan,USA
Aringa [luc],3,31,#4561B9,Nilo-Saharan,Central Sudanic,Uganda
Aritinngithigh [rrt],-13,141.67,#D67D95,Pama-Nyungan,Paman,Australia
Arizona Tewa [tew],35.8,-110.4,#3C6B72,Kiowa-Tanoan,Tewa,USA
Armenian [hye],40,45,#40936F,Indo-European,Armenian,Armenia
Armenian_Agulis [hye-5],38.95,45.98,#40936E,Indo-European,Armenian,Azerbaijan
Armenian_Aslanberg [hye-9],41.2,30.5,#448561,Indo-European,Armenian,Turkey
Armenian_Kharpert [hye-8],38.67,39.22,#40936E,Indo-European,Armenian,Armenia
Armenian_Khodorjur [hye-4],40.73,41.2,#3A896C,Indo-European,Armenian,Turkey
Armenian_Malatya [hye-7],38.35,38.3,#3C7F66,Indo-European,Armenian,Turkey
Armenian_Sebastia [hye-6],39.75,37.02,#3E8B6F,Indo-European,Armenian,Armenia
Armenian_Van [hye-10],38.49,43.38,#4D9162,Indo-European,Armenian,Turkey
Armenian_Western [hye-2],40,40,#3B7E67,Indo-European,Armenian,Turkey
Armenian_Yerevan [hye-11],40.18,44.52,#3E8E68,Indo-European,Armenian,Armenia
Aromanian [rup],42,23,#418567,Indo-European,Romance,Bulgaria
Aromanian-2 [rup-2],39.77,21.1,#4E8998,Indo-European,Romance,Greece
Arop-Lokep [apr],-5.333,147.083,#A06165,Oceanic,Western Oceanic,Papua New Guinea
Arosi [aia],-10.333,161.5,#896F58,Oceanic,Southeast Solomonic,Solomons
Arpitan [frp-3],45.17,5.72,#5976A5,Indo-European,Romance,France
Arrernte_Central [are],-22.85,133.7,#F89C9E,Pama-Nyungan,Arandic,Australia
Arrernte_Eastern [are-2],-23.292,134.445,#F38DB0,Pama-Nyungan,Arandic,Australia
Arrernte_Mparntwe [aer],-24,136,#F296A7,Pama-Nyungan,Arandic,Australia
Arrernte_Pertame [xxx-57],-24.5,132,#F58EB0,Pama-Nyungan,Arandic,Australia
Arta [atz],16.42,121.66,#A37563,Malayo-Polynesian,Philippines,Philippines
Arutani [atx],4.06,-62.88,#846F43,Arutani–Sape,,Brazil
Arvanitika [als-3],38.42,23.08,#4E83AC,Indo-European,Albanian,Greece
As [asz],-0.722,131.787,#836555,Malayo-Polynesian,Eastern Malayo-Polynesian,Indonesia-Papua
Asaro_Upper [aso],-5.967,145.292,#55685C,Trans New Guinea,Morobe-Eastern Highlands,Papua New Guinea
Asharon [acz],10.8,30.3,#AE76A8,Talodi-Heiban,Talodi,Sudan
Ashe [ahs],9.37,7.39,#4E63A5,Niger-Kongo,Atlantic-Congo,Nigeria
Asheninka_Apurucayali [cpc],-10.018,-74.793,#988652,Arawak,Southern Maipuran,Peru
Ashéninka_Perené [prq],-10.8734,-75.245,#8E8455,Arawak,Southern Maipuran,Peru
Ashéninka_Pichis [cpu],-9.9833,-74.9833,#969168,Arawak,Southern Maipuran,Peru
Ashéninka_Ucayali-Yurúa [cpb],-10.1619,-74.0234,#699A68,Arawak,Southern Maipuran,Brazil
Ashkun [ask],34.84,70.37,#B8858E,Indo-European,Indo-Iranian,Afghanistan
Asho [csh-3],22.91,93.68,#4A72CB,Tibeto-Burman,Kuki-Chin-Naga,Myanmar
Ashuku [nza-2],6.98,10.71,#4E5A9E,Niger-Kongo,Atlantic-Congo,Nigeria
Ashuslay [cag-2],-23.5,-60.5,#469973,Matacoan,Mataguayo I,Paraguay
Asi [bno-2],12.95,122.08,#B17855,Malayo-Polynesian,Philippines,Philippines
Asienara [asi],-3.75,133.33,#7D6846,Trans New Guinea,Asmat-Kamoro,Indonesia-Papua
Asilulu [asl],-3.67,127.95,#966E44,Malayo-Polynesian,Central Maluku,Indonesia-Maluku-north
Asmat [asc],-5.3,138.3,#876443,Trans New Guinea,Asmat-Kamoro,Indonesia-Papua
Asmat_North [nks],-5,138.5,#936642,Trans New Guinea,Asmat-Kamoro,Indonesia-Papua
Assamese [asm],26.5,93,#586A9C,Indo-European,Indo-Iranian,India
Assamese_Dudhnoi [asm-10],26,90.8,#5C749C,Indo-European,Indo-Iranian,India
Assiniboine [asb],49,-100,#3A8950,Siouan,Western Siouan,Canada
Asturian [ast],43.33,-6,#A17F69,Indo-European,Romance,Spain
Asumboa [aua],-11.296,166.496,#A87B8B,Oceanic,Te Motu,Solomons_East
Asur [asr-2],21.57,83.46,#9D86A3,Austroasiatic,Munda,India
Asuri [asr],23.04,84.54,#AE816D,Austroasiatic,Munda,India
Asurini [asu],-3.3,-49.3,#896F56,Tupian,Tupi-Guarani,Brazil
Asuriní_Tocantins [asu-2],-3.3,-50,#8B6744,Tupian,Tupi-Guarani,Brazil
Asuriní_Xingú [asn],-4.13,-52.32,#866F57,Tupian,Tupi-Guarani,Brazil
Ata [ata],-5.667,151,#8E6E4D,Ata,,Papua New Guinea-Bismarcks
Ata_Manobo [atd],7.845,125.506,#A16D58,Malayo-Polynesian,Philippines,Philippines
Atacameño [kuz],-23,-69,#549E5C,Atacameño,,Chile
Atadei [slp-3],-8.46,123.555,#A76374,Malayo-Polynesian,Timoric,Indonesia-NTT
Atakapa [aqp],30,-93,#6B815B,Atakapa,,USA
Atamanu [jal],-3.396,129.313,#9B685E,Malayo-Polynesian,Central Maluku,Indonesia-Maluku-north
Atampaya [amz],-11.33,142.5,#CB8299,Pama-Nyungan,Paman,Australia
Atayal [tay],24.5,121,#769663,Austronesian,Atayalic,Taiwan
Atchin [upv],-16,167.333,#477295,Oceanic,Southern Oceanic,Vanuatu
Ateso [teo],1.915,33.955,#5E69A7,Nilo-Saharan,Eastern Sudanic,Uganda
Athpare [aph],26.75,87.33,#727694,Tibeto-Burman,Kiranti,Nepal
Atikamekw [atj],48,-74,#8E743E,Algic,Algonquian,Canada
Atong [aot],25.5,90.5,#8A6F8A,Tibeto-Burman,Bodo-Garo,India
Atsawaka [atc],-14.17,-69.5,#6D7048,Panoan,Southern Panoan,Peru
Atsi [atb-2],28,93.5,#4B7FC6,Tibeto-Burman,Lolo-Burmese,India
Atsugewi [atw],40.75,-121,#5EB46E,Palaihnihan,,USA
Atta_Pamplona-1 [att-2],18.46,121.341,#AA734E,Malayo-Polynesian,Philippines,Philippines
Atta_Pamplona-2 [att],18.458,121.342,#B38059,Malayo-Polynesian,Philippines,Philippines
Attie [ati],6,-3.82,#285DB0,Niger-Kongo,Atlantic-Congo,Côte d'Ivoire
Au [avt],-3.5,142.083,#916D48,Torricelli,Central Torricelli,Papua New Guinea
Auhelawa [kud],-10.284,151.02,#6C7F4E,Oceanic,Western Oceanic,Papua New Guinea
Aujila [auj],29.23,21.18,#48A559,Afro-Asiatic,Berber,Libya
Aulua [aul],-16.33,167.694,#8682A7,Oceanic,Southern Oceanic,Vanuatu
Aurland [nob-3],60.87,7.23,#446EB7,Indo-European,Germanic,Norway
Austral [aut],-23.377,-149.498,#7F664A,Oceanic,Central Pacific,French Polynesia
Auyana [auy],-6.523,145.708,#62575E,Trans New Guinea,Morobe-Eastern Highlands,Papua New Guinea
Auye [auu],-3.495,136.002,#825055,Trans New Guinea,Western Trans New Guinea,Indonesia-Papua
Avá-Canoeiro [avv],-13.166403,-47.928611,#BB6960,Tupian,Tupi-Guarani,Brazil
Avar [ava],42.54,46.7,#3BAB68,Nakh-Daghestanian,Avar-Andi,Russia
Avatime [avn],6.85,0.44,#2A72AA,Niger-Kongo,Atlantic-Congo,Ghana
Avava [tmb],-16.224,167.523,#8F7289,Oceanic,Southern Oceanic,Vanuatu
Aveteian [dix],-16.443,167.43,#9F6C8A,Oceanic,Southern Oceanic,Vanuatu
Avikam [avi],5.16,-5.25,#2E556B,Niger-Kongo,Atlantic-Congo,Côte d'Ivoire
Avok [xxx-59],-16.53,167.7,#5178A9,Oceanic,Southern Oceanic,Vanuatu
Avok_Maxbaxo [xxx-103],-16.496,167.665,#6581A7,Oceanic,Southern Oceanic,Vanuatu
Avokaya [avu],5,30.2,#4660BE,Nilo-Saharan,Central Sudanic,South Sudan
Awa [awb],-6.75,145.667,#724966,Trans New Guinea,Morobe-Eastern Highlands,Papua New Guinea
Awa Pit [kwi],0.75,-78.5,#538B75,Barbacoan,Northern Barbacoan,Ecuador
Awabakal [awk],-33.05,151.55,#DE7A70,Pama-Nyungan,Yuin-Kuri,Australia
Awad Bing [bcu],-5.584,146.349,#9A6A5C,Oceanic,Western Oceanic,Papua New Guinea
Awadhi [awa],27.5,81.5,#899AB5,Indo-European,Indo-Iranian,India
Awak [awo],9.86,11.33,#3C5DBD,Niger-Kongo,Atlantic-Congo,Nigeria
Awar [aya],-4,144.625,#556185,Lower Sepik-Ramu,Ramu,Papua New Guinea
Awara [awx],-6.094,146.441,#6B7662,Trans New Guinea,Morobe-Eastern Highlands,Papua New Guinea
Awbono [awh],-5.119,139.201,#6B654B,Bayono-Awbono,,Indonesia-Papua
Aweer [bob-2],-1.717,40.967,#BB767E,Afro-Asiatic,Cushitic,Kenya
Awera [awr],-2.677,136.242,#9A5E3F,Lakes Plains,Western Lakes Plains,Indonesia-Papua
Awetí [awe],-12.926,-54.277,#BD6B68,Tupian,Aweti,Brazil
Awiakay [afp],-4.672,143.712,#BD6F79,Arafundi,,Papua New Guinea
Awin [awi],-5.833,142.5,#705870,Trans New Guinea,Awin-Pa,Papua New Guinea
Awing [azo],5.88,10.24,#4D5C71,Niger-Kongo,Atlantic-Congo,Cameroon
Awiya [som-2],10.851,36.892,#4E78BB,Afro-Asiatic,Cushitic,Ethiopia
Awngi [awn],10.83,36.67,#3D95A3,Afro-Asiatic,Cushitic,Ethiopia
Awngthim [gwm],-12.54,141.98,#B186B0,Pama-Nyungan,Paman,Australia
Awtuw [kmn],-3.5,141.917,#C76277,Sepik,Ram,Papua New Guinea
Awu Alaya [typ-2],-14.83,143.32,#B37AAC,Pama-Nyungan,Paman,Australia
Awutu [afu],5.42,-0.6,#5F6AC7,Niger-Kongo,Atlantic-Congo,Ghana
Awyi [auw],-3,140.75,#85605A,Trans New Guinea,Border,Papua New Guinea
Axi [yix-2],24.4,103.44,#317BC2,Tibeto-Burman,Lolo-Burmese,China
Axininca [cpc-2],-9,-75,#829B62,Arawak,Southern Maipuran,Peru
Axvax [akv],42.379,46.384,#33A573,Nakh-Daghestanian,Avar-Andi,Russia
Ayapathu [ayd-2],-14.29,143.11,#DE7783,Pama-Nyungan,Paman,Australia
Ayere [aye],7.52,6.02,#4D68A4,Niger-Kongo,Atlantic-Congo,Nigeria
Ayerrerenge [axe],-22.5,137.36,#F78A9C,Pama-Nyungan,Arandic,Australia
Aymara [ayr],-16,-69.5,#94A769,Aymaran,Aymara,Peru
Aymara_Carangas [ayr-3],-18.45,-67.45,#A0A87D,Aymaran,Aymara,Bolivia
Aymara_Chile [ayc],-19.15,-69.4,#94AE87,Aymaran,Aymara,Chile
Aymara_Muylaq' [ayr-2],-16.675,-70.712,#91AB6D,Aymaran,Aymara,Peru
Äynu [aib],38.069,76.227,#4E846E,Turkic,Common Turkic,China
Ayoré [ayo],-20.5,-59.25,#A67382,Zamucoan,,Paraguay
Ayu [ayu],9.26,8.6,#425DAC,Niger-Kongo,Atlantic-Congo,Nigeria
Azerbaijani [azj],40.5,48.5,#438074,Turkic,Common Turkic,Azerbaijan
Azerbaijani_Tabriz [azj-3],38.07,46.3,#457E64,Turkic,Common Turkic,Azerbaijan
Azeri [azb],40.67,47.75,#3E8175,Turkic,Common Turkic,Azerbaijan
Azha [aza],23.37,104.25,#2A76C3,Tibeto-Burman,Lolo-Burmese,China
Azhe [yiz],24.2,103.6,#3380CB,Tibeto-Burman,Lolo-Burmese,China
B'lit_Manobo [mta],6.39,124.23,#8F6759,Malayo-Polynesian,Philippines,Philippines
Ba:ngingi_Sama [sse],6.133,121.805,#A1766E,Malayo-Polynesian,Barito,Philippines
Baagandji [drl],-32,142.533,#FA8C98,Pama-Nyungan,Yarli-Baagandji,Australia
Baale [koe],5,36,#5269A8,Nilo-Saharan,Eastern Sudanic,South Sudan
Baangi [bqx],10.81,5.73,#26789D,Niger-Kongo,Atlantic-Congo,Nigeria
Baarin [mon-2],43.53,118.67,#63687F,Mongolic,Core Mongolic,China
Baatonum [bba-2],9.63,3,#585A70,Niger-Kongo,Atlantic-Congo,Benin
Baba [bbw],6.11,10.52,#6770AE,Niger-Kongo,Atlantic-Congo,Cameroon
Babanki [bbk],6.104,10.311,#2E6BB4,Niger-Kongo,Atlantic-Congo,Cameroon
Babar_North [bcd],-7.83,129.58,#8C5F4C,Malayo-Polynesian,Southeast Maluku,Indonesia-Maluku-south
Babar_Southeast [vbb],-7.92,129.67,#7D734E,Malayo-Polynesian,Southeast Maluku,Indonesia-Maluku-south
Babatana [baa],-7.397,157.37,#7A646D,Oceanic,Western Oceanic,Solomons
Babine-Witsuwit'en [bcr],55,-127,#29AC79,Dene-Yeniseic,Na-Dene,Canada
Babungo [bav],6.12,10.42,#3453BB,Niger-Kongo,Atlantic-Congo,Cameroon
Babuza [bzg-2],24,120.58,#787151,Austronesian,Western Plains,Taiwan
Baca [baf],4.36,11.03,#515BA8,Niger-Kongo,Atlantic-Congo,Cameroon
Bachamal [wdj-2],-13.17,130.17,#E889A2,Wagaydyic,Wadjiginy,Australia
Bada [bhz],-1.793,120.313,#715F7E,Malayo-Polynesian,Celebic,Indonesia-Sulawesi
Badaga [bfq],11.31,76.6,#BA89A1,Dravidian,South Dravidian,India
Bade [bde],12.79,10.66,#378CAE,Afro-Asiatic,Chadic,Nigeria
Bade-2 [bde-2],12,12,#4A967A,Afro-Asiatic,Chadic,Nigeria
Badeng [xkl-3],3.17,115.22,#916574,Malayo-Polynesian,North Borneo,Malaysia-Borneo
Badimaya [bia],-27.667,119,#F98C9B,Pama-Nyungan,Kardu,Australia
Badjala [xby],-25.084,152.529,#DD7881,Pama-Nyungan,Waka-Kabic,Australia
Badjiri [jbi],-28.79,145.47,#F18EA2,Pama-Nyungan,Karnic,Australia
Badyara [pbp],11.633,-13.4,#8F729E,Niger-Kongo,Atlantic-Congo,Guinea
Baelelea [bvc],-8.453,160.66,#957964,Oceanic,Southeast Solomonic,Solomons
Baenggu [bvd],-8.506,160.706,#9C7262,Oceanic,Southeast Solomonic,Solomons
Baetora [btr],-15.258,168.166,#7A7151,Oceanic,Southern Oceanic,Vanuatu
Bafang [cmn-68],35.6,103.217,#366BC4,Tibeto-Burman,Sinitic,China
Bafanji [bfj-2],5.84,10.46,#3F6DB4,Niger-Kongo,Atlantic-Congo,Cameroon
Bafo [bwt],6.351,10.229,#3D5AA2,Niger-Kongo,Atlantic-Congo,Cameroon
Bafut [bfd],6.083,10.0999,#307DAF,Niger-Kongo,Atlantic-Congo,Cameroon
Baga_Koga [bgo],10.13,-13.95,#7667A5,Niger-Kongo,Atlantic-Congo,Guinea
Baga_Mboteni [bcg],10.83,-14.55,#8F6586,Niger-Kongo,Atlantic-Congo,Guinea
Baga_Sitemu [bsp],10.48,-14.48,#83607F,Niger-Kongo,Atlantic-Congo,Guinea
Bagheli [bfy],24.35,81.43,#738FBC,Indo-European,Indo-Iranian,India
Bagirmi [bmi],10.202,17,#9370C2,Nilo-Saharan,Central Sudanic,Chad
Bagri [bgq],29.6,74.3,#7E7DCC,Indo-European,Indo-Iranian,India
Baguiro_Zangba [bmi-2],7.29,18.82,#6162C4,Nilo-Saharan,Central Sudanic,Central African Republic
Bagulal [kva],42.56,46.17,#49A871,Nakh-Daghestanian,Avar-Andi,Russia
Bagusa [bqb],-1.905,137.932,#897646,Tor-Kwerba,West Foya Range,Indonesia-Papua
Baharnah [afb-4],26.03,50.55,#5B9A4F,Afro-Asiatic,Semitic,Bahrain
Bahau [bhv],0.06,115.65,#84715F,Malayo-Polynesian,North Borneo,Indonesia-Kalimantan
Bahinemo [bjh],-4.435,142.726,#71674B,Sepik,Sepik Hill,Papua New Guinea
Bahing [bhj],27.27,86.56,#526AB3,Tibeto-Burman,Kiranti,Nepal
Bahnar [bdq],14,108.5,#A38E9F,Austroasiatic,Bahnaric,Vietnam
Bahonsuai [bsu],-2.23,121.71,#786062,Malayo-Polynesian,Celebic,Indonesia-Sulawesi
Bai [bca],26,100,#336BCD,Tibeto-Burman,Macro-Bai,China
Bai_Eryuan [bca-2],26.12,99.95,#3267D2,Tibeto-Burman,Macro-Bai,China
Bai_Heqing [bca-3],26.56,100.18,#2B63CC,Tibeto-Burman,Macro-Bai,China
Bai_Lanping [bca-4],26.45,99.42,#3060C7,Tibeto-Burman,Macro-Bai,China
Bai_Luobenzhuo [bca-5],26.42,98.89,#3077E3,Tibeto-Burman,Macro-Bai,China
Bai_Qiliqiao [bca-6],25.65,100.18,#3260C7,Tibeto-Burman,Macro-Bai,China
Bai_Xiangyun [bca-7],25.48,100.55,#325EC6,Tibeto-Burman,Macro-Bai,China
Bai_Yunlong [bca-8],25.88,99.37,#3463D2,Tibeto-Burman,Macro-Bai,China
Bai_Zhoucheng [bca-9],24.48,101.34,#3960CC,Tibeto-Burman,Macro-Bai,China
Baikeno [bkx],-9.3,124.32,#797143,Malayo-Polynesian,Timoric,Timor leste
Baima [bqh],30.32,107.34,#2E6EDB,Tibeto-Burman,Bodic,China
Bainapi [dby],-7.904,142.715,#855E4D,Papuan Gulf,Strickland,Papua New Guinea
Baining [gcc-2],-4.6,152,#746661,Baining,,Papua New Guinea-Bismarcks
Baiso [bsw-3],6.45,37.77,#428788,Afro-Asiatic,Cushitic,Somalia
Bajau_Semporna [ssb],4.5,118.5,#76656B,Malayo-Polynesian,Barito,Indonesia-Kalimantan
Bajau_Sulawesi [bdl-2],-3.75,122.5,#8D6571,Malayo-Polynesian,Barito,Indonesia-Sulawesi
Bajo_Kangean [bdl],-7.17,115.82,#8F73A7,Malayo-Polynesian,Barito,Indonesia-Kalimantan
Bajuni [swh-2],-1,42.04,#728AB0,Niger-Kongo,Atlantic-Congo,Kenya
Baka [bdh],4.8,31.6,#576FCF,Nilo-Saharan,Central Sudanic,South Sudan
Baka [bkc],2.16,13.78,#3A5CAC,Ubangian,Sere-Mba,Cameroon
Bakairí [bkq],-14,-55,#666B53,Cariban,Pekodian,Brazil
Bakairí_East [bkq-3],-14.43,-54.025,#726C4F,Cariban,Pekodian,Brazil
Bakairí_West [bkq-2],-14.7302,-56.2479,#736C50,Cariban,Pekodian,Brazil
Bakaka [bqz],4.8,9.8,#56618E,Niger-Kongo,Atlantic-Congo,Cameroon
Bakhtiari [ldd],31.92,50.86,#609052,Indo-European,Indo-Iranian,Iran
Baki [bki],-16.717,168.138,#B37E8A,Oceanic,Southern Oceanic,Vanuatu
Bakoko [bkh],4.2,9.67,#3E5EB4,Niger-Kongo,Atlantic-Congo,Cameroon
Bakole [kme],4.44,8.97,#5F6FBF,Niger-Kongo,Atlantic-Congo,Cameroon
Bakumpai [bkr],-1.988,114.7,#A56F6E,Malayo-Polynesian,Barito,Indonesia-Kalimantan
Balaesang [bls],-0.06,119.69,#A86962,Malayo-Polynesian,Celebic,Indonesia-Sulawesi
Balami [new-4],27.801,85.25,#8681C2,Tibeto-Burman,Newaric,Nepal
Balangao [blw],17.167,120.333,#936A5B,Malayo-Polynesian,Philippines,Philippines
Balanta [ble],12,-15,#505D9A,Niger-Kongo,Atlantic-Congo,Guinea Bissau
Balantak [blz],-0.82,123.431,#B46D6E,Malayo-Polynesian,Celebic,Indonesia-Sulawesi
Balante_Sofa [bjt],12.54,-15.67,#5F63A8,Niger-Kongo,Atlantic-Congo,Guinea Bissau
Balawaia [snc-2],-9.98,147.865,#727941,Oceanic,Western Oceanic,Papua New Guinea
Balearic [cat-2],39.5,3,#707DAB,Indo-European,Romance,Spain
Balendru [led],1.968,30.485,#3775BB,Nilo-Saharan,Central Sudanic,Democratic Republic of the Congo
Bali-Vitu [wiv],-4.733,149.283,#A36B61,Oceanic,Western Oceanic,Papua New Guinea-Bismarcks
Balinese [ban],-8.583,115.25,#A66C9B,Malayo-Polynesian,Malayo-Sumbawan,Indonesia-NTB
Balingian [mel-7],2.92,112.53,#AD7E78,Malayo-Polynesian,Malayo-Sumbawan,Malaysia-Borneo
Balochi [bgp-2],27,63.5,#729E7D,Indo-European,Indo-Iranian,Pakistan
Balti [bft],35.2,76,#72A9AB,Tibeto-Burman,Bodic,Pakistan
Baluchi [bgp],27.2,60.68,#478F6C,Indo-European,Indo-Iranian,Iran
Balui Liko [ree-3],1.92,114.52,#936C70,Malayo-Polynesian,North Borneo,Malaysia-Borneo
Bam [bmc],-3.61,144.82,#B36A76,Oceanic,Western Oceanic,Papua New Guinea
Bambalang [bmo],5.86,10.54,#387DB9,Niger-Kongo,Atlantic-Congo,Cameroon
Bambara [bam],12.5,-7.5,#51659A,Mande,Western Mande,Mali
Bamenyam [bce],5.77,10.33,#596CB4,Niger-Kongo,Atlantic-Congo,Cameroon
Bamu [bcf],-8,143.833,#896645,Kiwaian,Bamu,Papua New Guinea
Bamun [bax],5.726,10.904,#3F64C2,Niger-Kongo,Atlantic-Congo,Cameroon
Bamunka [bvm],6,10.51,#4870A5,Niger-Kongo,Atlantic-Congo,Cameroon
Bana [bcw],10.42,13.58,#35AB92,Afro-Asiatic,Chadic,Cameroon
Banam Bay [vrt-2],-16.41,167.78,#605F81,Oceanic,Southern Oceanic,Vanuatu
Banda [bnd],-5.25,133.17,#9C6173,Malayo-Polynesian,Central Maluku,Indonesia-Maluku-north
Banda [bpd],2,22,#3266B0,Ubangian,Bandaic,Central African Republic
Banda_Ndele [bfl],8.03,23.9,#3368AD,Ubangian,Bandaic,Central African Republic
Bandi [bza],7.74,-10.17,#3961A5,Mande,Western Mande,Liberia
Bandiaal [bqj-2],13.02,-15.32,#9D5E84,Niger-Kongo,Atlantic-Congo,Senegal
Bandjalang [bdy],-28.74,153.01,#DB7871,Pama-Nyungan,Yugambeh-Bundjalung,Australia
Bandjalang-2 [bdy-4],-28.39,152.61,#DB7771,Pama-Nyungan,Yugambeh-Bundjalung,Australia
Bandjalang-Gidabal [bdy-2],-28.25,152,#D97770,Pama-Nyungan,Yugambeh-Bundjalung,Australia
Bandjigali [bjd],-30.08,143.28,#FA8C9A,Pama-Nyungan,Yarli-Baagandji,Australia
Banggai [bgz],-1.42,123.17,#94657F,Malayo-Polynesian,Celebic,Indonesia-Sulawesi
Banggime [dbb],14.78,-3.76,#5C51AC,Banggime,,Mali
Bangla Rahri Upobhasa [ben-12],23.24,87.86,#7D87A4,Indo-European,Indo-Iranian,Bangladesh
Bangla_Mymensingh [ben-11],24.75,90.4,#6D705D,Indo-European,Indo-Iranian,Bangladesh
Bangolan [bgj],6.05,10.45,#485A72,Niger-Kongo,Atlantic-Congo,Cameroon
Bangru [hru-3],27.9,93.35,#8C5E93,Tibeto-Burman,Hrusish,India
Bangubangu [bnx],-4.689,27.693,#636465,Niger-Kongo,Atlantic-Congo,Democratic Republic of the Congo
Baniwa_Central [bwi],1.4091,-68.1358,#C1796B,Arawak,Northern Maipuran,Brazil
Baniwa_do_Içana [bwi-2],2.18,-67.77,#BD8997,Arawak,Northern Maipuran,Brazil
Baniwa_Rio_Negro [bwi-3],0.053,-67.43,#73705F,Arawak,Northern Maipuran,Brazil
Baniwa_Siusi [bwi-4],2.19,-67.76,#BB95A4,Arawak,Northern Maipuran,Brazil
Banjar [bjn],0.75,115.79,#C17F78,Malayo-Polynesian,Malayo-Sumbawan,Indonesia-Kalimantan
Banjari [lmn-2],16.5,77.455,#AE86A7,Indo-European,Indo-Iranian,India
Bankariya [cdm-2],27.5,85,#7D94C3,Tibeto-Burman,Chepang,Nepal
Bankon [abb],4.37,9.64,#596FC2,Niger-Kongo,Atlantic-Congo,Cameroon
Banoni [bcm],-6.417,155.25,#91735B,Oceanic,Western Oceanic,Papua New Guinea-Bougainville
Bantang [pho-6],21.75,102.25,#3966BA,Tibeto-Burman,Lolo-Burmese,Laos
Bantawa [bap],27.2,87.1,#75709C,Tibeto-Burman,Kiranti,Nepal
Banten [sun-2],-6.35,106.1,#A5738B,Malayo-Polynesian,Malayo-Sumbawan,Indonesia-Java
Bantik [bnq],1.564,124.859,#9B685D,Malayo-Polynesian,Philippines,Indonesia-Sulawesi
Bantoanon [bno],12.784,122.049,#AF7A57,Malayo-Polynesian,Philippines,Philippines
Banyaduq [byd],0.5,110,#B9778A,Malayo-Polynesian,Malayo-Sumbawan,Indonesia-Kalimantan
Banyum [bab],11.497,-16.5,#806394,Niger-Kongo,Atlantic-Congo,Guinea Bissau
Banyun [bcb-2],12.75,-16.3,#8F6095,Niger-Kongo,Atlantic-Congo,Senegal
Baoan [peh],35.05,102.1,#61A2AA,Mongolic,Core Mongolic,China
Baoan [yue-20],22.55,113.9,#525ABA,Tibeto-Burman,Sinitic,China
Baoan_Dahejia [peh-2],35.72,102.88,#669297,Mongolic,Core Mongolic,China
Baoan_Dongxiang [peh-5],35.6,103.22,#5B9B9E,Mongolic,Core Mongolic,China
Baoan_Kangjia [peh-4],35.04,101.25,#488D97,Mongolic,Core Mongolic,China
Baoan_Ñantoq [peh-3],35.41,102.08,#60969A,Mongolic,Core Mongolic,China
Bará [bao],0.1,-70.45,#7A5D34,Tucanoan,East Tucanoan,Colombia
Baraba [tat-3],55.333,78.333,#4E8381,Turkic,Common Turkic,Russia
Barai [bbb],-9.417,148,#71674C,Southeast Papuan,Owen Stanley Ranges,Papua New Guinea
Barain_Giliya [bva-2],12.08,18.58,#B26789,Afro-Asiatic,Chadic,Chad
Barain_Jalking [bva-3],12.22,18.8,#B16588,Afro-Asiatic,Chadic,Chad
Barain_Jalkiya [bva],12.18,18.68,#995E92,Afro-Asiatic,Chadic,Chad
Barain_Komiya [bva-4],12.17,18.75,#9C608D,Afro-Asiatic,Chadic,Chad
Baram [brd],27.95,85,#8977A4,Tibeto-Burman,Western Himalayan,Nepal
Barang-barang [lji],-6.4,120.5,#AD778F,Malayo-Polynesian,Celebic,Indonesia-Sulawesi
Barapa Barapa [rbp],-35.95,144.32,#DA7EAF,Pama-Nyungan,Kulinic,Australia
Barapasi [brp],-2.247,136.995,#5D5B5C,Geelvink Bay,Barapasi-Sauri-Kofei,Indonesia-Papua
Barasano [bsn],-0.25,-70.75,#64593F,Tucanoan,East Tucanoan,Colombia
Bardi [bcj],-16.58,122.92,#F5888E,Nyulnyul,West Nyulnyul,Australia
Baré [bae],1.6,-66.8,#62A479,Arawak,Northern Maipuran,Venezuela
Bareke [mpr],-8.543,158.113,#806F61,Oceanic,Western Oceanic,Solomons
Barese [ita-47],41.1,16.9,#5C6E96,Indo-European,Romance,Italy
Bargam [mlp],-4.87,145.76,#876273,Trans New Guinea,Madang,Papua New Guinea
Bari [bfa],3.8,31,#5483B9,Nilo-Saharan,Eastern Sudanic,South Sudan
Barí [mot],9,-73.5,#665846,Chibchan,Core Chibchan,Venezuela
Bariai [bch],-5.497,148.63,#AC6762,Oceanic,Western Oceanic,Papua New Guinea
Bariba [bba],10.217,2.667,#524C8A,Niger-Kongo,Atlantic-Congo,Benin
Bariji [bjc],-9.211,148.401,#7E6846,Southeast Papuan,Owen Stanley Ranges,Papua New Guinea
Barman Thar [xxx-108],25.899,89.899,#5D6773,Tibeto-Burman,Bodo-Garo,India
Barok [bjk],-3.48,152.19,#91685A,Oceanic,Western Oceanic,Papua New Guinea-Bismarcks
Barranbinya [zmu-2],-30.1,145.93,#F690A3,Pama-Nyungan,Muruwari,Australia
Barranquenho [por-3],38.13,-6.975,#625F6D,Indo-European,Romance,Portugal
Barrow_Point [bpt],-14.373,144.63,#D58D97,Pama-Nyungan,Paman,Australia
Baruga [bjz],-9.328,148.734,#6B6947,Trans New Guinea,Oro-Wharton,Papua New Guinea
Barunggam [xxx-47],-26.25,151.25,#D57073,Pama-Nyungan,Waka-Kabic,Australia
Barupu [wra],-3.083,142.083,#603893,Skou,Eastern Skou,Papua New Guinea
Baruya [byr],-6.917,145.833,#A05787,Trans New Guinea,Morobe-Eastern Highlands,Papua New Guinea
Basà [bzw],8.03,7.06,#3F6CAB,Niger-Kongo,Atlantic-Congo,Nigeria
Basaa [bas],5,10.15,#4F67B4,Niger-Kongo,Atlantic-Congo,Cameroon
Basap [bdb],0.91,117.56,#9E6660,Malayo-Polynesian,Basap,Indonesia-Kalimantan
Basari [bsc],12.25,-13,#3B8EBA,Niger-Kongo,Atlantic-Congo,Senegal
Basay [byq-2],25,121.86,#AE8C67,Austronesian,East Formosan,Taiwan
Basay_Trobriawan [byq],25,122,#847049,Austronesian,East Formosan,Taiwan
Basel [gsw-4],47.56,7.59,#3C8793,Indo-European,Germanic,Switzerland
Bashkarik [gwc-3],35.358,72.137,#7796B2,Indo-European,Indo-Iranian,Pakistan
Bashkir [bak],53,58,#498086,Turkic,Common Turkic,Russia
Basila [ade],8.17,0.62,#6561C2,Niger-Kongo,Atlantic-Congo,Benin
Basketo [bst],6.384,36.651,#459D76,Afro-Asiatic,Omotic,Ethiopia
Basque [eus],42.82,-1.95,#978C97,Basque,,Spain
Basque_Arbizu [eus-4],42.9,-2,#7277A2,Basque,,Spain
Basque_Baztan [eus-10],43.2,-1.5,#7675A1,Basque,,Spain
Basque_Baztan [eus-11],43.2,1.47,#8B8CAF,Basque,,Spain
Basque_Gernika [eus-3],43.3,-2.7,#756D9E,Basque,,Spain
Basque_Lekeitio [eus-6],43.365,-2.51,#5D7678,Basque,,Spain
Basque_Navarro [eus-2],43.17,-1.24,#567D9E,Basque,,France
Basque_Ondarroa [eus-8],43.3,-2.4,#7F6899,Basque,,Spain
Bassa [bsq],7.26,-7.22,#3067AE,Niger-Kongo,Atlantic-Congo,Côte d'Ivoire
Bassossi [bsi],5.24,9.52,#5F5F9D,Niger-Kongo,Atlantic-Congo,Cameroon
Bata [bta],9.7,12.5,#485E8D,Afro-Asiatic,Chadic,Nigeria
Batak_Dairi [btd],2.546,98.3,#A47067,Malayo-Polynesian,Batak-Barrier Islands,Indonesia-Sumatra
Batak_Karo [btx],3,98.167,#8D6187,Malayo-Polynesian,Batak-Barrier Islands,Indonesia-Sumatra
Batak_Palawan [bya],10.115,119.214,#BF7868,Malayo-Polynesian,Philippines,Philippines
Batang [khg-8],30.57,98.97,#2E7AE1,Tibeto-Burman,Bodic,China
Batanga [bnm],2.09,9.75,#655BAE,Niger-Kongo,Atlantic-Congo,Equatorial Guinea
Bateg [btq],5,102.5,#9F6884,Austroasiatic,Aslian,Malaysia
Bathari [bhm],17.6,56,#3D925B,Afro-Asiatic,Semitic,Oman
Bati [btc],4.26,11.06,#456897,Niger-Kongo,Atlantic-Congo,Cameroon
Batsbi [bbl-2],42.05,45.31,#34A470,Nakh-Daghestanian,Nakh,Georgia
Batuley [bay],-5.8,134.75,#8E6955,Malayo-Polynesian,Southeast Maluku,Indonesia-Maluku-south
Bau [bbd],-5.213,145.556,#6A6A46,Trans New Guinea,Madang,Papua New Guinea
Baukan_Murut [bnb],5.273,116.519,#B87065,Malayo-Polynesian,North Borneo,Malaysia-Borneo
Baule [bci],7.5,-5,#425BA1,Niger-Kongo,Atlantic-Congo,Côte d'Ivoire
Baure [brg],-15,-64,#777544,Arawak,Southern Maipuran,Bolivia
Bauro [bxa],-10.647,161.858,#806E5A,Oceanic,Southeast Solomonic,Solomons
Bauzi [bvz],-2.5,137.667,#696A50,Geelvink Bay,,Indonesia-Papua
Bavarian [bar],46.73,12.28,#377AA3,Indo-European,Germanic,Italy
Bawm [bgr],22.5,92.25,#5779BA,Tibeto-Burman,Kuki-Chin-Naga,India
Bayan [duq-2],-0.85,115.39,#A96D76,Malayo-Polynesian,Barito,Indonesia-Kalimantan
Bayso [bsw],6.28,37.76,#519364,Afro-Asiatic,Cushitic,Somalia
Bayso-2 [bsw-2],6.456,37.745,#599967,Afro-Asiatic,Cushitic,Ethiopia
Bayungu [bxj],-23.3,113.7,#FA8C99,Pama-Nyungan,Kanyara-Mantharta,Australia
Bduul [ajp-6],30.33,35.44,#50AC69,Afro-Asiatic,Semitic,Syria
Beary [xxx-101],12.605,75.01,#B36D82,Dravidian,South Dravidian,India
Bedamini [beo],-6.321,142.489,#795D3F,Trans New Guinea,Bosavi,Papua New Guinea
Bedayuh [bth],1.01,110.51,#B07586,Malayo-Polynesian,Land Dayak,Malaysia-Borneo
Bedik [tnr],12.75,-12.467,#4861B2,Niger-Kongo,Atlantic-Congo,Senegal
Bediondo [bjv],10.203,17,#465F95,Nilo-Saharan,Central Sudanic,Chad
Befang [bby-2],6.28,10.03,#307AA3,Niger-Kongo,Atlantic-Congo,Cameroon
Begak [dbj],5.25,118.833,#957487,Malayo-Polynesian,North Borneo,Malaysia-Borneo
Beihai [yue-13],21.47,109.1,#3F5FB9,Tibeto-Burman,Sinitic,China
Beja [bej],18,36,#537A8E,Afro-Asiatic,Cushitic,Sudan
Bekati [bei],0.975,109.425,#9F645A,Malayo-Polynesian,Land Dayak,Indonesia-Kalimantan
Beketan [bkn-3],1.3,114.9,#9C776C,Malayo-Polynesian,Land Dayak,Indonesia-Kalimantan
Bekwarra [bkv],6.74,8.86,#6869AD,Niger-Kongo,Atlantic-Congo,Nigeria
Bekwil [bkw],1.72,14.65,#4B769C,Niger-Kongo,Atlantic-Congo,Cameroon
Bela [bxd-2],24.33,98.4,#3F6DB6,Tibeto-Burman,Lolo-Burmese,Myanmar
Belait [beg],4.382,114.462,#AC8283,Malayo-Polynesian,North Borneo,Brunei
Belanda Boor [bxb],6.5,28,#9369C5,Nilo-Saharan,Eastern Sudanic,South Sudan
Belarussian [bel],54,27,#4DABA9,Indo-European,Balto-Slavic,Belarus
Belep [yly],-19.75,163.67,#B672A3,Oceanic,Southern Oceanic,New Caledonia
Belhare [byw],27,87.25,#857E93,Tibeto-Burman,Kiranti,Nepal
Beli [blm],6.75,29.75,#625ACE,Nilo-Saharan,Central Sudanic,South Sudan
Bella Coola [blc],52.5,-126.67,#51C25E,Salish,Bella Coola,Canada
Bellona [mnv-2],-11.296,159.79,#716345,Oceanic,Central Pacific,Solomons
Belneng [glb],9.15,9.51,#3462AF,Afro-Asiatic,Chadic,Nigeria
Bemal [bmh],-5.234,145.475,#73704A,Trans New Guinea,Madang,Papua New Guinea
Bemba [bem],-11,31,#45659E,Niger-Kongo,Atlantic-Congo,Zambia
Bembe [bmb],-4,14,#3C5885,Niger-Kongo,Atlantic-Congo,Democratic Republic of the Congo
Bena [bez],-9.27,35.04,#576198,Niger-Kongo,Atlantic-Congo,Tanzania
Bena-Bena [bef],-6.114,145.567,#716A3D,Trans New Guinea,Morobe-Eastern Highlands,Papua New Guinea
Bench [bcq],7,35.75,#2477A6,Afro-Asiatic,Omotic,Ethiopia
Bende [bdp],-6,30.5,#4D5387,Niger-Kongo,Atlantic-Congo,Tanzania
Beng [nhb],7.83,-4.25,#535EBD,Mande,Eastern Mande,Côte d'Ivoire
Benga [bng],1.2,9.5,#3F7F7B,Niger-Kongo,Atlantic-Congo,Equatorial Guinea
Bengali [ben],22.5,90,#4A7E87,Indo-European,Indo-Iranian,Bangladesh
Bengali_Barisal [ben-10],22.7,90.37,#447760,Indo-European,Indo-Iranian,Bangladesh
Bengali_east [ben-7],24.4,90.28,#3A7B6E,Indo-European,Indo-Iranian,Bangladesh
Bengali_west [ben-8],23.4,89.45,#537F8B,Indo-European,Indo-Iranian,Bangladesh
Bengni [adi-11],28.66,93.37,#7161A0,Tibeto-Burman,Macro-Tani,China
Benuaq [lbx-2],-1.6,115.51,#A56F6E,Malayo-Polynesian,Barito,Indonesia-Kalimantan
Benyadu [byd-2],0.595,109.62,#A56665,Malayo-Polynesian,Land Dayak,Indonesia-Kalimantan
Beothuk [bue],48,-55,#8B7A51,Beothuk,,Canada
Bergamasco [ita-17],45.7,9.75,#635E93,Indo-European,Romance,Italy
Bergensk [nno],60.39,5.33,#4258AE,Indo-European,Germanic,Norway
Berik [bkl],-2.25,138.92,#6CA578,Tor-Kwerba,Orya-Tor,Indonesia-Papua
Berlinerisch [deu-4],52.5,13.15,#3A739B,Indo-European,Germanic,Germany
Bernese [gsw-3],46.83,7.62,#46729C,Indo-European,Germanic,Switzerland
Berom [bom-2],9.67,8.81,#6866AD,Niger-Kongo,Atlantic-Congo,Nigeria
Berrichon [fra-17],47.08,2.38,#626095,Indo-European,Romance,France
Berta [wti],10.67,34.5,#44769C,Nilo-Saharan,Berta,Ethiopia
Besemah [pse],-4.2,103,#AB7C86,Malayo-Polynesian,Malayo-Sumbawan,Indonesia-Sumatra
Beserrman [udm-2],58.02,52.15,#7385B0,Uralic,Permic,Russia
Bésiro [cax-2],-16.6375,-61.9271,#7A684E,Arawak,Southern Maipuran,Bolivia
Besoa [bep],-1.599,120.379,#735E7D,Malayo-Polynesian,Celebic,Indonesia-Sulawesi
Betawi [bew],-6.21,107.02,#A16895,Malayo-Polynesian,Malayo-Sumbawan,Indonesia-Java
Bété [btg],6.25,-6.25,#4862B3,Niger-Kongo,Atlantic-Congo,Côte d'Ivoire
Bete [byf],7.05,9.748,#5C5C7D,Niger-Kongo,Atlantic-Congo,Nigeria
Betoi [xxx-126],7.22,-71.42,#797348,Betoi-Jirara,,Colombia
Betta Kurumba [xub],11.58,76.55,#C4899E,Dravidian,South Dravidian,India
Bewani [pgi],-3.024,141.167,#835B46,Trans New Guinea,Border,Papua New Guinea
Bezhta [kap],42.133,46.128,#31A67C,Nakh-Daghestanian,Tsezic,Russia
Bhaderwahi [bhd-2],32.98,75.71,#5A81AA,Indo-European,Indo-Iranian,India
Bhaṭe-sa zib [xxx-102],34.94,72.88,#70A19C,Indo-European,Indo-Iranian,Afghanistan
Bhatibari [ben-5],26.48,89.54,#9B88A6,Indo-European,Indo-Iranian,India
Bhele [bhy-2],0.25,28.67,#485E8A,Niger-Kongo,Atlantic-Congo,Democratic Republic of the Congo
Bhili [bhb],22,73,#8993C3,Indo-European,Indo-Iranian,India
Bhili_Mahikantha [bhb-2],23.83,72.5,#868FC6,Indo-European,Indo-Iranian,India
Bhoi [kha-5],25.9,91.88,#A68589,Austroasiatic,Khasi-Palaung,India
Bhojpuri [bho],26.8,85.3,#9A93BD,Indo-European,Indo-Iranian,India
Bhojpuri_Nagpuria [bho-3],23.36,85.33,#9C92BC,Indo-European,Indo-Iranian,India
Bhojpuri_Northern [bho-2],26.76,83.37,#9C92BC,Indo-European,Indo-Iranian,India
Bhojpuri_Western [bho-4],25.32,83.01,#9C92BC,Indo-European,Indo-Iranian,India
Bhumij [muw],21.333,86.5,#B188B3,Austroasiatic,Munda,India
Biafada [bif],11.47,-15.13,#6073BF,Niger-Kongo,Atlantic-Congo,Guinea Bissau
Biage [bdf],-9.158,147.664,#746244,Southeast Papuan,Owen Stanley Ranges,Papua New Guinea
Biak [bhw],-1.14,136,#7A6648,Malayo-Polynesian,Eastern Malayo-Polynesian,Indonesia-Papua
Biak-west [bhw-2],-0.835,135.59,#62515D,Malayo-Polynesian,Eastern Malayo-Polynesian,Indonesia-Papua
Biaka [axk-2],3.65,17.27,#4B5D7A,Niger-Kongo,Atlantic-Congo,Congo
Biali [beh],11.04,1.08,#5F5767,Niger-Kongo,Atlantic-Congo,Benin
Bian_Marind [bpv],-7.222,140.548,#436868,Anim,Marind-Yaqay,Indonesia-Papua
Biangai [big],-7.33,146.75,#A36C59,Trans New Guinea,Oro-Wharton,Papua New Guinea
Biao [byk-3],23.9,112.2,#465CCE,Tai-Kadai,Kam-Tai,China
Biao_Dagang [byk-2],23.81,112.135,#4B60CF,Tai-Kadai,Kam-Tai,China
Biao_Yonggu [byk],23.72,112.07,#475FC8,Tai-Kadai,Kam-Tai,China
Biaomin Yao [bmt],23.6,111.75,#4D6DE1,Hmong-Mien,Mienic,China
Biatah [bth-2],1.264,110.32,#9E6072,Malayo-Polynesian,Land Dayak,Indonesia-Kalimantan
Bidjara [bym],-24.5,146.592,#E78183,Pama-Nyungan,Greater Maric,Australia
Bierebo [bnk],-16.667,168.131,#738996,Oceanic,Southern Oceanic,Vanuatu
Bieria [brj],-16.807,168.194,#8B6261,Oceanic,Southern Oceanic,Vanuatu
Bih [rad],12.48,108.025,#7370B7,Malayo-Polynesian,Malayo-Sumbawan,Vietnam
Bijago [bjg],11.28,-15.83,#7464AC,Niger-Kongo,Atlantic-Congo,Guinea Bissau
Bijago_Orango [bjg-2],11.034,-16.146,#A26899,Niger-Kongo,Atlantic-Congo,Guinea Bissau
Bikele [biw],3.66,12.86,#5E63B4,Niger-Kongo,Atlantic-Congo,Cameroon
Bikol [bcl],13.333,123.5,#AA755B,Malayo-Polynesian,Philippines,Philippines
Bikol_Iriga [bcl-3],13.39,123.33,#B5755E,Malayo-Polynesian,Philippines,Philippines
Bikol_Naga [bcl-4],13.62,123.17,#A56F5E,Malayo-Polynesian,Philippines,Philippines
Biksi [yet],-4.013,140.494,#9A5D79,Yetfa-Biksi,,Papua New Guinea
Bila [bip],1.17,28.76,#2C4F92,Niger-Kongo,Atlantic-Congo,Democratic Republic of the Congo
Bilba [bpz],-10.67,123.34,#8C6355,Malayo-Polynesian,Timoric,Indonesia-NTT
Bilbil [brz],-5.26,145.76,#AE6A60,Oceanic,Western Oceanic,Papua New Guinea
Biliau [bcu-2],-5.65,146.3,#9F6C5D,Oceanic,Western Oceanic,Papua New Guinea
Bilin [byn],15.9,38.3,#9AA186,Afro-Asiatic,Cushitic,Eritrea
Bilinara [nbj],-16,131.667,#F2888C,Pama-Nyungan,Ngumbin-Yapa,Australia
Biloxi [bll],32.25,-90,#406B53,Siouan,Western Siouan,USA
Bilua [blb],-7.75,156.667,#A56773,Solomons East Papuan,,Solomons
Bima [bhp],-8.545,118.677,#49758A,Malayo-Polynesian,Bima,Indonesia-NTB
Bima_Kolo [bhp-3],-8.32,118.76,#567A85,Malayo-Polynesian,Bima,Indonesia-NTB
Bimin [bhl],-5.43,141.942,#705C57,Trans New Guinea,Ok,Papua New Guinea
Bimoba [bim],10.46,0.06,#675FB5,Niger-Kongo,Atlantic-Congo,Ghana
Bina [bmn],-10.249,149.683,#926340,Oceanic,Western Oceanic,Papua New Guinea
Binandere [bhg],-8.167,147.917,#775A58,Trans New Guinea,Oro-Wharton,Papua New Guinea
Binbinga [wmb-2],-16.17,135,#F28C90,Mirndi,Ngurlun,Australia
Bine [bon],-9.05,142.884,#9A6275,Eastern Trans Fly,,Papua New Guinea
Bini_Edo [bin],6.42,5.83,#375D8A,Niger-Kongo,Atlantic-Congo,Nigeria
Bini-2 [bin-2],6.41,5.7,#50658F,Niger-Kongo,Atlantic-Congo,Nigeria
Binigura [pnv],-22.488,116.506,#FA8B99,Pama-Nyungan,Kanyara-Mantharta,Australia
Bininj Gun-Wok [gup],-12.5,133.75,#E38799,Macro-Gunwinygu,Gunwingyuan proper,Australia
Bintan Orang Laut [zlm-14],1.077,104.5,#886493,Malayo-Polynesian,Malayo-Sumbawan,Indonesia-Sumatra
Bintauna [bne],0.75,123.49,#756A72,Malayo-Polynesian,Philippines,Indonesia-Sulawesi
Bintulu [bny],3.83,113.67,#9C7783,Malayo-Polynesian,North Borneo,Malaysia-Borneo
Binukid [bkd],8.3,125,#AE7959,Malayo-Polynesian,Philippines,Philippines
Binumarien [bjr],-6.25,146.08,#6A5062,Trans New Guinea,Morobe-Eastern Highlands,Papua New Guinea
Binyang [cmn-47],23.22,108.82,#4860B6,Tibeto-Burman,Sinitic,China
Bipi [biq],-2.109,146.4,#8D7589,Oceanic,Admiralties,Papua New Guinea
Bira [brf-2],1.6,30.13,#2A63B6,Niger-Kongo,Atlantic-Congo,Democratic Republic of the Congo
Bira [brf],1.5,30.03,#496EA0,Niger-Kongo,Atlantic-Congo,Democratic Republic of the Congo
Birao [brr],-9.746,160.515,#926E66,Oceanic,Southeast Solomonic,Solomons
Birgid [btf],13,27,#58689F,Afro-Asiatic,Chadic,Sudan
Biri [bvi],7.55,6.233,#4F75C4,Ubangian,Sere-Mba,Nigeria
Biri [bzr],-20.5,146.5,#EE8285,Pama-Nyungan,Greater Maric,Australia
Birifor [biv],9.29,-2.73,#4976B3,Niger-Kongo,Atlantic-Congo,Ghana
Biritai [bqq],-3,137.6,#463447,Lakes Plains,Tariku,Indonesia-Papua
Birom [bom],9.67,8.83,#385E85,Niger-Kongo,Atlantic-Congo,Nigeria
Birriya [xpa-2],-24.5,143.5,#F98B98,Pama-Nyungan,Pirriya,Australia
Bisa [bib],11.783,0.366,#6D5B9E,Mande,Eastern Mande,Burkina Faso
Bisayah_Sarawak [bsb],5.33,115.5,#916284,Malayo-Polynesian,North Borneo,Malaysia-Borneo
Bishnupriya [bpy],24.8,93.12,#AA7A59,Indo-European,Indo-Iranian,India
Bisiacco [vec-2],45.95,12.45,#696E94,Indo-European,Romance,Italy
Bissa [bib-2],10.43,-1.67,#8A5896,Mande,Eastern Mande,Burkina Faso
Bisu [bii],19.75,100,#6681CA,Tibeto-Burman,Lolo-Burmese,Thailand
Bitur [mcc],-8.52,142.71,#8B674A,Anim,Tirio,Papua New Guinea
Biya [mij-6],6.615,10.18,#3462C6,Niger-Kongo,Atlantic-Congo,Cameroon
Biyo [byo],22.51,101.65,#3965A6,Tibeto-Burman,Lolo-Burmese,Thailand
Bizkaian [eus-7],43.25,-2.98,#AF8E70,Basque,,Spain
Bjokapakha [tsj-3],26.965,91.05,#7781CF,Tibeto-Burman,Bodic,Bhutan
Bjokapakha-2 [tsj-4],26.965,91.045,#6973B3,Tibeto-Burman,Bodic,Bhutan
Blablanga [blp],-8.17,159.42,#8493AB,Oceanic,Western Oceanic,Solomons
Blablanga_Ghove [blp-2],-8.33,159.5,#7597B0,Oceanic,Western Oceanic,Solomons
Black Lahu [lhu-4],20.355,99.77,#326ABD,Tibeto-Burman,Lolo-Burmese,Myanmar
Black_Tai [blt-2],19.75,105,#3063A9,Tai-Kadai,Kam-Tai,Vietnam
Blackfoot [bla],50,-112.67,#8C7939,Algic,Algonquian,Canada
Blagar [beu],-8.33,124.25,#886664,Timor-Alor-Pantar,Alor-Pantar,Indonesia-NTT
Blang [blr],23.3,100,#5A64BD,Austroasiatic,Khasi-Palaung,China
Boano [bzl],0.51,120.99,#AA7264,Malayo-Polynesian,Celebic,Indonesia-Sulawesi
Boano [bzn],-2.96,127.95,#855D2C,Malayo-Polynesian,Central Maluku,Indonesia-Maluku-north
Boazi [kvg],-7,141.25,#3F6865,Anim,Boazi,Papua New Guinea
Boazi_Kuni [kvg-2],-6.913,141.326,#3A626D,Anim,Boazi,Papua New Guinea
Bobangi [bni],0,17.8,#3C6580,Niger-Kongo,Atlantic-Congo,Democratic Republic of the Congo
Bobo_Madare_North [bbo-2],12.42,-4.48,#7C5EAB,Mande,Western Mande,Burkina Faso
Bobo_Madare_South [bwq],11.54,-4.26,#6E5196,Mande,Western Mande,Burkina Faso
Bobo-Fing [bbo],11.83,-4.42,#5157B8,Mande,Western Mande,Burkina Faso
Bobongko [bgb],-0.5,121.75,#AC6E6E,Malayo-Polynesian,Celebic,Indonesia-Sulawesi
Bobot [bty],-3.33,130.17,#806845,Malayo-Polynesian,Central Maluku,Indonesia-Maluku-north
Bocota [sab],9.34,-82.24,#864C70,Chibchan,Core Chibchan,Panama
Bogaya [boq],-5.621,142.231,#6B6753,Trans New Guinea,Duna-Bogaya,Papua New Guinea
Bohemian [ces-3],50,13,#58A175,Indo-European,Balto-Slavic,Czech Republic
Boholano [ceb-2],9.9,124.2,#B88465,Malayo-Polynesian,Philippines,Philippines
Bohutu [bxh],-10.5,150.33,#569C60,Oceanic,Western Oceanic,Papua New Guinea
Boiken [bzf],-3.525,143.415,#71695E,Ndu,Boiken,Papua New Guinea
Bokala [lin-2],4.57,19.02,#415AAB,Niger-Kongo,Atlantic-Congo,Democratic Republic of the Congo
Bokar [adi-2],29,94.35,#8B6099,Tibeto-Burman,Macro-Tani,India
Boko [bkp],10.52,3.72,#3C5E77,Mande,Eastern Mande,Benin
Bokyi [bky],6.1,9.06,#4965B2,Niger-Kongo,Atlantic-Congo,Nigeria
Bola [bnp],-5.5,150,#A7685C,Oceanic,Western Oceanic,Papua New Guinea-Bismarcks
Bola [bxd-3],24.45,98.6,#3B66B2,Tibeto-Burman,Lolo-Burmese,China
Bolaang-Mongondow [mog],0.55,124,#AE726F,Malayo-Polynesian,Philippines,Indonesia-Sulawesi
Bolano [bzl-2],0.52,121,#B47471,Malayo-Polynesian,Celebic,Indonesia-Sulawesi
Bole [bol],11.007,10.747,#3E71A1,Afro-Asiatic,Chadic,Nigeria
Bolgo [bvo-2],10.9,18.81,#675897,Niger-Kongo,Atlantic-Congo,Chad
Bolgo_Dugag [bvo],10.79,18.61,#73539F,Niger-Kongo,Atlantic-Congo,Chad
Bolinao [smk],16.341,119.893,#AC6B5F,Malayo-Polynesian,Philippines,Philippines
Bologna [ita-4],44.51,11.35,#6C6C9E,Indo-European,Romance,Italy
Bolyu [ply],24.78,105.35,#3A6FC5,Austroasiatic,Mangic,China
Bom [bmf],9.28,-11.6,#596E9F,Niger-Kongo,Atlantic-Congo,Sierra Leone
Boma [boh],2.5,15.6,#3D6DB0,Niger-Kongo,Atlantic-Congo,Cameroon
Bomitaba [zmx],1.701,17.371,#3C6697,Niger-Kongo,Atlantic-Congo,Congo
Bomitaba-2 [zmx-2],1.7,17.37,#485860,Niger-Kongo,Atlantic-Congo,Congo
Bonan [peh-6],35.7,103,#5591A9,Mongolic,Core Mongolic,China
Bonda [bfw-2],19,82.75,#C6868F,Austroasiatic,Munda,India
Bondei [bou],-5.082,38.432,#617161,Niger-Kongo,Atlantic-Congo,Tanzania
Bonerate [bna],-7.38,121.79,#65666A,Malayo-Polynesian,Celebic,Indonesia-Sulawesi
Bongaigaon [asm-4],26.48,90.56,#695C94,Indo-European,Indo-Iranian,India
Bonggi [bdg],7.3,117.2,#985D68,Malayo-Polynesian,North Borneo,Philippines
Bonggo [bpg],-2.28,139.6,#93644F,Oceanic,Western Oceanic,Indonesia-Papua
Bongili [bui],0.37,16.61,#52607B,Niger-Kongo,Atlantic-Congo,Congo
Bongo [bot],7.5,28,#5C67B4,Nilo-Saharan,Central Sudanic,South Sudan
Boni [bob],0.5,43,#6C9187,Afro-Asiatic,Cushitic,Somalia
Bonifacino [lij-3],41.39,9.16,#507D9E,Indo-European,Romance,France
Bontoc_Guinaang [bnc-2],17.08,120.9,#AB7159,Malayo-Polynesian,Philippines,Philippines
Bontok [bnc],17.083,120.917,#AB6E57,Malayo-Polynesian,Philippines,Philippines
Bor [bvf],5.605,27.472,#B278AD,Afro-Asiatic,Chadic,South Sudan
Bora [boa],-2.25,-71.75,#628257,Boran,Bora,Peru
Bori [adi-5],28.2,94.6,#885A92,Tibeto-Burman,Macro-Tani,India
Bormiese [ita-16],46.47,10.375,#4D6E9A,Indo-European,Romance,Italy
Bornholmsk [scy],55,15,#3F678A,Indo-European,Germanic,Denmark
Boro [brx],26.75,92,#6D5189,Tibeto-Burman,Bodo-Garo,India
Boro [bwo],10.66,35.34,#6A537E,Afro-Asiatic,Omotic,Ethiopia
Borong Kosorong [ksr],-6.534,147.502,#9C646D,Trans New Guinea,Morobe-Eastern Highlands,Papua New Guinea
Boróro [bor],-15,-52,#9B6550,Macro-Je,Bororo,Brazil
Bororo-2 [bor-2],-16.6,-55.2,#9E6552,Macro-Je,Bororo,Brazil
Boruca [brn],9.001,-83.325,#5A6B86,Chibchan,Core Chibchan,Costa Rica
Bosavi [bco-2],-6.425,142.765,#706250,Trans New Guinea,Bosavi,Papua New Guinea
Bosnian [bos],44,18,#619B83,Indo-European,Balto-Slavic,Bosnia
Botin_Samban [kbx-2],-4.33,144.17,#9A6A5D,Ap Ma,,Papua New Guinea
Botlikh [bph],42.66,46.22,#43A66F,Nakh-Daghestanian,Avar-Andi,Russia
Bourbonnais [fra-11],46.57,3.33,#665D93,Indo-European,Romance,France
Bouyei [pcc-5],25.817,107.55,#4773CC,Tai-Kadai,Kam-Tai,China
Bouyei_Changshun Duncao [pcc-9],25.9,106.5,#4371D4,Tai-Kadai,Kam-Tai,China
Bouyei_Dushan Huanghou [pcc-11],25.4,107.6,#466BD7,Tai-Kadai,Kam-Tai,China
Bouyei_Guiding Houchang [pcc-13],26.4,107,#4168D6,Tai-Kadai,Kam-Tai,China
Bouyei_Huishui Yashui [pcc-12],26,106.9,#4669D5,Tai-Kadai,Kam-Tai,China
Bouyei_Libo Fucun [pcc-10],25.3,108,#4766CE,Tai-Kadai,Kam-Tai,China
Bouyei_Luodian Bamao [pcc-8],25.3,106.95,#446ED8,Tai-Kadai,Kam-Tai,China
Bouyei_Luodian Luokun [pcc-7],25.25,106.7,#436BCD,Tai-Kadai,Kam-Tai,China
Bouyei_Pingtang Sizhai [pcc-14],25.65,107.4,#4867D9,Tai-Kadai,Kam-Tai,China
Bouyei_Sandu Zhouqin [pcc-15],25.7,107.9,#3E72D3,Tai-Kadai,Kam-Tai,China
Bouyei_west [pcc-2],25.75,107.333,#556FD4,Tai-Kadai,Kam-Tai,China
Boze [jer-2],10.2,8.96,#405EC7,Niger-Kongo,Atlantic-Congo,Nigeria
Brabants [nld-3],50.75,4.65,#515D85,Indo-European,Germanic,Belgium
Brag-g.yab [khg-2],30.65,97.55,#7482C9,Tibeto-Burman,Bodic,China
Brahui (Jahlawān) [brh-4],25.81,66.49,#67925F,Dravidian,North Dravidian,Pakistan
Brahui [brh],29,67,#9DA684,Dravidian,North Dravidian,Pakistan
Brahui_Jahlawan [brh-3],25.79,66.51,#619361,Dravidian,North Dravidian,Pakistan
Brahui_Sarawan [brh-2],29,66.6,#5D9161,Dravidian,North Dravidian,Pakistan
Brajbhasha [bra],27.49,77.67,#7E90BB,Indo-European,Indo-Iranian,India
Brao [brb],14,107.001,#6987C8,Austroasiatic,Bahnaric,Cambodia
Brao_Krung [brb-2],13.8,107,#818DB6,Austroasiatic,Bahnaric,Cambodia
Breton [bre],47.65,-2.75,#3C839F,Indo-European,Celtic,France
Breton_Grand Lorient [bre-6],47.75,-3.36,#558DC2,Indo-European,Celtic,France
Breton_Kerneveg [bre-2],48,-4.1,#39859C,Indo-European,Celtic,France
Breton_Leoneg [bre-3],48.6,-4.3,#3A879D,Indo-European,Celtic,France
Breton_Plozevet [bre-5],47.99,-4.42,#6681B4,Indo-European,Celtic,France
Breton_Tregiereg [bre-4],48.5,-3.125,#39859C,Indo-European,Celtic,France
Bribri [bzd],9.5,-83,#47679F,Chibchan,Core Chibchan,Costa Rica
Brinken [zmd],-14.05,130.08,#EE8588,Western Daly,Bringen,Australia
Brokpa [sgt],27.33,92,#5A76B2,Tibeto-Burman,Bodic,Bhutan
Bru_Western [brv],16.75,104.75,#676FAB,Austroasiatic,Katuic,Laos
Brugge [vls-3],51.22,3.23,#51668A,Indo-European,Germanic,Netherlands
Bruu [bru],17.167,104.333,#4861BB,Austroasiatic,Katuic,Thailand
Bu [jid],9.05,8.66,#41619C,Niger-Kongo,Atlantic-Congo,Nigeria
Buamu [box],11.17,-3.5,#865070,Niger-Kongo,Atlantic-Congo,Burkina Faso
Buang_Central [bzh],-6.855,146.774,#77929E,Oceanic,Western Oceanic,Papua New Guinea
Bube [bvb],3.5,8.7,#4067AA,Niger-Kongo,Atlantic-Congo,Equatorial Guinea
Bubia [bbx-2],4.02,9.22,#5262A7,Niger-Kongo,Atlantic-Congo,Cameroon
Budong-bundong [bdx],-2.171,119.328,#9E6A59,Malayo-Polynesian,Greater South Sulawesi,Indonesia-Sulawesi
Budu [buu-3],2.011,27.949,#2A64AD,Niger-Kongo,Atlantic-Congo,Democratic Republic of the Congo
Budu [buu],2.01,27.95,#286CB9,Niger-Kongo,Atlantic-Congo,Democratic Republic of the Congo
Buduma [bdm],13.6,14,#53618D,Afro-Asiatic,Chadic,Chad
Budux [bdk],41.19,48.37,#31A584,Nakh-Daghestanian,Lezgic,Russia
Bugan [bbh],23.75,105,#2D72D7,Austroasiatic,Mangic,China
Bugan_Nala [bbh-2],23.487,105.15,#2C72D7,Austroasiatic,Mangic,China
Bughotu [bgt],-8.478,159.808,#8A7361,Oceanic,Southeast Solomonic,Solomons
Bugis [bug],-4,120,#A66B7C,Malayo-Polynesian,Greater South Sulawesi,Indonesia-Sulawesi
Bugun [bgn],27.3,92.35,#4E73AB,Tibeto-Burman,Kho-Bwa,India
Buhid [bku],12.574,121.25,#AB6C60,Malayo-Polynesian,Philippines,Philippines
Buin [buo],-6.75,155.833,#9D515A,South Bougainville,Buin,Papua New Guinea-Bougainville
Bukar_Sadong [sdo],0.97,110.66,#7A6D9B,Malayo-Polynesian,Land Dayak,Malaysia-Borneo
Bukat [bvk],1.29,113.25,#B5786E,Malayo-Polynesian,Land Dayak,Malaysia-Borneo
Bukawa [buk],-6.732,147.359,#535E68,Oceanic,Western Oceanic,Papua New Guinea
Buket [bvk-2],0.8,112.6,#9A645F,Malayo-Polynesian,Land Dayak,Malaysia-Borneo
Bukhari [bhh],39.79,64.45,#528958,Indo-European,Indo-Iranian,Tajikistan
Bukit [bvu],-2.75,115.64,#C97B78,Malayo-Polynesian,Malayo-Sumbawan,Indonesia-Kalimantan
Bukitan [bkn],2.35,114.89,#B07270,Malayo-Polynesian,Malayo-Sumbawan,Malaysia-Borneo
Bukiyip_Arapesh [ape],-3.667,142.5,#77617F,Torricelli,Kombio-Arapesh,Papua New Guinea
Bukusu [bxk],1.02,35,#9E6A5F,Niger-Kongo,Atlantic-Congo,Kenya
Bularnu [yil],-21.5,137.5,#F08DA4,Pama-Nyungan,Warluwaric,Australia
Bulgarian [bul],43,25,#468D6F,Indo-European,Balto-Slavic,Bulgaria
Bulgarian_Banat [bul-6],45.7,20.9,#478486,Indo-European,Balto-Slavic,Bulgaria
Bulgarian_Boboshevo [bul-4],42.15,23,#539364,Indo-European,Balto-Slavic,Bulgaria
Bulgarian_Erkech [bul-5],42.84,27.58,#4F9066,Indo-European,Balto-Slavic,Bulgaria
Bulgarian_Gabare [bul-8],43.316,21.92,#52926A,Indo-European,Balto-Slavic,Bulgaria
Bulgarian_Lovec [bul-9],43.14,24.71,#4D8E6F,Indo-European,Balto-Slavic,Bulgaria
Bulgarian_Moesian [bul-3],42.7,27.75,#5B89A2,Indo-European,Balto-Slavic,Bulgaria
Bulgarian_Momchilovci [bul-10],41.66,24.77,#498B68,Indo-European,Balto-Slavic,Bulgaria
Bulgarian_North-west [bul-7],43.6,23.18,#448C70,Indo-European,Balto-Slavic,Bulgaria
Bulgarian_Nova Nadezda [bul-11],42.02,25.72,#599366,Indo-European,Balto-Slavic,Bulgaria
Buli [bzq],0.833,128.5,#9F7070,Malayo-Polynesian,Eastern Malayo-Polynesian,Indonesia-Maluku-north
Bulu [bum],2.917,11.15,#376999,Niger-Kongo,Atlantic-Congo,Cameroon
Bulungan [bdb-2],0.89,117.58,#B06D76,Malayo-Polynesian,Basap,Indonesia-Kalimantan
Bulusu [bqr],3,116,#AF6D6D,Malayo-Polynesian,Bulusu,Indonesia-Kalimantan
Bum [bmv],6.49,10.42,#3B668F,Niger-Kongo,Atlantic-Congo,Cameroon
Buma [tkw-2],-11.615,166.966,#B17F91,Oceanic,Te Motu,Solomons_East
Buma [yns-2],-3.33,17.5,#4672B9,Niger-Kongo,Atlantic-Congo,Democratic Republic of the Congo
Bumang [bvp],22.5,96.5,#3362C7,Austroasiatic,Khasi-Palaung,Laos
Bumbita_Arapesh [aon],-3.667,142.833,#8C7261,Torricelli,Kombio-Arapesh,Papua New Guinea
Bumthang [kjz],27.802,90.8,#6A76D3,Tibeto-Burman,Bodic,Bhutan
Bumthang_Ura [kjz-2],27.48,90.905,#405DE9,Tibeto-Burman,Bodic,Bhutan
Bunama [bdd],-10.064,151.075,#828857,Oceanic,Western Oceanic,Papua New Guinea
Bunan [bfu],32.61,76.91,#5279C1,Tibeto-Burman,Western Himalayan,India
Bunaq [bfn],-9.1,125.15,#506468,Timor-Alor-Pantar,Mainland Timor-Alor-Pantar,Indonesia-NTT
Bunaq_Lolotoen [bfn-2],-9.161,125.26,#506662,Timor-Alor-Pantar,Mainland Timor-Alor-Pantar,Timor leste
Bunaq_South [bfn-3],-9.227,125.393,#576863,Timor-Alor-Pantar,Mainland Timor-Alor-Pantar,Timor leste
Bundeli [bns],23.18,79.95,#9E94C2,Indo-European,Indo-Iranian,India
Bunganditj [xbg],-36.5,141,#F98D99,Pama-Nyungan,Kulinic,Australia
Bungku [bkz],-3,122.33,#626573,Malayo-Polynesian,Celebic,Indonesia-Sulawesi
Bungku_Tulambatu [bkz-2],-3.17,122.12,#626573,Malayo-Polynesian,Celebic,Indonesia-Sulawesi
Bungu [wun],-8.33,32.88,#335FC1,Niger-Kongo,Atlantic-Congo,Tanzania
Bunong [cmo],12.63,107.3,#6A7FBE,Austroasiatic,Bahnaric,Cambodia
Bunu [buh],25.5,108.7,#3676EF,Hmong-Mien,Hmongic,China
Bunu_Dongnu [bwx],23.88,108.08,#2078FF,Hmong-Mien,Hmongic,China
Bunu_Nunu [bwx-2],23.799,110.178,#2D70DB,Hmong-Mien,Hmongic,China
Bunuba [bck],-17.75,125.75,#F98899,Bunuban,,Australia
Bunun [bnn],23.5,121,#897749,Austronesian,Bunun,Taiwan
Bunun_Isbukun [bnn-2],23.459,121.056,#78915A,Austronesian,Bunun,Taiwan
Buol [blf],1,121.5,#91665A,Malayo-Polynesian,Philippines,Indonesia-Sulawesi
Bura [bwr],10.611,12.195,#348DA6,Afro-Asiatic,Chadic,Nigeria
Burarra [bvr],-12.25,134.667,#E6839C,Macro-Gunwinygu,Maningrida,Australia
Burji [bji],5.5,37.9,#5A8B65,Afro-Asiatic,Cushitic,Ethiopia
Burmbar [vrt],-16.372,167.749,#765A69,Oceanic,Southern Oceanic,Vanuatu
Burmese [mya],20,96,#4978D5,Tibeto-Burman,Lolo-Burmese,Myanmar
Burmese_Arakan [mya-4],20.14,92.9,#4D7ADD,Tibeto-Burman,Lolo-Burmese,Myanmar
Burmese_Intha [mya-3],20.55,96.92,#5074CE,Tibeto-Burman,Lolo-Burmese,Myanmar
Burmese_Myeik [mya-2],12.43,98.6,#3A6EC1,Tibeto-Burman,Lolo-Burmese,Myanmar
Burmese_Palaw [mya-6],13.12,98.68,#436AC0,Tibeto-Burman,Lolo-Burmese,Myanmar
Burmese_Tavoyan [mya-5],14.08,98.2,#4275D9,Tibeto-Burman,Lolo-Burmese,Myanmar
Burmeso [bzu],-2.447,138.209,#737244,Burmeso,,Indonesia-Papua
Buru [mhs],-3.7,126.4,#9E6F65,Malayo-Polynesian,Central Maluku,Indonesia-Maluku-north
Burum [bmu],-6.484,147.311,#AC826F,Trans New Guinea,Morobe-Eastern Highlands,Papua New Guinea
Burum_Mindik [bmu-3],-6.47,147.44,#738E62,Trans New Guinea,Morobe-Eastern Highlands,Papua New Guinea
Burun [bdi-2],10.8,33.8,#B767A8,Nilo-Saharan,Eastern Sudanic,Sudan
Burushaski [bsk],36.5,74.5,#5C9AB1,Burushaski,,Pakistan
Burushaski_eastern [bsk-2],36.32,74.65,#4F8BC1,Burushaski,,Pakistan
Burushaski_Jammu-Kashmir [bsk-3],34.11,74.82,#6A92BF,Burushaski,,India
Buruwai [asi-2],-3.55,133.33,#886649,Trans New Guinea,Asmat-Kamoro,Indonesia-Papua
Buryat [bxm],52,108,#6B695B,Mongolic,Core Mongolic,Russia
Busa [bqp],9.67,4,#276985,Mande,Eastern Mande,Nigeria
Busa-2 [bqp-2],9.91,4.4,#445469,Mande,Eastern Mande,Nigeria
Busami [bsm],-1.8,135.95,#8F6448,Malayo-Polynesian,Eastern Malayo-Polynesian,Indonesia-Papua
Bushong [buf],-4.67,21.3,#525BB6,Niger-Kongo,Atlantic-Congo,Democratic Republic of the Congo
Busoa [bup],-5.62,122.616,#3E7686,Malayo-Polynesian,Celebic,Indonesia-Sulawesi
Butmas_Tur [bnr],-15.376,167.028,#A6666A,Oceanic,Southern Oceanic,Vanuatu
Buwal [bhs],10.5,13.86,#3EA7A2,Afro-Asiatic,Chadic,Cameroon
Buxing [bgk-2],21.48,101.57,#4674B3,Austroasiatic,Khasi-Palaung,China
Buyang [yha],24,104.8,#3E7FE1,Tai-Kadai,Kadaic,China
Buyi_Hezhang [pcc-3],27.12,104.73,#3271D3,Tai-Kadai,Kam-Tai,China
Buyuan_Jino [jiy],22.05,101,#405CC5,Tibeto-Burman,Lolo-Burmese,China
Bwaidoka [bwd],-9.479,150.311,#6F8152,Oceanic,Western Oceanic,Papua New Guinea
Bwala [xxx-115],-4.45,16.2,#3173AF,Niger-Kongo,Atlantic-Congo,Democratic Republic of the Congo
Byansi [bee],30.17,80.5,#737CCB,Tibeto-Burman,Western Himalayan,India
C'lela [dri],11.47,5.27,#32ABAA,Niger-Kongo,Atlantic-Congo,Nigeria
Caac [msq],-20.42,164.42,#9A8CC6,Oceanic,Southern Oceanic,New Caledonia
Cabecar [cjp],9.91,-83.68,#575FB0,Chibchan,Core Chibchan,Costa Rica
Cabiyarí [cbb],-0.1302,-70.6927,#9F7146,Arawak,Northern Maipuran,Colombia
Cacaopera [ccr],13.74,-88.11,#9F7345,Misumalpan,Sumalpan,Nicaragua
Caddo [cad],33.33,-93.5,#457A59,Caddoan,Caddo,USA
Cadorino [ita-21],46.445,12.39,#60648A,Indo-European,Romance,Italy
Cagayano [cgc-2],10.47,119.87,#A67957,Malayo-Polynesian,Philippines,Philippines
Cagliaritano [ita-55],39.225,9.15,#547191,Indo-European,Romance,Italy
Cahita [opt-2],27.9,-109,#616C5D,Uto-Aztecan,Cahitan,Mexico
Cahuilla [chl],33.75,-117.75,#7DA96F,Uto-Aztecan,North Uto-Aztecan,USA
Caijia_Niujiaojing [xxx-51],27.067,104.297,#3579D3,Tibeto-Burman,Macro-Bai,China
Caijia_Xingfa [xxx-45],26.934,104.863,#3A6FC7,Tibeto-Burman,Macro-Bai,China
Cak [ckh],21.41,92.6,#4F6FB1,Tibeto-Burman,Jingpho,Bangladesh
Cakchiquel [ckf],14.5,-91,#589C62,Mayan,Core Mayan,Guatemala
Calabrian [scn-4],38.148,16.18,#4D87AC,Indo-European,Romance,Italy
Calabrian-2 [scn-3],38.92,16.6,#6588A6,Indo-European,Romance,Italy
Callahuaya [caw],-15,-69,#8EA679,Puquina,,Bolivia
Calusa [xxx-100],27.76,-82.55,#A17160,Tunica,,USA
Camling [rab],27.3,86.8,#6B87B7,Tibeto-Burman,Kiranti,Nepal
Campa [cni],-12,-74,#8B804B,Arawak,Southern Maipuran,Peru
Campalagian [cml],-4.02,119.62,#B5717E,Malayo-Polynesian,Greater South Sulawesi,Indonesia-Sulawesi
Campobassano [ita-45],41.6,14.66,#69739D,Indo-European,Romance,Italy
Camsá [kbh],1,-77,#417A7D,Camsá,,Colombia
Camuno [lmo-7],45.943,10.28,#656095,Indo-European,Romance,Italy
Canamari [knm-2],-6.46,-68.78,#AF6C5B,Katukinan,,Brazil
Candoshi [cbu],-4.17,-77,#698B52,Candoshi,,Peru
Canela-Krahô [ram],-6.5,-45,#875876,Macro-Je,Je,Brazil
Canichana [caz],-14.31,-64.94,#797A49,Canichana-Tequiraca,,Bolivia
Cantabrian_East [spa-7],43.3,-4.1,#936674,Indo-European,Romance,Spain
Cantabrian_West [spa-8],43.3,-3.9,#936274,Indo-European,Romance,Spain
Cantonese [yue],22.333,114,#4765BA,Tibeto-Burman,Sinitic,Hong Kong
Cantonese_Nanning [yue-10],22.817,108.317,#3A66B6,Tibeto-Burman,Sinitic,China
Canzés [lmo-6],45.85,9.27,#5B6DA8,Indo-European,Romance,Italy
Cao Bang [zyg-2],23.18,105.41,#4063D1,Tai-Kadai,Kam-Tai,China
Caodeng_rGyalrong [jya-4],32.2,101.8,#3881C4,Tibeto-Burman,Na-Qiangic,China
Capanahua [kaq],-7,-74,#50735B,Panoan,Southern Panoan,Peru
Cappadocian [cpg],38.66,34.85,#6195AE,Indo-European,Graeco-Phrygian,Turkey
Caquinte [cot],-11.7092,-73.9252,#9F8264,Arawak,Southern Maipuran,Peru
Car [caq],9.167,92.75,#956493,Austroasiatic,Nicobar,India_Andaman-Nicobars
Cara [cfd],10.13,8.75,#4F6DAC,Niger-Kongo,Atlantic-Congo,Nigeria
Carapana [cbc],0.45,-71,#5E5741,Tucanoan,East Tucanoan,Colombia
Carib [car],7.85,-59,#795F5F,Cariban,Guianan Carib,Guyana
Carib_Suriname [crb],5.7,-55.932,#9A6149,Arawak,Northern Maipuran,Suriname
Carib_Venezuela [crb-2],7.969,-65.67,#9E6447,Arawak,Northern Maipuran,Venezuela
Carijona [cbd],0.148,-70.708,#826450,Cariban,Guianan Carib,Colombia
Carolinian [cal],15,146,#6F87A5,Oceanic,Micronesian,USA Northern Mariana Islands
Carrarese [ita-29],44.08,10.1,#6E70A2,Indo-European,Romance,Italy
Cashibo-Cacataibo [cbr],-9.1,-75.5,#586D56,Panoan,Southern Panoan,Peru
Cashinahua [cbs],-10.5,-71.75,#446E56,Panoan,Southern Panoan,Peru
Castagniers [frp-4],43.79,7.23,#5F668D,Indo-European,Romance,France
Castellanese [sdn-6],40.913,8.71,#797DAA,Indo-European,Romance,Italy-Sardinia
Catalan [cat],41.4,2.02,#7B7BB1,Indo-European,Romance,Spain
Catalan_Northern [cat-5],42.7,2.9,#8B81AD,Indo-European,Romance,France
Catalan_Northwestern [cat-6],42.5,1.5,#8882AE,Indo-European,Romance,Andorra
Catanese [ita-52],37.5,15.1,#70819D,Indo-European,Romance,Italy
Catanzarese [ita-51],38.9,16.6,#8581A3,Indo-European,Romance,Italy
Catawba [chc],34,-81,#727348,Siouan,Eastern Siouan,USA
Cauho [pho-7],21.4,102,#4564D1,Tibeto-Burman,Lolo-Burmese,Laos
Cavineña [cav],-12.25,-67.5,#8F8B60,Tacanan,Cavineña,Bolivia
Cayapa [cbi],1.2,-78.75,#989388,Barbacoan,Southern Barbacoan,Ecuador
Cayapo [txu-2],-7.77,-51.67,#A25689,Macro-Je,Je,Brazil
Cayuga [cay],42.75,-76.75,#71623F,Iroquoian,Northern Iroquoian,USA
Cayuse [xcy],46.11,-117.94,#639459,Cayuse,,USA
Cayuvava [cyb],-12.5,-67,#5C665D,Cayuvava,,Bolivia
Ce [ruk],10,8.67,#6368C5,Niger-Kongo,Atlantic-Congo,Nigeria
Cebuano [ceb],10,124,#BD8568,Malayo-Polynesian,Philippines,Philippines
Cemuhi [cam],-20.833,165,#656AAB,Oceanic,Southern Oceanic,New Caledonia
Central !Kung [nmn-3],-19.57,18.12,#3F8AD9,Tuu,Hua,Botswana
Central Banda [tor],6.64,22.76,#2D66B1,Ubangian,Bandaic,Central African Republic
Central-Eastern Niger Fulfulde [fuq],15.09,8.43,#6C77B9,Niger-Kongo,Atlantic-Congo,Niger
Cerma [cme],10.249,-4.85,#8D6A9A,Niger-Kongo,Atlantic-Congo,Burkina Faso
Ch'ol [cti],17.49,-92.47,#618056,Mayan,Core Mayan,Mexico
Cha'palaachi [cbi-2],0.838,-78.877,#6AA47B,Barbacoan,Southern Barbacoan,Ecuador
Chachapuya [xxx-109],-6.42,-77.92,#748362,Chachapoya,,Peru
Chacobo [cao],-12.25,-65,#718244,Panoan,Southern Panoan,Bolivia
Chadong [cdy],25.2,110.2,#3E7AE2,Tai-Kadai,Kam-Tai,China
Chaha [sgw],8.2,38,#3F7E61,Afro-Asiatic,Semitic,Ethiopia
Chakali [cli],9.83,-1.9,#4C55C6,Niger-Kongo,Atlantic-Congo,Ghana
Chakavian [hrv-2],45.17,14.85,#466AA1,Indo-European,Balto-Slavic,Croatia
Chakhar [mon-5],44.94,115.38,#756367,Mongolic,Core Mongolic,Mongolia
Chakhar-2 [mon-6],43,115,#808E63,Mongolic,Core Mongolic,China
Chakma [ccp],22.9,92.23,#5A6C9E,Indo-European,Indo-Iranian,Bangladesh
Chakosi [cko-2],10.36,0.48,#615FAE,Niger-Kongo,Atlantic-Congo,Ghana
Chali [tgf],27.3,91.26,#6C80C7,Tibeto-Burman,Bodic,Bhutan
Chaling [gan-20],28.81,113.64,#3366C6,Tibeto-Burman,Sinitic,China
Cham_Eastern [cjm],10.93,108.1,#686CC8,Malayo-Polynesian,Malayo-Sumbawan,Vietnam
Cham_Western [cja],12,105.5,#7D70A6,Malayo-Polynesian,Malayo-Sumbawan,Cambodia
Chama [ese-5],-11.33,-66.25,#698848,Tacanan,Takanik-Chamik,Bolivia
Chamacoco [ceg],-22.3578,-59.7197,#55795B,Zamucoan,,Paraguay
Chamalal_Gigatil [cji],42.54,46.06,#35AC71,Nakh-Daghestanian,Avar-Andi,Russia
Chamalal_Nizhnee_Gakvari [cji-2],42.53,46.05,#32AE72,Nakh-Daghestanian,Avar-Andi,Russia
Chamba [ndi-2],8.19,11.74,#595EB6,Niger-Kongo,Atlantic-Congo,Cameroon
Chambri [can],-4.167,143.083,#814F7D,Lower Sepik-Ramu,Lower Sepik,Papua New Guinea
Chamicuro [ccc],-5.114,-75.736,#899183,Arawak,Western Maipuran,Peru
Chamorro [cha],13.583,145,#74607E,Malayo-Polynesian,Chamorro,USA Federated States of Micronesia Guam
Chaná [qsi],-34,-55,#766F67,Charruan,,Uruguay
Chang Naga [nbc],26.23,94.817,#637E85,Tibeto-Burman,Konyak,India
Changana [tso-2],-24.516,31.504,#1B8FD3,Niger-Kongo,Atlantic-Congo,South Africa
Changchow [nan-25],24.75,117.833,#3666C4,Tibeto-Burman,Sinitic,China
Changchun [cmn-21],43.88,125.32,#3B6BCC,Tibeto-Burman,Sinitic,China
Changle [cmn-48],25.92,119.55,#3768BF,Tibeto-Burman,Sinitic,China
Changpaoyao [bmt-2],25.417,107.88,#3474F5,Hmong-Mien,Mienic,China
Changsha [hsn],28,113,#375DBF,Tibeto-Burman,Sinitic,China
Changsha_Old [hsn-25],27.9,112.9,#3B5FC1,Tibeto-Burman,Sinitic,China
Changting [hak-14],25.83,116.35,#4063C0,Tibeto-Burman,Sinitic,China
Changzhi [cjy-4],36.167,113,#3B6098,Tibeto-Burman,Sinitic,China
Changzhou [wuu-32],31.783,119.967,#3D65D5,Tibeto-Burman,Sinitic,China
Channel_English [eng-8],49.45,-2.54,#427691,Indo-European,Germanic,Britain
Chantyal [chx],28.75,83.5,#8671AD,Tibeto-Burman,Bodic,Nepal
Chaoyang [nan-42],23.32,116.48,#3959B6,Tibeto-Burman,Sinitic,China
Chaozhou [nan-26],23.667,116.667,#435ABF,Tibeto-Burman,Sinitic,China
Chaplino [ess-2],65,-173,#7F9958,Eskimo-Aleut,Eskimo,Russia
Chaplino_Alaska [ess-3],63.5,-170.5,#6CC37A,Eskimo-Aleut,Eskimo,USA-Alaska
Chara [cra],6.64,36.42,#509575,Afro-Asiatic,Omotic,Ethiopia
Chara-2 [cra-2],6.617,36.238,#45855E,Afro-Asiatic,Omotic,Ethiopia
Charleroi [wln-2],50.41,4.45,#6D6585,Indo-European,Romance,Belgium
Chatino [ctp],16.5,-97.25,#3F57A3,Otomanguean,Eastern Otomanguean,Mexico
Chatino_Tataltepec [cta],16.3,-97.55,#3B7BBA,Otomanguean,Eastern Otomanguean,Mexico
Chatino_Yaitepec [ctp-2],16.225,-97.27,#3A51A7,Otomanguean,Eastern Otomanguean,Mexico
Chatino_Zenzontepec [czn],17.34,-92.34,#52896B,Otomanguean,Eastern Otomanguean,Mexico
Chattisgarhi [hne],21.25,81.25,#8780AD,Indo-European,Indo-Iranian,India
Chaudangsi [cdn],29.7,80.48,#8289D9,Tibeto-Burman,Western Himalayan,India
Che [ruk-2],10.03,8.65,#5B6DBF,Niger-Kongo,Atlantic-Congo,Nigeria
Che'_Wong [cwg],3.833,102,#9C7CA3,Austroasiatic,Aslian,Malaysia
Chechen [che],43.13,45.54,#2DA688,Nakh-Daghestanian,Nakh,Russia
Chechen_Pẋarçxoy Äqqiy [che-4],43.12,46.48,#24967E,Nakh-Daghestanian,Nakh,Russia
Chechen_Şaroy [che-3],42.63,45.8,#36A477,Nakh-Daghestanian,Nakh,Russia
Chechen_Ҫ̇äberloy [che-2],42.6,46,#36A477,Nakh-Daghestanian,Nakh,Russia
Cheke_Holo_Maringe [mrn],-8.5,159.67,#7394B6,Oceanic,Western Oceanic,Solomons
Chemakum [xch],48.08,-122.93,#52BC56,Chimakuan,,USA
Chemehuevi [ute-2],34.33,-115.17,#6EAD70,Uto-Aztecan,Numic,USA
Chemnitz [nds-5],50.83,12.92,#408782,Indo-European,Germanic,Germany
Chen [nbe-2],26.58,95.1,#5967B4,Tibeto-Burman,Konyak,India
Chenapian [cjn],-4.25,142.33,#66587D,Sepik,Iwam-Wogamus,Papua New Guinea
Chenchu [cde],15.88,79.25,#C1756A,Dravidian,South-Central Dravidian,India
Cheng [jeg],15,107.167,#755C8F,Austroasiatic,Bahnaric,Laos
Chengdu [cmn-14],30.6,104.1,#3D5FB9,Tibeto-Burman,Sinitic,China
Chengfeng [xxx-87],29.685,113.49,#3D84D3,Hmong-Mien,Hmongic,China
Chengqiao [wuu-6],31.63,121.4,#245CD2,Tibeto-Burman,Sinitic,China
Chenxian [hsn-18],26.34,113.285,#4459C2,Tibeto-Burman,Sinitic,China
Chenzhou [hsn-8],25.77,113.01,#4558C1,Tibeto-Burman,Sinitic,China
Chepang [cdm],28.05,83.92,#6296D0,Tibeto-Burman,Chepang,Nepal
Cheremis [mrj],55.624,55.484,#5B7282,Uralic,Mari,Russia
Cherepon [cpn],6.05,-0.11,#6C6EA2,Niger-Kongo,Atlantic-Congo,Ghana
Cherokee [chr],35.5,-83.5,#756949,Iroquoian,Southern Iroquoian,USA
Cherokee_lower [chr-3],37.48,-82.53,#696643,Iroquoian,Southern Iroquoian,USA
Cherokee_Qualla [chr-2],35.5,-83.26,#846842,Iroquoian,Southern Iroquoian,USA
Cheyenne [chy],43.5,-104,#69653B,Algic,Algonquian,USA
Chiapanec [cip],16.66,-91.94,#79675F,Otomanguean,Western Otomanguean,Mexico
Chibcha [chb-2],9.2,-74.5,#6C7350,Chibchan,Core Chibchan,Colombia
Chichewa [nya-2],-14.8,32.81,#307CBD,Niger-Kongo,Atlantic-Congo,Malawi
Chichimec [pei],24.87,-103.7,#388687,Otomanguean,Western Otomanguean,Mexico
Chichimeco-Jonaz [pei],21.29,-100.52,#2F77AD,Otomanguean,Western Otomanguean,Mexico
Chickasaw [cic],34,-88,#466F6A,Muskogean,Western Muskogean,USA
Chietino [ita-44],42.35,14.17,#64738F,Indo-European,Romance,Italy
Chifundi [swh-13],-4.57,39.43,#558E9A,Niger-Kongo,Atlantic-Congo,Tanzania
Chiguano_Izoceño [gui-2],-20,-63,#596036,Tupian,Tupi-Guarani,Bolivia
ChiKunda [kdn],-15.73,30.28,#2E6EA6,Niger-Kongo,Atlantic-Congo,Mozambique
Chilcotin [clc],52,-125,#23C46E,Dene-Yeniseic,Na-Dene,Canada
Chimane [cas-4],-14.64,-67.84,#5B765C,Moseten,Chimane,Bolivia
Chimariko [cid],41,-123,#62B779,Chimariko,,USA
Chimila [cbg],10.75,-73,#588AC1,Chibchan,Core Chibchan,Colombia
Chimwiini [swh-4],1.1,43,#5C82A4,Niger-Kongo,Atlantic-Congo,Somalia
Chin_Daai [dao],21.1,93.65,#4473B5,Tibeto-Burman,Kuki-Chin-Naga,Myanmar
Chin_Daai_Mkuui [dao-2],21.25,93.5,#5071C5,Tibeto-Burman,Kuki-Chin-Naga,Myanmar
Chin_Falam [cfm],22.9,93.67,#6284C7,Tibeto-Burman,Kuki-Chin-Naga,Myanmar
Chin_Tiddim [ctd],23.333,93.667,#695BA6,Tibeto-Burman,Kuki-Chin-Naga,Myanmar
Chinali [cih],32.5,77.83,#7C8FB0,Indo-European,Indo-Iranian,India
Chinantec_Chiltepec [csa],17.93,-96.17,#5E5E97,Otomanguean,Western Otomanguean,Mexico
Chinantec_Comaltepec [cco],17.57,-96.55,#474FAE,Otomanguean,Western Otomanguean,Mexico
Chinantec_La-Alicia [xxx-96],17.64,-96.02,#5C5DB1,Otomanguean,Western Otomanguean,Mexico
Chinantec_Lacova [xxx-80],17.46,-95.94,#5360B0,Otomanguean,Western Otomanguean,Mexico
Chinantec_Lalana [cnl],17.475,-95.875,#4457C3,Otomanguean,Western Otomanguean,Mexico
Chinantec_Latani [tpx-2],17.38,-95.91,#545DA1,Otomanguean,Western Otomanguean,Mexico
Chinantec_Lealao [cle],17.32,-95.93,#4961B5,Otomanguean,Western Otomanguean,Mexico
Chinantec_Mayultianguis [xxx-99],17.92,-96.57,#545DA1,Otomanguean,Western Otomanguean,Mexico
Chinantec_Ojitlan [chj],18.05,-96.4,#5A59BF,Otomanguean,Western Otomanguean,Mexico
Chinantec_Ozumacin [chz],17.68,-96.23,#4A5BBD,Otomanguean,Western Otomanguean,Mexico
Chinantec_Palantla [cpa],17.83,-96.39,#4158AA,Otomanguean,Western Otomanguean,Mexico
Chinantec_Petlapa [xxx-105],17.48,-96.025,#5360B0,Otomanguean,Western Otomanguean,Mexico
Chinantec_Quetzalapa [xxx-93],17.34,-95.88,#4C5BB2,Otomanguean,Western Otomanguean,Mexico
Chinantec_Quiotepec [chq],17.6,-96.58,#3D62C5,Otomanguean,Western Otomanguean,Mexico
Chinantec_Rio-Chiquito [xxx-95],17.6,-95.97,#595EAC,Otomanguean,Western Otomanguean,Mexico
Chinantec_Sochiapam [cso],17.825,-96.67,#3954AA,Otomanguean,Western Otomanguean,Mexico
Chinantec_Temextitlan [cco-2],17.59,-96.55,#5A4B65,Otomanguean,Western Otomanguean,Mexico
Chinantec_Teotalcingo [xxx-94],17.42,-95.95,#5360B0,Otomanguean,Western Otomanguean,Mexico
Chinantec_Tepetotutla [cnt],17.26,-96.11,#4559BF,Otomanguean,Western Otomanguean,Mexico
Chinantec_Tlacoatzintepec [ctl],17.86,-96.6,#475AB0,Otomanguean,Western Otomanguean,Mexico
Chinantec_Usila [cuc],17.89,-96.52,#4A57BC,Otomanguean,Western Otomanguean,Mexico
Chinantec_Valle_Nacional [cvn],17.77,-96.3,#585990,Otomanguean,Western Otomanguean,Mexico
Chinantec_Yolox [xty],17.61,-96.57,#4F5D9F,Otomanguean,Western Otomanguean,Mexico
Chindamba [ndj],-8.4,36.03,#54618E,Niger-Kongo,Atlantic-Congo,Tanzania
Chinook [chh],46,-124,#62A956,Chinook,Lower Chinook,USA
Chinsenga [nse],-15.39,31.35,#4A73AA,Niger-Kongo,Atlantic-Congo,Mozambique
ChiNyanja [nya],-15,35,#3673AE,Niger-Kongo,Atlantic-Congo,Malawi
Chioggiotto [ita-23],44.22,12.28,#725E87,Indo-European,Romance,Italy
Chipaya [cap],-19,-68,#55C490,Uru-Chipaya,,Bolivia
Chiquimulilla [xin-2],14.08,-90.38,#5AB28A,Xinca,,Guatemala
Chiquitano [cax],-17.5,-62,#697D4E,Chiquitano,,Bolivia
Chiquitano_Migueleño [cax-3],-17,-60.97,#7A7950,Chiquitano,,Bolivia
Chiricahua [apm],33.5,-108,#169278,Dene-Yeniseic,Na-Dene,USA
Chiriguano_Chané [gui-3],-17.793,-63.18,#82674B,Tupian,Tupi-Guarani,Bolivia
Chiru [cdf],24.99,93.5,#5A60A0,Tibeto-Burman,Kuki-Chin-Naga,India
Chitimacha [ctm],29.67,-91,#417660,Totozoquean-Chitimacha,Chitimacha,USA
Chitoniya_Tharu [the],27.58,84.41,#8C92C1,Indo-European,Indo-Iranian,Nepal
Chittagong [ben-2],22.37,91.8,#4D7991,Indo-European,Indo-Iranian,Bangladesh
Chiwere [iow-2],40.05,-95.52,#787F59,Siouan,Western Siouan,USA
Chöcangacakha [cgk],27.53,91.14,#5974CD,Tibeto-Burman,Bodic,Bhutan
Chöcangacakha-2 [cgk-2],27.55,90.92,#5269BB,Tibeto-Burman,Bodic,Bhutan
Chochenyo [cst],37.65,-121.91,#8A8A55,Yok-Utian,Utian,USA
Chocho [coz],17.67,-97.33,#2A72B7,Otomanguean,Eastern Otomanguean,Mexico
Choctaw [cho],32.25,-88.5,#607850,Muskogean,Western Muskogean,USA
Chokobo [cbo],10.35,8.85,#5270B0,Niger-Kongo,Atlantic-Congo,Nigeria
Chokri [nri],26.67,93.75,#547BD5,Tibeto-Burman,Kuki-Chin-Naga,India
Chokri-2 [nri-2],25.7,94.3,#4078CB,Tibeto-Burman,Kuki-Chin-Naga,India
Chokwe [cjk],-9.702,22.876,#3071BB,Niger-Kongo,Atlantic-Congo,Democratic Republic of the Congo
Cholon [cht],-8,-77.5,#898856,Cholon,,Peru
Chomo [cfg],8.87,10.82,#3D5C55,Niger-Kongo,Atlantic-Congo,Nigeria
Chong [cog-2],12.91,102.01,#6F73BB,Austroasiatic,Pearic,Thailand
Chong'an [mnp-5],27.76,118.03,#495EBE,Tibeto-Burman,Sinitic,China
Chongming [wuu-35],31.67,121.5,#3D7ED4,Tibeto-Burman,Sinitic,China
Chongqing [cmn-61],29.55,106.6,#365DBE,Tibeto-Burman,Sinitic,China
Chongyang [gan-3],29.55,114.17,#375CBE,Tibeto-Burman,Sinitic,China
Chono [xxx-70],-46,-75,#997E75,Chonan,Chonan Proper,Chile
Chontal [chd],18.17,-92.58,#4D806D,Mayan,Core Mayan,Mexico
Chontal [clo],16.3,-95.5,#698A59,Tequistlatecan,,Mexico
Chonyi [coh],-3.8,39.76,#4B7FBA,Niger-Kongo,Atlantic-Congo,Kenya
Chopi [cce],-24.718,34.744,#2E6EB0,Niger-Kongo,Atlantic-Congo,Mozambique
Chori [cry],9.59,8.06,#4290BD,Niger-Kongo,Atlantic-Congo,Nigeria
Chorote [crq],-22,-63,#7D9573,Matacoan,Mataguayo II,Argentina
Chorti [caa],14.8,-89.3,#5D915C,Mayan,Core Mayan,Guatemala
Chrau [crw],10.667,107.5,#7C6B99,Austroasiatic,Bahnaric,Vietnam
Chru [cje],11.774,108.575,#A86C8D,Malayo-Polynesian,Malayo-Sumbawan,Vietnam
Chuave [cjv],-6.168,145.119,#604C68,Trans New Guinea,Chimbu-Wahgi,Papua New Guinea
Chuj [cac],16,-91.5,#769562,Mayan,Core Mayan,Mexico
Chuj_Ixtatán [cnm],15.833,-91.483,#769F6E,Mayan,Core Mayan,Guatemala
Chukchansi [yok-4],36.99,-119.64,#59B78F,Yok-Utian,Yokuts,USA
Chukchi [ckt],67,-173,#BF7B61,Chukotko-Kamchatkan,Main Chukotko-Kamchatkan,Russia
Chulym [clw],54.32,89.55,#4C93A4,Turkic,Common Turkic,Russia
Chumash [boi],34.5,-120.25,#39B199,Chumashan,South Chumashan,USA
Chumash_Barbareño [boi-2],34.46,-119.7,#35B595,Chumashan,South Chumashan,USA
Chumash_Cruzeño [veo-4],34.05,-119.86,#36B495,Chumashan,South Chumashan,USA
Chumash_Ineseño [inz],34.61,-120.09,#34B496,Chumashan,South Chumashan,USA
Chumash_Obispeño [veo-5],35.29,-120.67,#35B78D,Chumashan,North Chumashan,USA
Chumash_Purisimeño [veo-2],34.69,-120.43,#33B790,Chumashan,South Chumashan,USA
Chumash_Ventureño [veo],34.22,-118.72,#34AC8E,Chumashan,South Chumashan,USA
Chumash_Ventureño-Mitsqanaqan [veo-3],34.28,-119.23,#33AC90,Chumashan,South Chumashan,USA
Chumburung [ncu],8.15,-0.28,#5D63A7,Niger-Kongo,Atlantic-Congo,Ghana
Chung [scq],14.004,99.55,#707ABA,Austroasiatic,Pearic,Laos
Chungcheong_Korean [kor-6],35.83,127.15,#4B608B,Korean,,Korea
Chuukese [chk],7.333,151.75,#A05C79,Oceanic,Micronesian,USA Federated States of Micronesia
Chuvash [chv],55.5,47.5,#8F6A70,Turkic,Oghur,Russia
Chuwabu [chw],-17.36,37.1,#6C78BC,Niger-Kongo,Atlantic-Congo,Mozambique
Chuxnabán_Mixe [pxm],17,-96,#556669,Totozoquean-Chitimacha,Totozoquean,Mexico
Ciacia [cia],-5.75,122.75,#7C6373,Malayo-Polynesian,Celebic,Indonesia-Sulawesi
Cicipu [awc],10.911,5.703,#22828F,Niger-Kongo,Atlantic-Congo,Nigeria
Cijomvu [swh-11],-3.98,39.62,#6C92B0,Niger-Kongo,Atlantic-Congo,Tanzania
CiLuba [lua],-6,22,#48648F,Niger-Kongo,Atlantic-Congo,Democratic Republic of the Congo
Cimbrian [cim],45.62,11.13,#4789B7,Indo-European,Germanic,Italy
Cisuundi [sdj],-5.56,12.19,#37748A,Niger-Kongo,Atlantic-Congo,Angola
Citak [tml],-5.509,139.218,#A5654D,Trans New Guinea,Asmat-Kamoro,Indonesia-Papua
Citumbuka [tum],-11,33.5,#5675A7,Niger-Kongo,Atlantic-Congo,Malawi
Coahuilteco [xcw],28,-100,#3DA06D,Coahuilteco,,USA
Cocama-Cocamilla [cod],-5,-74.3,#B57557,Tupian,Tupi-Guarani,Peru
Cochimi [coj],27.28,-112.89,#699F62,Yuman-Cochimi,Cochimi,Mexico
Coconucan [cca],2.55,-76.65,#AD8162,Barbacoan,Northern Barbacoan,Colombia
Cocopa [coc],32.5,-115,#8BAD69,Yuman-Cochimi,Yuman,USA
Coeur d'Alene [crd],47.33,-117,#42D87B,Salish,Interior Salish,USA
Cofan [con],0.25,-77,#347780,Kofan,,Ecuador
Cog-rtse_rGyalrong-2 [jya-5],31.5,102,#5190AE,Tibeto-Burman,Na-Qiangic,China
Cognino [ita-12],45.61,7.36,#5872A8,Indo-European,Romance,Italy
Cogtse Gyarong [jya],32.1,100.6,#6195B7,Tibeto-Burman,Na-Qiangic,China
Col [liw],-3.3,102.86,#AC757B,Malayo-Polynesian,Malayo-Sumbawan,Indonesia-Sumatra
Colac [xxx-42],-38.33,143.5,#F4889E,Pama-Nyungan,Kulinic,Australia
Colloquial_Tamil [tam-7],9.23,78.12,#B5839E,Dravidian,South Dravidian,India
Columbian [col-2],48.22,-118.45,#4DDF72,Salish,Interior Salish,USA
Comacchiese [ita-31],44.7,12.18,#5E6CA1,Indo-European,Romance,Italy
Comanche [com],33.5,-101.5,#767041,Uto-Aztecan,Numic,USA
Comecrudo [xcm],26.09,-98.28,#908842,Coahuiltecan,,Mexico
Comorian [wlc-2],-12.17,44.25,#3F8F8C,Niger-Kongo,Atlantic-Congo,Comoros
Comox [coo],49.75,-125,#49D674,Salish,Central Salish,Canada
Cone [adx-4],34.58,103.5,#3977CE,Tibeto-Burman,Bodic,China
Congjiang [kmc-2],25.752,108.91,#4181DD,Tai-Kadai,Kam-Tai,China
Coos [csz],43.5,-124.17,#34B46F,Coos,,USA
Cora [crn],23.333,-99,#579276,Uto-Aztecan,Corachol,Mexico
Cora_Ixcatan [crn-2],20.88,-103.35,#859764,Uto-Aztecan,Corachol,Mexico
Cornish [cor],50.5,-4.5,#3A7686,Indo-European,Celtic,Britain
Corsican [cos],42.1,9.5,#89A394,Indo-European,Romance,France
Cosao [xxx-25],21.62,101.567,#326FD6,Tibeto-Burman,Lolo-Burmese,China
Cotabato_Manobo_Kalamansig [mta-2],6.421,124.29,#856853,Malayo-Polynesian,Philippines,Philippines
Cowlitz [cow],46.5,-123.17,#59C059,Salish,Tsamosan,USA
Cree_East [crl],50.42,-73.87,#75793E,Algic,Algonquian,Canada
Cree_Moose [crm],51.33,-80.5,#827A43,Algic,Algonquian,Canada
Cree_Plains [crk],54,-116,#886E3C,Algic,Algonquian,Canada
Cree_Swampy [csw],54.5,-84,#8B7542,Algic,Algonquian,Canada
Cree_Woods [cwd],57.5,-100.5,#7E713C,Algic,Algonquian,Canada
Creek [mus],30.41,-85.2,#5D6163,Muskogean,Creek,USA
Cremonese [lmo-8],45.13,10.03,#5A6E9D,Indo-European,Romance,Italy
Crimean Tatar [crh-2],45.58,34.1,#49857C,Turkic,Common Turkic,Ukraine
Crimean Tatar_northern [crh-5],46.38,35.19,#58887A,Turkic,Common Turkic,Ukraine
Crimean Tatar_south central [crh-4],45.06,34.6,#46847B,Turkic,Common Turkic,Ukraine
Crimean Tatar_southern [crh-3],44.5,34.16,#4C7A78,Turkic,Common Turkic,Ukraine
Croatian [hrv],45.5,17.3,#629A86,Indo-European,Balto-Slavic,Croatia
Cross_River_Mbembe [mfn],6.17,8.24,#4C6EAC,Niger-Kongo,Atlantic-Congo,Nigeria
Crow [cro],45.5,-108,#565C4C,Siouan,Western Siouan,USA
Cua [cua],15.167,108.667,#626AB7,Austroasiatic,Bahnaric,Vietnam
Cubeo [cub],1.33,-70.5,#5D553F,Tucanoan,Central Tucanoan,Colombia
Cuiba [cui],6.5,-70.5,#626959,Guahiban,Central Guahiban,Colombia
Cuicatec [xtu],17.98,-96.72,#4F6250,Otomanguean,Eastern Otomanguean,Mexico
Cuitlatec [qpb],18.1,-100.34,#5F8054,Cuitlatec,,Mexico
