name,latitude,longitude,color,family,subgroup,country
!Xoon [nmn],-24,21.5,#1587CC,Tuu,Hua,Botswana
’Weenhayek [mtp],-21.99,-63.6,#50B097,Matacoan,Mataguayo II,Bolivia
||Ana [gnk],-22.2,22.4,#207682,Khoe,Khoe,Botswana
||Ani [hnh],-19.3,22.5,#288096,Khoe,Khoe,Botswana
||Gana [gnk-2],-19,22.5,#256487,Khoe,Khoe,Botswana
||Xekwi [xeg],-23,22,#2FA4A9,Tuu,!Kwi,Botswana
|Gwi [gwj],-22.435,21.654,#1D80A3,Khoe,Khoe,Botswana
|Xam [xam],-30.34,21.82,#377AA1,Tuu,/Xam,South Africa
A'iwa [ash],-2,-74.5,#748C51,A'iwa,,Peru
A'jië [aji],-21.342,165.459,#A483B1,Oceanic,Southern Oceanic,New Caledonia
Aari [aiw],6,36.6,#2D828F,Afro-Asiatic,Omotic,Ethiopia
Aashing [adi-10],28.99,94.9,#A97085,Tibeto-Burman,Macro-Tani,India
Abanyom [abm],6.499,8.647,#6B58A7,Niger-Kongo,Atlantic-Congo,Nigeria
Abar [mij-3],6.59,10.26,#466CB4,Niger-Kongo,Atlantic-Congo,Cameroon
Abau [aau],-4,141.167,#6F4E5B,Sepik,Abau,Papua New Guinea
Abawiri [flh],-3.05,139.21,#364964,Lakes Plains,Eastern Lakes Plains,Indonesia-Papua
Abaza [abq],44.34,41.67,#2EEB81,Northwest Caucasus,Abaza-Abkhaz,Russia
Abduyi [pes-4],29.7,52.07,#4C825C,Indo-European,Indo-Iranian,Iran
Abelam [abt-2],-3.83,143.17,#C4827B,Ndu,Nuclear Ndu,Papua New Guinea
Abellen [abp],15.41,120.2,#A67359,Malayo-Polynesian,Philippines,Philippines
Abenaki_Western [abe],44,-72.25,#6E7253,Algic,Algonquian,USA
Aberdeenshire_English [sco-4],57.3,-2,#407980,Indo-European,Germanic,Britain
Abidji [abi],5.66,-4.58,#506498,Niger-Kongo,Atlantic-Congo,Côte d'Ivoire
Abinomn [bsa],-3,138.8,#6D6F4D,Abinomn,,Indonesia-Papua
Abipon [axb],-26,-61,#9F8958,Guaicuruan,Southern Guaicuruan,Argentina
Abkhaz [abk],43,41.03,#39E381,Northwest Caucasus,Abaza-Abkhaz,Abkhazia
Abkhaz_Bzyp [ady-14],43.32,40.41,#2FEB8A,Northwest Caucasus,Abaza-Abkhaz,Abkhazia
Abkhaz_Sadz [ady-13],43.33,40.22,#37E982,Northwest Caucasus,Abaza-Abkhaz,Abkhazia
Abron [abr],8.03,-2.8,#424A86,Niger-Kongo,Atlantic-Congo,Ghana
Abruzzo [nap],42.66,13.7,#637EB1,Indo-European,Romance,Italy
Abua [abn],4.8,6.654167,#4E62B0,Niger-Kongo,Atlantic-Congo,Nigeria
Abui [abz],-8.417,124.6,#7D5761,Timor-Alor-Pantar,Alor-Pantar,Indonesia-NTT
Abujh_Maria [mrr-2],18.75,80.68,#B6816A,Dravidian,South-Central Dravidian,India
Abun [kgr],-0.833,132,#4D5A87,West Papuan,Birds Head,Indonesia-Papua
Abure [abu],5.22,-3.64,#565D9C,Niger-Kongo,Atlantic-Congo,Côte d'Ivoire
Acatec [agu-2],15.7,-91.617,#51A168,Mayan,Core Mayan,Guatemala
Aceh_Lhokseumawe [ace-7],5.19,97.14,#6A74C5,Malayo-Polynesian,Malayo-Sumbawan,Indonesia-Sumatra
Aceh_Pidie [ace-2],5.38,95.96,#6C74C2,Malayo-Polynesian,Malayo-Sumbawan,Indonesia-Sumatra
Acehnese [ace],5.333,96.167,#5E72BD,Malayo-Polynesian,Malayo-Sumbawan,Indonesia-Sumatra
Acehnese_Northeast [ace-6],4.62,97.62,#5672B9,Malayo-Polynesian,Malayo-Sumbawan,Indonesia-Sumatra
Acehnese_South [ace-4],4.1,96.23,#5871B9,Malayo-Polynesian,Malayo-Sumbawan,Indonesia-Sumatra
Acehnese_Southwest [ace-3],5.05,95.34,#5870B8,Malayo-Polynesian,Malayo-Sumbawan,Indonesia-Sumatra
Acehnese_West [ace-5],5.47,95.26,#566FB9,Malayo-Polynesian,Malayo-Sumbawan,Indonesia-Sumatra
Achagua [aca],4.002,-72.814,#788A59,Arawak,Northern Maipuran,Colombia
Achang_Lianghe [acn-2],24.8,98.3,#4F7CD4,Tibeto-Burman,Lolo-Burmese,China
Achang_Longchuan [can-2],24.25,97.833,#4684E5,Tibeto-Burman,Lolo-Burmese,China
Achang_Luxi [can-3],24.527,103.764,#4468BF,Tibeto-Burman,Lolo-Burmese,China
Aćharêtâʹ [phl-2],35.4,71.75,#567FBC,Indo-European,Indo-Iranian,Afghanistan
Aché [guq],-25.25,-55.17,#7F6364,Tupian,Tupi-Guarani,Paraguay
Achi [acr],15.25,-90.5,#66975D,Mayan,Core Mayan,Guatemala
Achuar [acu],-3,-76,#9C8155,Jivaroan,Shuaric,Peru
Achumawi [acv],41.5,-121,#46B187,Palaihnihan,,USA
Acipa [acp],10.71,6.01,#1D9398,Niger-Kongo,Atlantic-Congo,Nigeria
Acoma [kjq-2],34.92,-107.58,#35A1B4,Keresan,Western Keresan,USA
Acooli [ach],3.293,32.871,#976EB1,Nilo-Saharan,Eastern Sudanic,Uganda
Adamawa Fulfulde [fub],8.9,15.84,#596DAB,Niger-Kongo,Atlantic-Congo,Cameroon
Adang [adn],-8.163,124.456,#8E6360,Timor-Alor-Pantar,Alor-Pantar,Indonesia-NTT
Adangme [ada],5.8,0.33,#4B61A9,Niger-Kongo,Atlantic-Congo,Ghana
Adim [yay],5.81,8.03,#40727A,Niger-Kongo,Atlantic-Congo,Nigeria
Adyghe [ady],44.1,39.08,#31DA7A,Northwest Caucasus,Ubykh-Circassian,Russia
Adyghe_Abzakh [ady-12],44.7,38.9,#28DB80,Northwest Caucasus,Ubykh-Circassian,Russia
Adyghe_Besleney [ady-6],44.7,40.75,#2DDF7D,Northwest Caucasus,Ubykh-Circassian,Russia
Adyghe_Black Sea Shapsugh [ady-2],44.375,38.4,#22EB8B,Northwest Caucasus,Ubykh-Circassian,Abkhazia
Adyghe_Bzhedug [ady-7],45,39.3,#25E189,Northwest Caucasus,Ubykh-Circassian,Russia
Adyghe_Cherkess [ady-10],44.25,42.05,#30DC79,Northwest Caucasus,Ubykh-Circassian,Russia
Adyghe_Hakuchi [ady-9],44.88,38,#30DC79,Northwest Caucasus,Ubykh-Circassian,Russia
Adyghe_Natukai [ady-4],44.4,38.35,#2CE980,Northwest Caucasus,Ubykh-Circassian,Russia
Adyghe_Shapsugh [ady-3],44.3,39,#22EB8C,Northwest Caucasus,Ubykh-Circassian,Russia
Adyghe_Temirgoy [ady-11],45.125,39.83,#31DB79,Northwest Caucasus,Ubykh-Circassian,Russia
Adyghe_Uzunyayla [ady-5],44.25,38.77,#31DE7D,Northwest Caucasus,Ubykh-Circassian,Russia
Adynyamathanha [adt],-31,139.5,#F08E9A,Pama-Nyungan,Thura-Yura,Australia
Adyukru [adj],5.38,-4.53,#725BAF,Niger-Kongo,Atlantic-Congo,Ghana
Adzera [azr],-6.417,146.25,#8E6B65,Oceanic,Western Oceanic,Papua New Guinea
Aeka [aez],-8.601,147.994,#715A66,Trans New Guinea,Oro-Wharton,Papua New Guinea
Afar [aar],11.85,42,#7F7850,Afro-Asiatic,Cushitic,Djibouti
Afitti [aft-2],12.44,31,#896097,Nilo-Saharan,Eastern Sudanic,Sudan
Afrikaans [afr],-33.9,18.5,#6C5D83,Indo-European,Germanic,South Africa
Afshar [azj-2],37.475,57.33,#508B82,Turkic,Common Turkic,Iran
Agabag [mvv-3],3.965,117.095,#AF6C7D,Malayo-Polynesian,North Borneo,Indonesia-Kalimantan
Agarabi [agd],-6.25,145.917,#8B4D64,Trans New Guinea,Morobe-Eastern Highlands,Papua New Guinea
Agatu [agc],7.98,7.72,#5676B2,Niger-Kongo,Atlantic-Congo,Nigeria
Aghem [agq],6.39,10.12,#3962CB,Niger-Kongo,Atlantic-Congo,Cameroon
Aghu [ahh],-6.333,140,#5B5C51,Trans New Guinea,Awyu-Dumut,Indonesia-Papua
Aghu-Tharrnggala [gtu],-13.73,142.43,#D17FAA,Pama-Nyungan,Paman,Australia
Aghul_Huppuq’ [agx-6],41.836,47.6602,#2EA07A,Nakh-Daghestanian,Lezgic,Russia
Aglla [idu-3],6.8,7.95,#5983C6,Niger-Kongo,Atlantic-Congo,Nigeria
Agöb [kit],-9.09,142.53,#9E6C92,South New Guinea,East Morehead,Papua New Guinea
Agta [agt],17.967,121.833,#856860,Malayo-Polynesian,Philippines,Philippines
Aguaruna [agr],-5.25,-78,#8E7F47,Jivaroan,Aguaruna,Peru
Aguatec [agu],15.4,-91.4,#4D9968,Mayan,Core Mayan,Guatemala
Agul [agx],41.78,47.59,#349F73,Nakh-Daghestanian,Lezgic,Russia
Agul_Burkixan [agx-2],41.78,47.6,#34AB7E,Nakh-Daghestanian,Lezgic,Russia
Agul_Burshag [agx-3],41.86,47.62,#38AF7A,Nakh-Daghestanian,Lezgic,Russia
Agul_Fite [agx-4],41.79,47.59,#31AE84,Nakh-Daghestanian,Lezgic,Russia
Agul_Richa [agx-5],41.78,47.61,#2EB680,Nakh-Daghestanian,Lezgic,Russia
Agusan [mbb-2],8.68,125.79,#A4705C,Malayo-Polynesian,Philippines,Philippines
Agusan_Manobo [msm],8.63,125.74,#A06D63,Malayo-Polynesian,Philippines,Philippines
Agutaynen [agn],11.15,120.95,#B57F62,Malayo-Polynesian,Philippines,Philippines
Agwamin [wmi],-16.986,143.001,#DF778C,Pama-Nyungan,Paman,Australia
Ahamb [ahb],-16.507,167.703,#726796,Oceanic,Southern Oceanic,Vanuatu
Ahan [ahn],7.44,6.01,#486AA1,Niger-Kongo,Atlantic-Congo,Nigeria
Ahanta [aha],4.85,-1.95,#476D9F,Niger-Kongo,Atlantic-Congo,Ghana
Ahi [yix],24.4,103.4,#2A74C2,Tibeto-Burman,Lolo-Burmese,China
Ahom [aho],25,95,#505AA9,Tai-Kadai,Kam-Tai,India
Ahtna [aht],62,-145,#399470,Dene-Yeniseic,Na-Dene,USA-Alaska
Ai-cham_Diwo [aih],25.8,107,#3668CE,Tai-Kadai,Kam-Tai,China
Aikaná [tba],-12.1,-60.6,#A15C78,Aikaná,,Brazil
Aikaná_Masacá [tba-2],-12.7,-60.8,#A05C79,Aikaná,,Brazil
Aimaq [aiq],35.28,59.18,#4A8B5F,Indo-European,Indo-Iranian,Iran
Ainu [ain],42.4,142.5,#706454,Ainu,Hokkaido-Kuril,Japan
Ainu_Kuril [ain-2],46.5,151.5,#8A7049,Ainu,Hokkaido-Kuril,Japan
Ainu_Sakhalin [ain-3],49.07,142.03,#76614F,Ainu,Sakhalin,Japan
Ainu_Saru [ain-4],42.88,142.4,#8A7049,Ainu,Hokkaido-Kuril,Japan
Air Tamajeq_Tayart [thz],16.92,7.67,#43AE8F,Afro-Asiatic,Berber,Mauritania
Airoran [air],-1.7,138.15,#827548,Tor-Kwerba,West Foya Range,Indonesia-Papua
Aisi [mmq],-5.35,145.15,#A0635E,Trans New Guinea,Madang,Papua New Guinea
Ait_Seghrouchen [tzm-2],33,-5,#58B162,Afro-Asiatic,Berber,Morocco
Aita_Rotokas [roo-2],-6,155.08,#A85F52,North Bougainville,Rotokas,Papua New Guinea-Bougainville
Aiton [aio-2],24,94,#5C58B6,Tai-Kadai,Kam-Tai,India
Aitutaki [rar-2],-18.872,-159.782,#AA6451,Oceanic,Central Pacific,Cook Islands
Aiwoo [nfl],-10.5,166.5,#7F87A5,Oceanic,Te Motu,Solomons_East
Aizi [ahp],5.25,-4.5,#5064A2,Niger-Kongo,Atlantic-Congo,Côte d'Ivoire
Aja [ajg],7.06,1.66,#4C82C8,Niger-Kongo,Atlantic-Congo,Benin
Ajagbe [ajg-2],7.08,1.64,#538495,Niger-Kongo,Atlantic-Congo,Benin
Ajumbu [muc-2],6.55,10.27,#3A65C0,Niger-Kongo,Atlantic-Congo,Cameroon
Aka [axk],3.46,15.73,#315B9D,Ubangian,,Central African Republic
Aka [hru-2],27.2,92.9,#3491A1,Tibeto-Burman,Hrusish,India
Akabea [abj-2],12.38,92.78,#D17999,Andaman,,India_Andaman-Nicobars
Akan [aka],6.5,-1.25,#356A7E,Niger-Kongo,Atlantic-Congo,Ghana
Akaselem [aks],8.89,1.37,#5D5CA9,Niger-Kongo,Atlantic-Congo,Togo
Akawaio [ake],6,-59.5,#8B674F,Cariban,Venezuelan,Guyana
Ake [aik],8.6,8.76,#395EA1,Niger-Kongo,Atlantic-Congo,Nigeria
Akei [tsr],-15.49,166.75,#966E4F,Oceanic,Southern Oceanic,Vanuatu
Akha [ahk],20.3,99.6,#376090,Tibeto-Burman,Lolo-Burmese,Thailand
Akha_Akhe [ahk-8],21.916,100.465,#366BC3,Tibeto-Burman,Lolo-Burmese,Thailand
Akha_Buli [ahk-4],21.2,101.15,#3B68BF,Tibeto-Burman,Lolo-Burmese,Laos
Akha_Chicho [ahk-2],20.92,101.4,#3B67CC,Tibeto-Burman,Lolo-Burmese,Laos
Akha_Senchai [ahk-3],26.9,99,#306AB3,Tibeto-Burman,Lolo-Burmese,Myanmar
Akhvakh [akv],42.379,46.384,#17E27A,Nakh-Daghestanian,Avar-Andi,Russia
Akie [oki],-5.43,37.19,#7D59B2,Nilo-Saharan,Eastern Sudanic,Kenya
Aklanon [akl],11.58,122.33,#90775B,Malayo-Polynesian,Philippines,Philippines
Akosse [bss],5,9.7,#475A93,Niger-Kongo,Atlantic-Congo,Cameroon
Akoye [miw-2],-7.645,145.65,#604868,Trans New Guinea,Morobe-Eastern Highlands,Papua New Guinea
Akpes [ibe],7.5,5.96,#416990,Niger-Kongo,Atlantic-Congo,Nigeria
Akuntsu [aqz],-12.74,-60.8,#B56A59,Tupian,Tupari,Brazil
Akurio [ako],3.0132,-55.6434,#A5694D,Cariban,Guianan Carib,Suriname
Akwa [akw],-0.005,15.612,#4358A3,Niger-Kongo,Atlantic-Congo,Congo
Akweya [akf],7.33,8.02,#7787CC,Niger-Kongo,Atlantic-Congo,Nigeria
Akye-Gnan [ati-2],5.48,-4.09,#1D59AD,Niger-Kongo,Atlantic-Congo,Côte d'Ivoire
Alaaba [alw],7.31,38.09,#448078,Afro-Asiatic,Cushitic,Ethiopia
Alaala [nrz],-9,146.667,#9F6265,Oceanic,Western Oceanic,Papua New Guinea
Alaba-K'abeena [alw-2],7.39,38.17,#457895,Afro-Asiatic,Cushitic,Ethiopia
Alabama [akz],32.7,-86.1,#6B744D,Muskogean,Alabama-Koasati,USA
Alacalufe_Central [alc-2],-53.528,-70.9573,#667C4A,Alaculufan,,Chile
Alacalufe_Southern [alc-3],-55.2,-69.4,#688357,Alaculufan,,Chile
Alagwa [wbj],-4.64,35.72,#5BB782,Afro-Asiatic,Cushitic,Tanzania
Alamblak [amp],-4.667,143.25,#6E6D4C,Sepik,Sepik Hill,Papua New Guinea
Alangan-Mangyan [alj],13.1,121.02,#A4715D,Malayo-Polynesian,Philippines,Philippines
Alas_Batak [btz],2.64,98,#8B6576,Malayo-Polynesian,Batak-Barrier Islands,Indonesia-Sumatra
Alawa [alh],-15.75,134.333,#E98599,Macro-Gunwinygu,Marran,Australia
Albanian_Cham [als-4],39.6,20.8,#5383A5,Indo-European,Albanian,Greece
Albanian_Gheg [aln-2],42.43,20.73,#447395,Indo-European,Albanian,Albania
Albanian_Gheg_Kosovo [aln],42.58,21,#498071,Indo-European,Albanian,Kosovo
Albanian_Lab [als-5],40.17,19.83,#4D7DA8,Indo-European,Albanian,Albania
Albanian_Mandritsa [aln-5],41.38,26.13,#567BAB,Indo-European,Albanian,Bulgaria
Albanian_Tosk [als],40.5,20,#4782B0,Indo-European,Albanian,Albania
Albanian_Upper_Reka [aln-4],41.72,20.57,#488598,Indo-European,Albanian,Montenegro
Albanian_Vaccarizzo [als-6],39.58,16.43,#5593B2,Indo-European,Albanian,Italy
Albese [ita-14],44.7,8.04,#6862AC,Indo-European,Romance,Italy
Ale [gwd],5.38,37.27,#55935C,Afro-Asiatic,Cushitic,Ethiopia
Alekano [gah-2],-6,145.4,#565D5F,Trans New Guinea,Morobe-Eastern Highlands,Papua New Guinea
Aleut [ale],54,-166,#69B18A,Eskimo-Aleut,Aleut,USA-Alaska
Aleut_Atkan [ale-2],52,-174,#66B282,Eskimo-Aleut,Aleut,USA-Alaska
Aleut_Attuan [ale-3],52.85,172.9,#69B486,Eskimo-Aleut,Aleut,USA-Alaska
Aleut_Eastern [ale-4],54.75,-164,#68B382,Eskimo-Aleut,Aleut,USA-Alaska
Aleut_Unangas [ale-5],55.3,166,#A6A774,Eskimo-Aleut,Aleut,USA-Alaska
Algherese [cat-3],40.55,8.32,#7B7AAB,Indo-European,Romance,Italy-Sardinia
Algonquin [alq],46,-82,#58734B,Algic,Algonquian,Canada
Ali [ykm],-3.17,142.25,#BA756D,Oceanic,Western Oceanic,Papua New Guinea
Alladian [ald],5.17,-4.33,#3D6D99,Niger-Kongo,Atlantic-Congo,Côte d'Ivoire
Allentiac [qbt],-32,-66,#80885D,Huarpe,,Argentina
Alngith [aid],-12.5,142.17,#CD8AA7,Pama-Nyungan,Paman,Australia
Alo-Teqel [tql-2],-13.8,167.47,#A2726C,Oceanic,Southern Oceanic,Vanuatu
Alor [aol],-8.245,124.412,#866B60,Malayo-Polynesian,Timoric,Indonesia-NTT
Alsatian [gsw-2],48.32,7.44,#4D7196,Indo-European,Germanic,France
Alsea [aes],44.67,-123.93,#3ACE7D,Alsean,,USA
Altai [alt],51,87,#558F8F,Turkic,Common Turkic,Russia
Altai_Kumandy [atv],51.3,87.7,#61657E,Turkic,Common Turkic,Russia
Alumbis_Murut [mvv],4.799,115.496,#A87161,Malayo-Polynesian,North Borneo,Malaysia-Borneo
Alune [alp],-3.167,128.333,#7B7246,Malayo-Polynesian,Central Maluku,Indonesia-Maluku-north
Alur [alz],2.5,31.25,#5868B3,Nilo-Saharan,Eastern Sudanic,Uganda
Alutiiq [ems],58.015,-152.765,#63BD76,Eskimo-Aleut,Eskimo,USA-Alaska
Alyawarr [aly],-24.6,134.5,#F397A9,Pama-Nyungan,Arandic,Australia
Alyutor [alr],61,165,#B99A77,Chukotko-Kamchatkan,Main Chukotko-Kamchatkan,Russia
Ama [amm],-4.168,141.671,#59536D,Left May,,Papua New Guinea
Amahai_Soahuku [amq],-3.332,128.949,#A56F54,Malayo-Polynesian,Central Maluku,Indonesia-Maluku-north
Amahuaca [amc],-10.8,-73.5,#5A7A50,Panoan,Southern Panoan,Peru
Amaimon [ali],-5.193,145.325,#A57061,Trans New Guinea,Madang,Papua New Guinea
Amam [wer-2],-7.85,146.95,#A46454,Trans New Guinea,Oro-Wharton,Papua New Guinea
Amami_Ryukyu [ams],28,129,#407193,Japonic,Ryukyuan,Japan-Ryukyu
Amanab [amn],-3.5,141.167,#8C5B62,Trans New Guinea,Border,Papua New Guinea
Amanuban [aoz-2],-9.82,124.47,#7E6C43,Malayo-Polynesian,Timoric,Indonesia-NTT
Amanutun [aoz-4],-9.69,124.83,#82784D,Malayo-Polynesian,Timoric,Indonesia-NTT
Amara [aie],-5.533,148.667,#A95F74,Oceanic,Western Oceanic,Papua New Guinea-Bismarcks
Amarakaeri [amr-2],-12.6938,-70.3235,#8D6B55,Harakmbet,Harakmbut,Peru
Amarasi [aaz],-10.08,124.33,#7F7148,Malayo-Polynesian,Timoric,Indonesia-NTT
Amba_Nembao [utp-2],-11.27,166.48,#736A6F,Oceanic,Te Motu,Solomons_East
Ambae_West [omb],-15.5,167.75,#9C7363,Oceanic,Southern Oceanic,Vanuatu
Ambai [amk],-1.917,136.533,#786649,Malayo-Polynesian,Eastern Malayo-Polynesian,Indonesia-Papua
Ambel [xmt-2],-0.05,130.7,#805D6A,Malayo-Polynesian,Eastern Malayo-Polynesian,Indonesia-Papua
Ambelau [mhs-4],-3.89,127.205,#7F5A81,Malayo-Polynesian,Central Maluku,Indonesia-Maluku-north
Ambele [ael],5.94,9.62,#4762AF,Niger-Kongo,Atlantic-Congo,Cameroon
Amblong [alm],-15.497,166.926,#866955,Oceanic,Southern Oceanic,Vanuatu
Ambonese Malay [abs],-3.7,128.2,#AA6D80,Malayo-Polynesian,Malayo-Sumbawan,Indonesia-Maluku-north
Ambrym_Southeast [tvk-2],-16.33,168.08,#756864,Oceanic,Southern Oceanic,Vanuatu
Ambulas [abt],-3.75,143.083,#A4657B,Ndu,Nuclear Ndu,Papua New Guinea
Amdo [adx],36,94,#5B90B8,Tibeto-Burman,Bodic,China
Ameland [frs-3],53.45,5.77,#4B6084,Indo-European,Germanic,Netherlands
Amele_Haija [aey],-5.25,145.75,#6F6846,Trans New Guinea,Madang,Papua New Guinea
Amele_Huar [aey-3],-5.287,145.718,#83674C,Trans New Guinea,Madang,Papua New Guinea
Amele_Jagahala [aey-2],-5.264,145.642,#796848,Trans New Guinea,Madang,Papua New Guinea
Amfo'an [aoz-3],-9.45,123.9,#6F7745,Malayo-Polynesian,Timoric,Indonesia-NTT
Amharic [amh],10,38,#4E8777,Afro-Asiatic,Semitic,Ethiopia
Ami [amy],-14,130,#DB7578,Western Daly,Maranunggu-Ame-Manda,Australia
Amis [ami],23.333,121.333,#8F8F56,Austronesian,East Formosan,Taiwan
Amo [amo],10.33,8.67,#4C669A,Niger-Kongo,Atlantic-Congo,Nigeria
Amonap / Apalakiri / Matipu [mzo],-12.05,-53.4,#8B7462,Cariban,Nahukwa,Brazil
Amoy [nan],24.5,118,#2B4F86,Tibeto-Burman,Sinitic,China
Ampale [apz],-6.753,146.107,#5F5C8B,Trans New Guinea,Morobe-Eastern Highlands,Papua New Guinea
Ampibabo [law-2],-0.46,120.06,#B4716A,Malayo-Polynesian,Celebic,Indonesia-Sulawesi
Amu [swh-9],-2.27,40.9,#6191A3,Niger-Kongo,Atlantic-Congo,Tanzania
Amuesha [ame],-10,-73,#7EAF8E,Arawak,Western Maipuran,Peru
Amundava [adw],-10.9942,-63.0642,#9B6456,Tupian,Tupi-Guarani,Brazil
Amurdak [amg],-12.022,132.892,#FC8B96,Iwaidjan,Amurdak,Australia
Amuzgo [amu],16.83,-98,#3867C0,Otomanguean,Eastern Otomanguean,Mexico
Amuzgo_Huixtepec [amu-2],16.5,-98.1,#4C6E6A,Otomanguean,Eastern Otomanguean,Mexico
Amuzgo_San_Pedro [azg],16.85,-98,#4A5E73,Otomanguean,Eastern Otomanguean,Mexico
Amuzgo_Xochistlahuaca [amu-3],16.79,-98.24,#496DB4,Otomanguean,Eastern Otomanguean,Mexico
Amwi [aml],25.209,92.068,#45619E,Austroasiatic,Khasi-Palaung,India
Anaguta [nar],9.964,8.731,#5A71A3,Niger-Kongo,Atlantic-Congo,Nigeria
Anakalang [akg],-9.67,119.67,#A36A77,Malayo-Polynesian,Flores-Sawu-Sumba,Indonesia-NTT
Anal [anm],24.33,93.99,#597BBD,Tibeto-Burman,Kuki-Chin-Naga,India
Anamuxra [imi],-4.667,145,#737B48,Trans New Guinea,Madang,Papua New Guinea
Andalusian [spa-4],37.5,-3.6,#6E635D,Indo-European,Romance,Spain
Andi [ani],42.79,46.27,#31A681,Nakh-Daghestanian,Avar-Andi,Russia
Andi_Tad-Magitil [ani-2],42.75,46.25,#2FA27E,Nakh-Daghestanian,Avar-Andi,Russia
Andoa [anb],-2.9,-76.4051,#7CA168,Zaparoan,Iquito-Arabela,Peru
Andoké [ano],0,-72,#465556,Andoké,,Colombia
Anejom [aty],-20.25,169.833,#82899B,Oceanic,Southern Oceanic,Vanuatu
Anem [anz],-5.667,149,#9B5C7B,Anem,,Papua New Guinea-Bismarcks
Aneme_Wake [aby],-9.733,148.52,#785B3F,Southeast Papuan,Owen Stanley Ranges,Papua New Guinea
Anfillo [myo],8.57,34.65,#508265,Afro-Asiatic,Omotic,Ethiopia
Anfu [gan-21],27.38,114.62,#3A54C6,Tibeto-Burman,Sinitic,China
Angaatiha [agm],-7.22,146.25,#BA666F,Trans New Guinea,Morobe-Eastern Highlands,Papua New Guinea
Angal [age],-6,143.6,#766360,Trans New Guinea,Engan,Papua New Guinea
Angal_Heneng [akh],-6.13,143.42,#81585A,Trans New Guinea,Engan,Papua New Guinea
Angali [pes-2],29.75,50.96,#4A9373,Indo-European,Indo-Iranian,Iran
Angami [njm],25.667,94.5,#6389D1,Tibeto-Burman,Kuki-Chin-Naga,India
Angas [anc],9.75,8.75,#3E72A9,Afro-Asiatic,Chadic,Nigeria
Anggor [agg],-3.667,141.167,#6D5F5E,Trans New Guinea,Border,Papua New Guinea
Anggreso [kwe-2],-2.17,138.25,#92754A,Tor-Kwerba,West Foya Range,Indonesia-Papua
Angkamuthi [avm],-11.5,142.25,#CD8399,Pama-Nyungan,Paman,Australia
Angkola_Batak [akb],1.518,99.531,#AF6F73,Malayo-Polynesian,Batak-Barrier Islands,Indonesia-Sumatra
Anguthimri [awg],-12.333,141.833,#AF7CBA,Pama-Nyungan,Paman,Australia
Ani_Phowa [ypn],23.6,103.3,#1786B7,Tibeto-Burman,Lolo-Burmese,China
Anib [kni],9.55,8.6,#2C61A3,Niger-Kongo,Atlantic-Congo,Nigeria
Anii [blo],9.003,1.669,#5365BE,Niger-Kongo,Atlantic-Congo,Benin
Anindilyagwa [aoi],-14,136.5,#EC9CA7,Macro-Gunwinygu,East Arnhem,Australia
Anindilyagwa_East [aoi-2],-13.86,136.81,#E193AF,Macro-Gunwinygu,East Arnhem,Australia
Aniwa [fut-2],-19.256,169.6,#95624D,Oceanic,Central Pacific,Vanuatu
Anjam [boj],-5.441,145.737,#AD7182,Trans New Guinea,Madang,Papua New Guinea
Ankave [aak],-7.137,145.744,#A56653,Trans New Guinea,Morobe-Eastern Highlands,Papua New Guinea
Anlong [pcc-6],25.1,105.44,#457FC9,Tai-Kadai,Kam-Tai,China
Anmatyerr_East [amx],-22.256,131.5,#FA8AA0,Pama-Nyungan,Arandic,Australia
Anmatyerr_West [amx-2],-21,135,#FF9390,Pama-Nyungan,Arandic,Australia
Anong [nun],27.2,98.8,#4D7FDF,Tibeto-Burman,Nungish,China
Ansus [and],-1.73,135.806,#856648,Malayo-Polynesian,Eastern Malayo-Polynesian,Indonesia-Papua
Anta [tci-3],-8.65,141.52,#656F64,South New Guinea,East Morehead,Indonesia-Papua
Antakarinya [ant],-27.11,134.85,#F8858A,Pama-Nyungan,Wati,Australia
Antakirinya [ant-2],-27.13,134.83,#F3878B,Pama-Nyungan,Wati,Australia
Antekerrepinhe [adg],-22.52,137.34,#EE92B0,Pama-Nyungan,Arandic,Australia
Antioquian [xxx-107],7,-73,#7B644F,Chibchan,Core Chibchan,Colombia
Antwerps [nld-2],51.22,4.4,#4A7393,Indo-European,Germanic,Belgium
Añú [pbg],11,-71.62,#8A6550,Arawak,Northern Maipuran,Venezuela
Anuak [anu],7.18,34.097,#B46395,Nilo-Saharan,Eastern Sudanic,South Sudan
Anufo [cko],10.218,0.33,#67589F,Niger-Kongo,Atlantic-Congo,Ghana
Anus [auq],-2.13,139.51,#895F58,Oceanic,Western Oceanic,Indonesia-Papua
Anuta [aud],-11.611,169.85,#9C5E4C,Oceanic,Central Pacific,Solomons_East
Anyi [gan-18],28.84,115.6,#445ABE,Tibeto-Burman,Sinitic,China
Anyin [any],5.9,-2.9,#45596D,Niger-Kongo,Atlantic-Congo,Côte d'Ivoire
Anywa [anu-2],7.3,33,#B265AA,Nilo-Saharan,Eastern Sudanic,South Sudan
Aoheng [pni],1.025,114.175,#9E5F70,Malayo-Polynesian,North Borneo,Indonesia-Kalimantan
Aore [aor],-15.577,167.181,#9A686A,Oceanic,Southern Oceanic,Vanuatu
Apache_Western [apw],33.9,-109.55,#299772,Dene-Yeniseic,Na-Dene,USA
Apalachee [xap],30.04,-84.17,#878047,Muskogean,Alabama-Koasati,USA
Apalai [apy],0,-54,#7D6C45,Cariban,Apalai,Brazil
Apali [ena],-5.088,145.017,#77745B,Trans New Guinea,Madang,Papua New Guinea
Apatani [apt],27.4,93.8,#625EAE,Tibeto-Burman,Macro-Tani,India
Apiaká [api],-7.9484,-57.7365,#996156,Tupian,Tupi-Guarani,Brazil
Apinaye [apn],-6.25,-48,#73558B,Macro-Je,Je,Brazil
Apma [app],-15.775,168.158,#77686A,Oceanic,Southern Oceanic,Vanuatu
Apma_Suru Kavian [app-2],-15.61,168.14,#746876,Oceanic,Southern Oceanic,Vanuatu
Apurinã [apu],-7.26,-64.8,#84704F,Arawak,Southern Maipuran,Brazil
Apurinã-2 [apu-2],-5.63,-63.17,#8C7753,Arawak,Southern Maipuran,Brazil
Aputai [apx],-7.888,126.505,#86704C,Malayo-Polynesian,Timoric,Indonesia-NTT
Arabana [ard],-28,137,#FB8E9A,Pama-Nyungan,Karnic,Australia
Arabela [arl],-2,-75.17,#77714C,Zaparoan,Iquito-Arabela,Peru
Arabic [arb],30,42,#60B15C,Afro-Asiatic,Semitic,Saudi Arabia
Arabic_Abéché [ayl-4],13.83,20.83,#5DB78A,Afro-Asiatic,Semitic,Chad
Arabic_Abha [acw-2],18.22,42.51,#489F5A,Afro-Asiatic,Semitic,Saudi Arabia
Arabic_Afghanistan [acm-3],36.7,67.12,#649755,Afro-Asiatic,Semitic,Afghanistan
Arabic_Algerian [arq],36.7,3.1,#969958,Afro-Asiatic,Semitic,Algeria
Arabic_Andalusian [xaa],35.767,-5.8,#52B06B,Afro-Asiatic,Semitic,Spain
Arabic_Attuwair [acw-3],29.9,40.1,#59BB74,Afro-Asiatic,Semitic,Saudi Arabia
Arabic_Baghdad [acm-4],33.33,44.38,#5AA454,Afro-Asiatic,Semitic,Iran
Arabic_Bareqi [acw-7],18.93,41.94,#60AC57,Afro-Asiatic,Semitic,Saudi Arabia
Arabic_Basra [acm],30.5,47.825,#4BB86F,Afro-Asiatic,Semitic,Iraq
Arabic_Bedouin_Sinai_Ǧbāliyyah [avl-2],28.557,33.943,#45A05D,Afro-Asiatic,Semitic,Egypt
Arabic_Bedouin_Sinai_Mzēnah [avl],28.135,34.1,#45A25D,Afro-Asiatic,Semitic,Egypt
Arabic_Bedouin_Sinai_Taṛābīn [avl-3],31,34.2,#469D5C,Afro-Asiatic,Semitic,Egypt
Arabic_Bukhara [abh],39.76,64.42,#599E63,Afro-Asiatic,Semitic,Uzbekistan
Arabic_Chad [shu-3],14,19,#5E9268,Afro-Asiatic,Semitic,Chad
Arabic_Chowa [shu-4],12.5,14.5,#5D8D60,Afro-Asiatic,Semitic,Nigeria
Arabic_Coastal-Dhofari [acx],20.7,58.2,#4A9D58,Afro-Asiatic,Semitic,Oman
Arabic_Cypriot [acy],34.343,33.011,#4F9163,Afro-Asiatic,Semitic,Cyprus
Arabic_Egyptian [arz],30,30,#4F9355,Afro-Asiatic,Semitic,Egypt
Arabic_Faifa [jye-3],17.25,43.1,#4EA665,Afro-Asiatic,Semitic,Yemen
Arabic_Fezzan [ayl-3],26.33,13.43,#63C16E,Afro-Asiatic,Semitic,Libya
Arabic_Gulf [afb],24,54,#49A665,Afro-Asiatic,Semitic,United Arab Emirates
Arabic_Hadhrami_coast [jye-5],14.95,50.34,#63A154,Afro-Asiatic,Semitic,Yemen
Arabic_Hadhrami_wadi [jye-6],16.05,49,#5EA355,Afro-Asiatic,Semitic,Yemen
Arabic_Harb [acw],25.81,42.87,#37A26E,Afro-Asiatic,Semitic,Saudi Arabia
Arabic_Hassaniya [mey],16.6,-7.25,#65B374,Afro-Asiatic,Semitic,Mauritania
Arabic_Hejazi [acw-4],21.543,41.173,#44995C,Afro-Asiatic,Semitic,Saudi Arabia
Arabic_Hejazi_Al'Ula [acw-5],26.627,37.917,#479759,Afro-Asiatic,Semitic,Saudi Arabia
Arabic_Hejazi_Badr [acw-8],23.78,38.79,#509559,Afro-Asiatic,Semitic,Saudi Arabia
Arabic_Ilbahariyya [arz-2],28.35,28.93,#57A557,Afro-Asiatic,Semitic,Egypt
Arabic_Jijel [ary-3],36.821,5.75,#9A9958,Afro-Asiatic,Semitic,Algeria
Arabic_Jordanian [ajp-5],32,36,#3CA25F,Afro-Asiatic,Semitic,Jordan
Arabic_Judeo-Tunisian [ajt],33.87,10.85,#50AF71,Afro-Asiatic,Semitic,Tunisia
Arabic_Khawetna [arb-3],36.42,41.225,#54B56F,Afro-Asiatic,Semitic,Turkey
Arabic_Khuzestan [acm-2],31.33,48.69,#4AA361,Afro-Asiatic,Semitic,Iran
Arabic_Lebanese [apc-2],33.883,35.502,#80764D,Afro-Asiatic,Semitic,Lebanon
Arabic_Levantine_al-Karak [ajp-10],31.2,35.7,#4A945C,Afro-Asiatic,Semitic,Jordan
Arabic_Levantine_Amman [ajp-9],31.9,35.9,#4A945C,Afro-Asiatic,Semitic,Jordan
Arabic_Levantine_Homs [ajp-7],34.7,36.7,#4D9459,Afro-Asiatic,Semitic,Syria
Arabic_Levantine_Jerusalem [ajp-8],31.8,35.2,#518E55,Afro-Asiatic,Semitic,Israel
Arabic_Levantine_Northern_coast [ajp-11],34.9,35.9,#5C8F53,Afro-Asiatic,Semitic,Syria
Arabic_Levantine_Northern_inland [ajp-12],33.1,35.7,#539257,Afro-Asiatic,Semitic,Syria
Arabic_Levantine_Outer-south [ajp-14],31.3,34.6,#659254,Afro-Asiatic,Semitic,Israel
Arabic_Levantine_Southern [ajp-13],31.7,34.9,#639E59,Afro-Asiatic,Semitic,Israel
Arabic_Libyan [ayl],32,20.25,#3AA162,Afro-Asiatic,Semitic,Libya
Arabic_Libyan_Western [ayl-2],32.5,13,#53A65A,Afro-Asiatic,Semitic,Libya
Arabic_Mardin [apc-3],37.363,40.91,#45A466,Afro-Asiatic,Semitic,Turkey
Arabic_Mauritanian [ary-2],20.92,-11.62,#9BA77E,Afro-Asiatic,Semitic,Mauritania
Arabic_Mesopotamian [acm-5],33,44,#55A755,Afro-Asiatic,Semitic,Israel
Arabic_Moroccan [ary],34,-7,#62B45F,Afro-Asiatic,Semitic,Morocco
Arabic_Muscat [acx-2],23.63,58.55,#47A95C,Afro-Asiatic,Semitic,Oman
Arabic_Najdi [acw-6],23,45.5,#519F58,Afro-Asiatic,Semitic,Saudi Arabia
Arabic_Negev [ajp-15],31.386,34.758,#50AF60,Afro-Asiatic,Semitic,Syria
Arabic_Omani [acx-3],23.589,58.556,#419666,Afro-Asiatic,Semitic,Oman
Arabic_Omani_Shawawi [acx-4],22.92,57.79,#549E5C,Afro-Asiatic,Semitic,Syria
Arabic_Oran [arq-2],35.7,-0.63,#53AA64,Afro-Asiatic,Semitic,Algeria
Arabic_Palestinian_Urban [ajp-3],31.52,34.45,#499662,Afro-Asiatic,Semitic,Palestine
Arabic_Qatari [afb-3],25.3,51.52,#51AA69,Afro-Asiatic,Semitic,Qatar
Arabic_Sa'idi [aec],25,32.75,#70A04F,Afro-Asiatic,Semitic,Egypt
Arabic_Sason [arb-2],38.333,41.42,#51A176,Afro-Asiatic,Semitic,Turkey
Arabic_Saudi [ars],24.48,40,#4B9A58,Afro-Asiatic,Semitic,Saudi Arabia
Arabic_Sudanese [apd-2],15.5,32.56,#3C9A69,Afro-Asiatic,Semitic,Sudan
Arabic_Syrian [apc],33,37,#4DAF70,Afro-Asiatic,Semitic,Syria
Arabic_Ta'izzi_Adeni [acq],11.502,43,#75B25A,Afro-Asiatic,Semitic,Djibouti
Arabic_Tillo [arb-4],37.95,42.013,#4CB981,Afro-Asiatic,Semitic,Turkey
Arabic_Traras-Msirda [ary-4],35.18,-1.65,#989455,Afro-Asiatic,Semitic,Algeria
Arabic_Tunisian [aeb],36,10,#4AB371,Afro-Asiatic,Semitic,Tunisia
Arabic_Wadi Mousa [ajp-2],30.32,35.48,#539355,Afro-Asiatic,Semitic,Jordan
Arabic_Yemeni [jye-2],14,47,#6EAE53,Afro-Asiatic,Semitic,Yemen
Arabic_Yemeni_Hadhrami [ayh],16.67,49.5,#65A452,Afro-Asiatic,Semitic,Yemen
Arabic_Yemeni_Tihamiyya [arb-6],13.083,43.833,#7CAC51,Afro-Asiatic,Semitic,Yemen
Arabic_Yemeni_Zabidi [acq-2],14.2,43.317,#63AB57,Afro-Asiatic,Semitic,Yemen
Arabic; North Israel Bedouin [ajp-4],32.83,35.33,#3BB67C,Afro-Asiatic,Semitic,Israel
Aragonese [arg],41,-1,#997B61,Indo-European,Romance,Spain
Araki [akr],-15.629,166.957,#A97061,Oceanic,Southern Oceanic,Vanuatu
Arakmbut [hug],-13.27,-71.21,#A65D5B,Harakmbet,Harakmbut,Peru
Aralle-Tabulahan [atq],-2.756,119.203,#9A6857,Malayo-Polynesian,Greater South Sulawesi,Indonesia-Sulawesi
Arammba [stk],-8.25,141.5,#49638C,South New Guinea,East Morehead,Papua New Guinea
Arandai [jbj],-2.17,133,#7F6954,Trans New Guinea,South Birds Head,Indonesia-Papua
Aranese [oci-4],42.7,0.795,#49828A,Indo-European,Romance,Spain
Araona [aro],-12.333,-67.75,#69824D,Tacanan,Takanik-Chamik,Bolivia
Arapaho [arp],39.565,-105.345,#54713E,Algic,Algonquian,USA
Arapesh_Muhiang [aoj],-3.564,142.9,#6D854E,Torricelli,Kombio-Arapesh,Papua New Guinea
Arara_do_Acre [adc],-8.841,-72.315,#6B7349,Panoan,Southern Panoan,Brazil
Arara_do_Mato_Grosso [axg],-9.5,-60,#64617D,Arara_do_Mato_Grosso,,Brazil
Arara_do_Para [aap-2],-4.24,-53.34,#C36A64,Cariban,Pekodian,Brazil
Arára_Pará [aap],-4.2422,-53.3745,#C16F61,Cariban,Pekodian,Brazil
Araucanian lg [arn-2],-43,-73.5,#B88795,Araucanian,,Chile
Arawak [arw],5.64,-56.92,#826654,Arawak,Northern Maipuran,Guyana
Araweté [awt],-4.142017,-52.416914,#926D48,Tupian,Tupi-Guarani,Brazil
Arbanasi [aln-3],44.11,15.23,#426F8F,Indo-European,Albanian,Croatia
Arbëresh [als-2],37.995,13.283,#439AA5,Indo-European,Albanian,Italy
Arbëresh Kundisa [als-10],37.73,13.18,#4E9B99,Indo-European,Albanian,Italy
Arbëresh_Pianese [als-8],37.8,12.8,#50999D,Indo-European,Albanian,Italy
Arbore [arv],4.92,36.8,#447397,Afro-Asiatic,Cushitic,Ethiopia
Archi [aqc],42.07,46.86,#22C782,Nakh-Daghestanian,Lezgic,Russia
Arctic Bay_Inuit [ikt],73.036,-85.15,#95884B,Eskimo-Aleut,Eskimo,Canada
Are [mwc],-9.67,150,#8A724B,Oceanic,Western Oceanic,Papua New Guinea
Are'are [alu],-9.342,161.203,#8D6946,Oceanic,Southeast Solomonic,Solomons
Arem [aem],18.15,105.5,#3D69CC,Austroasiatic,Vietic,Laos
Argobba [agj],10.66,39.76,#458975,Afro-Asiatic,Semitic,Ethiopia
Arguni [agf],-2.667,132.5,#956898,Malayo-Polynesian,Eastern Malayo-Polynesian,Indonesia-Papua
Ari [aac],-7.916,142.34,#895E4E,Papuan Gulf,Gogodala-Suki,Papua New Guinea
Aribwatsa [laz],-6.667,146.917,#8B7060,Oceanic,Western Oceanic,Papua New Guinea
Aribwaungg [ylu],-6.592,146.874,#497A85,Oceanic,Western Oceanic,Papua New Guinea
Arifama-Miniafia [aai],-9.142,149.279,#7E6243,Oceanic,Western Oceanic,Papua New Guinea
Arikapu [ark],-13,-62.5,#7C6254,Macro-Je,Jabutí,Brazil
Arikara [ari],40,-97,#70733C,Caddoan,Northern Caddoan,USA
Aringa [luc],3,31,#4361B5,Nilo-Saharan,Central Sudanic,Uganda
Aritinngithigh [rrt],-13,141.67,#D67D93,Pama-Nyungan,Paman,Australia
Arizona Tewa [tew],35.8,-110.4,#3E6C71,Kiowa-Tanoan,Tewa,USA
Armenian [hye],40,45,#409271,Indo-European,Armenian,Armenia
Armenian_Agulis [hye-2],38.95,45.98,#3B9172,Indo-European,Armenian,Azerbaijan
Armenian_Aslanberg [hyw-7],41.2,30.5,#3D8466,Indo-European,Armenian,Turkey
Armenian_Karabakh [hye-4],39.76,46.75,#30938A,Indo-European,Armenian,Azerbaijan
Armenian_Karin [hye-5],40.79,43.85,#3C8A72,Indo-European,Armenian,Azerbaijan
Armenian_Kharpert [hyw-6],38.67,39.22,#3B9172,Indo-European,Armenian,Armenia
Armenian_Khodorjur [hyw-3],40.73,41.2,#358770,Indo-European,Armenian,Turkey
Armenian_Malatya [hyw-5],38.35,38.3,#377D6B,Indo-European,Armenian,Turkey
Armenian_Sebastia [hyw-4],39.75,37.02,#388A73,Indo-European,Armenian,Armenia
Armenian_Van [hyw-8],38.49,43.38,#468F67,Indo-European,Armenian,Turkey
Armenian_Western [hyw],40,40,#377C6B,Indo-European,Armenian,Turkey
Armenian_Yerevan [hye-3],40.18,44.52,#388D6D,Indo-European,Armenian,Armenia
Aromanian [rup],42,23,#408569,Indo-European,Romance,Bulgaria
Aromanian-2 [rup-2],39.77,21.1,#4D8698,Indo-European,Romance,Greece
Arop-Lokep [apr],-5.333,147.083,#9E6166,Oceanic,Western Oceanic,Papua New Guinea
Arosi [aia],-10.333,161.5,#92715C,Oceanic,Southeast Solomonic,Solomons
Arpitan [frp-3],45.17,5.72,#5973A3,Indo-European,Romance,France
Arrernte_Central [are],-22.85,133.7,#F79B9D,Pama-Nyungan,Arandic,Australia
Arrernte_Eastern [are-2],-23.292,134.445,#F28DAE,Pama-Nyungan,Arandic,Australia
Arrernte_Mparntwe [aer],-24,136,#F194A6,Pama-Nyungan,Arandic,Australia
Arrernte_Pertame [xxx-57],-24.5,132,#F58EAE,Pama-Nyungan,Arandic,Australia
Arta [atz],16.42,121.66,#A27664,Malayo-Polynesian,Philippines,Philippines
Arutani [atx],4.06,-62.88,#847046,Arutani–Sape,,Brazil
Arvanitika [als-3],38.42,23.08,#4E82AB,Indo-European,Albanian,Greece
As [asz],-0.722,131.787,#826759,Malayo-Polynesian,Eastern Malayo-Polynesian,Indonesia-Papua
Asaro_Upper [aso],-5.967,145.292,#53695F,Trans New Guinea,Morobe-Eastern Highlands,Papua New Guinea
Asharon [acz],10.8,30.3,#AB77A7,Talodi-Heiban,Talodi,Sudan
Ashe [ahs],9.37,7.39,#4F63A3,Niger-Kongo,Atlantic-Congo,Nigeria
Asheninka_Apurucayali [cpc],-10.018,-74.793,#978655,Arawak,Southern Maipuran,Peru
Ashéninka_Perené [prq],-10.8734,-75.245,#8D8559,Arawak,Southern Maipuran,Peru
Ashéninka_Pichis [cpu],-9.9833,-74.9833,#95936F,Arawak,Southern Maipuran,Peru
Ashéninka_Ucayali-Yurúa [cpb],-10.1619,-74.0234,#699C6C,Arawak,Southern Maipuran,Brazil
Ashkun [ask],34.84,70.37,#B9868E,Indo-European,Indo-Iranian,Afghanistan
Asho [csh-3],22.91,93.68,#4A71C7,Tibeto-Burman,Kuki-Chin-Naga,Myanmar
Ashuku [nza-2],6.98,10.71,#495B9B,Niger-Kongo,Atlantic-Congo,Nigeria
Ashuslay [cag-2],-23.5,-60.5,#469874,Matacoan,Mataguayo I,Paraguay
Asi [bno-2],12.95,122.08,#B17857,Malayo-Polynesian,Philippines,Philippines
Asienara [asi],-3.75,133.33,#7F6948,Trans New Guinea,Asmat-Kamoro,Indonesia-Papua
Asilulu [asl],-3.67,127.95,#966E47,Malayo-Polynesian,Central Maluku,Indonesia-Maluku-north
Asmat [asc],-5.3,138.3,#836546,Trans New Guinea,Asmat-Kamoro,Indonesia-Papua
Asmat_North [nks],-5,138.5,#946745,Trans New Guinea,Asmat-Kamoro,Indonesia-Papua
Assamese [asm],26.5,93,#58689A,Indo-European,Indo-Iranian,India
Assamese_Dudhnoi [asm-10],26,90.8,#5D729B,Indo-European,Indo-Iranian,India
Assiniboine [asb],49,-100,#3A8A52,Siouan,Western Siouan,Canada
Asturian [ast],43.33,-6,#A17F6B,Indo-European,Romance,Spain
Asumboa [aua],-11.296,166.496,#A87C8B,Oceanic,Te Motu,Solomons_East
Asur [asr-2],21.57,83.46,#9D86A2,Austroasiatic,Munda,India
Asuri [asr],23.04,84.54,#A67F6C,Austroasiatic,Munda,India
Asurini [asu],-3.3,-49.3,#8B7156,Tupian,Tupi-Guarani,Brazil
Asuriní_Tocantins [asu-2],-3.3,-50,#8C6946,Tupian,Tupi-Guarani,Brazil
Asuriní_Xingú [asn],-4.13,-52.32,#867059,Tupian,Tupi-Guarani,Brazil
Ata [ata],-5.667,151,#926F4F,Ata,,Papua New Guinea-Bismarcks
Ata_Manobo [atd],7.845,125.506,#A26D5A,Malayo-Polynesian,Philippines,Philippines
Atacameño [kuz],-23,-69,#529E5F,Atacameño,,Chile
Atadei [slp-3],-8.46,123.555,#A76473,Malayo-Polynesian,Timoric,Indonesia-NTT
Atakapa [aqp],30,-93,#758359,Atakapa,,USA
Atamanu [jal],-3.396,129.313,#9A685E,Malayo-Polynesian,Central Maluku,Indonesia-Maluku-north
Atampaya [amz],-11.33,142.5,#CC8397,Pama-Nyungan,Paman,Australia
Atayal [tay],24.5,121,#749364,Austronesian,Atayalic,Taiwan
Atchin [upv],-16,167.333,#487194,Oceanic,Southern Oceanic,Vanuatu
Ateso [teo],1.915,33.955,#5B69A7,Nilo-Saharan,Eastern Sudanic,Uganda
Athpare [aph],26.75,87.33,#747492,Tibeto-Burman,Kiranti,Nepal
Atikamekw [atj],48,-74,#8E7441,Algic,Algonquian,Canada
Atong [aot],25.5,90.5,#836E8A,Tibeto-Burman,Bodo-Garo,India
Atsawaka [atc],-14.17,-69.5,#6D714B,Panoan,Southern Panoan,Peru
Atsi [atb-2],28,93.5,#4C7EC3,Tibeto-Burman,Lolo-Burmese,India
Atsugewi [atw],40.75,-121,#5EB471,Palaihnihan,,USA
Atta_Pamplona-1 [att-2],18.46,121.341,#A97450,Malayo-Polynesian,Philippines,Philippines
Atta_Pamplona-2 [att],18.458,121.342,#B2805B,Malayo-Polynesian,Philippines,Philippines
Attie [ati],6,-3.82,#275EB0,Niger-Kongo,Atlantic-Congo,Côte d'Ivoire
Au [avt],-3.5,142.083,#906D4A,Torricelli,Central Torricelli,Papua New Guinea
Auhelawa [kud],-10.284,151.02,#6D8151,Oceanic,Western Oceanic,Papua New Guinea
Aujila [auj],29.23,21.18,#46A45D,Afro-Asiatic,Berber,Libya
Aulua [aul],-16.33,167.694,#8580A5,Oceanic,Southern Oceanic,Vanuatu
Aurland [nob-3],60.87,7.23,#426AB3,Indo-European,Germanic,Norway
Austral [aut],-23.377,-149.498,#7E684D,Oceanic,Central Pacific,French Polynesia
Auyana [auy],-6.523,145.708,#6A5760,Trans New Guinea,Morobe-Eastern Highlands,Papua New Guinea
Auye [auu],-3.495,136.002,#7B5259,Trans New Guinea,Western Trans New Guinea,Indonesia-Papua
Avá-Canoeiro [avv],-13.166403,-47.928611,#BD6D60,Tupian,Tupi-Guarani,Brazil
Avar [ava],42.54,46.7,#3AAC69,Nakh-Daghestanian,Avar-Andi,Russia
Avatime [avn],6.85,0.44,#2A71A8,Niger-Kongo,Atlantic-Congo,Ghana
Avava [tmb],-16.224,167.523,#927484,Oceanic,Southern Oceanic,Vanuatu
Aveteian [dix],-16.443,167.43,#9F6C87,Oceanic,Southern Oceanic,Vanuatu
Avikam [avi],5.16,-5.25,#2A576A,Niger-Kongo,Atlantic-Congo,Côte d'Ivoire
Avok [xxx-59],-16.53,167.7,#5178A6,Oceanic,Southern Oceanic,Vanuatu
Avok_Maxbaxo [xxx-103],-16.496,167.665,#6383A7,Oceanic,Southern Oceanic,Vanuatu
Avokaya [avu],5,30.2,#4461BB,Nilo-Saharan,Central Sudanic,South Sudan
Awa [awb],-6.75,145.667,#754B65,Trans New Guinea,Morobe-Eastern Highlands,Papua New Guinea
Awa Pit [kwi],0.75,-78.5,#528B76,Barbacoan,Northern Barbacoan,Ecuador
Awabakal [awk],-33.05,151.55,#DD7B70,Pama-Nyungan,Yuin-Kuri,Australia
Awad Bing [bcu],-5.584,146.349,#996A5E,Oceanic,Western Oceanic,Papua New Guinea
Awadhi [awa],27.5,81.5,#7F99B3,Indo-European,Indo-Iranian,India
Awak [awo],9.86,11.33,#3E5BBB,Niger-Kongo,Atlantic-Congo,Nigeria
Awar [aya],-4,144.625,#576083,Lower Sepik-Ramu,Ramu,Papua New Guinea
Awara [awx],-6.094,146.441,#6B7564,Trans New Guinea,Morobe-Eastern Highlands,Papua New Guinea
Awbono [awh],-5.119,139.201,#69674D,Bayono-Awbono,,Indonesia-Papua
Aweer [orm],-1.717,40.967,#BB767D,Afro-Asiatic,Cushitic,Kenya
Awera [awr],-2.677,136.242,#9C6042,Lakes Plains,Western Lakes Plains,Indonesia-Papua
Awetí [awe],-12.926,-54.277,#BF6C66,Tupian,Aweti,Brazil
Awiakay [afp],-4.672,143.712,#BE7179,Arafundi,,Papua New Guinea
Awin [awi],-5.833,142.5,#705A70,Trans New Guinea,Awin-Pa,Papua New Guinea
Awing [azo],5.88,10.24,#4F5B71,Niger-Kongo,Atlantic-Congo,Cameroon
Awiya [som-2],10.851,36.892,#4F77B9,Afro-Asiatic,Cushitic,Ethiopia
Awngi [awn],10.83,36.67,#4095A2,Afro-Asiatic,Cushitic,Ethiopia
Awngthim [gwm],-12.54,141.98,#B285AD,Pama-Nyungan,Paman,Australia
Awtuw [kmn],-3.5,141.917,#C86175,Sepik,Ram,Papua New Guinea
Awu Alaya [typ-2],-14.83,143.32,#B379A7,Pama-Nyungan,Paman,Australia
Awutu [afu],5.42,-0.6,#5C6AC4,Niger-Kongo,Atlantic-Congo,Ghana
Awyi [auw],-3,140.75,#87625B,Trans New Guinea,Border,Papua New Guinea
Axi [yix-2],24.4,103.44,#317BC1,Tibeto-Burman,Lolo-Burmese,China
Axininca [cpc-2],-9,-75,#829962,Arawak,Southern Maipuran,Peru
Ayapathu [ayd-2],-14.29,143.11,#DD7780,Pama-Nyungan,Paman,Australia
Ayere [aye],7.52,6.02,#486AA1,Niger-Kongo,Atlantic-Congo,Nigeria
Ayerrerenge [axe],-22.5,137.36,#F78A98,Pama-Nyungan,Arandic,Australia
Aymara [ayr],-16,-69.5,#8EA86E,Aymaran,Aymara,Peru
Aymara_Carangas [ayr-3],-18.45,-67.45,#9BA881,Aymaran,Aymara,Bolivia
Aymara_Chile [ayc],-19.15,-69.4,#97AC87,Aymaran,Aymara,Chile
Aymara_Muylaq' [ayr-2],-16.675,-70.712,#95AA6E,Aymaran,Aymara,Peru
Äynu [aib],38.069,76.227,#4D846F,Turkic,Common Turkic,China
Ayoré [ayo],-20.5,-59.25,#A87781,Zamucoan,,Paraguay
Ayu [ayu],9.26,8.6,#3E5EA8,Niger-Kongo,Atlantic-Congo,Nigeria
Azerbaijani [azj],40.5,48.5,#427F75,Turkic,Common Turkic,Azerbaijan
Azerbaijani_Tabriz [azj-3],38.07,46.3,#447D66,Turkic,Common Turkic,Azerbaijan
Azeri [azb],40.67,47.75,#3D8077,Turkic,Common Turkic,Azerbaijan
Azha [aza],23.37,104.25,#2B76C2,Tibeto-Burman,Lolo-Burmese,China
Azhe [yiz],24.2,103.6,#3480C9,Tibeto-Burman,Lolo-Burmese,China
B'lit_Manobo [mta],6.39,124.23,#90675B,Malayo-Polynesian,Philippines,Philippines
Ba:ngingi_Sama [sse],6.133,121.805,#A2766D,Malayo-Polynesian,Barito,Philippines
Baagandji [drl],-32,142.533,#FA8D98,Pama-Nyungan,Yarli-Baagandji,Australia
Baale [koe],5,36,#5369A6,Nilo-Saharan,Eastern Sudanic,South Sudan
Baangi [bqx],10.81,5.73,#27799E,Niger-Kongo,Atlantic-Congo,Nigeria
Baarin [mon-2],43.53,118.67,#62677E,Mongolic,Core Mongolic,China
Baatonum [bba-2],9.63,3,#565B73,Niger-Kongo,Atlantic-Congo,Benin
Baba [bbw],6.11,10.52,#666FAB,Niger-Kongo,Atlantic-Congo,Cameroon
Babanki [bbk],6.104,10.311,#2F69B0,Niger-Kongo,Atlantic-Congo,Cameroon
Babar_North [bcd],-7.83,129.58,#8B604F,Malayo-Polynesian,Southeast Maluku,Indonesia-Maluku-south
Babar_Southeast [vbb],-7.92,129.67,#7F7450,Malayo-Polynesian,Southeast Maluku,Indonesia-Maluku-south
Babatana [baa],-7.397,157.37,#786370,Oceanic,Western Oceanic,Solomons
Babine-Witsuwit'en [bcr],55,-127,#29AB7B,Dene-Yeniseic,Na-Dene,Canada
Babungo [bav],6.12,10.42,#3552B6,Niger-Kongo,Atlantic-Congo,Cameroon
Babuza [bzg-2],24,120.58,#797153,Austronesian,Western Plains,Taiwan
Baca [baf],4.36,11.03,#525AA5,Niger-Kongo,Atlantic-Congo,Cameroon
Bachamal [wdj-2],-13.17,130.17,#E888A1,Wagaydyic,Wadjiginy,Australia
Bada [bhz],-1.793,120.313,#73607E,Malayo-Polynesian,Celebic,Indonesia-Sulawesi
Badaga [bfq],11.31,76.6,#BB89A0,Dravidian,South Dravidian,India
Bade [bde],12.79,10.66,#348EAB,Afro-Asiatic,Chadic,Nigeria
Bade-2 [bde-2],12,12,#49997D,Afro-Asiatic,Chadic,Nigeria
Badeng [xkl-3],3.17,115.22,#926674,Malayo-Polynesian,North Borneo,Malaysia-Borneo
Badimaya [bia],-27.667,119,#F98C99,Pama-Nyungan,Kardu,Australia
Badjala [xby],-25.084,152.529,#DE7980,Pama-Nyungan,Waka-Kabic,Australia
Badjiri [jbi],-28.79,145.47,#F18EA0,Pama-Nyungan,Karnic,Australia
Badyara [pbp],11.633,-13.4,#8E719D,Niger-Kongo,Atlantic-Congo,Guinea
Baelelea [bvc],-8.453,160.66,#937B65,Oceanic,Southeast Solomonic,Solomons
Baenggu [bvd],-8.506,160.706,#9B7364,Oceanic,Southeast Solomonic,Solomons
Baetora [btr],-15.258,168.166,#7B7252,Oceanic,Southern Oceanic,Vanuatu
Bafang [cmn-68],35.6,103.217,#3669C0,Tibeto-Burman,Sinitic,China
Bafanji [bfj-2],5.84,10.46,#416CB2,Niger-Kongo,Atlantic-Congo,Cameroon
Bafia [ksf],4.73,11.1,#426AB4,Niger-Kongo,Atlantic-Congo,Cameroon
Bafo [bwt],6.351,10.229,#3F599F,Niger-Kongo,Atlantic-Congo,Cameroon
Bafut [bfd],6.083,10.0999,#327DAC,Niger-Kongo,Atlantic-Congo,Cameroon
Baga_Koga [bgo],10.13,-13.95,#7169A3,Niger-Kongo,Atlantic-Congo,Guinea
Baga_Mboteni [bcg],10.83,-14.55,#906586,Niger-Kongo,Atlantic-Congo,Guinea
Baga_Sitemu [bsp],10.48,-14.48,#7B637D,Niger-Kongo,Atlantic-Congo,Guinea
Bagheli [bfy],24.35,81.43,#728CBA,Indo-European,Indo-Iranian,India
Bagirmi [bmi],10.202,17,#9871BD,Nilo-Saharan,Central Sudanic,Chad
Bagri [bgq],29.6,74.3,#7F7CC9,Indo-European,Indo-Iranian,India
Baguiro_Zangba [bmi-2],7.29,18.82,#6162C1,Nilo-Saharan,Central Sudanic,Central African Republic
Bagulal [kva],42.56,46.17,#43A773,Nakh-Daghestanian,Avar-Andi,Russia
Bagusa [bqb],-1.905,137.932,#8A7748,Tor-Kwerba,West Foya Range,Indonesia-Papua
Baharnah [afb-4],26.03,50.55,#5B9B52,Afro-Asiatic,Semitic,Bahrain
Bahau [bhv],0.06,115.65,#847261,Malayo-Polynesian,North Borneo,Indonesia-Kalimantan
Bahinemo [bjh],-4.435,142.726,#74674C,Sepik,Sepik Hill,Papua New Guinea
Bahing [bhj],27.27,86.56,#5268B0,Tibeto-Burman,Kiranti,Nepal
Bahnar [bdq],14,108.5,#A58E9B,Austroasiatic,Bahnaric,Vietnam
Bahonsuai [bsu],-2.23,121.71,#796063,Malayo-Polynesian,Celebic,Indonesia-Sulawesi
Bai [bca],26,100,#336ACA,Tibeto-Burman,Macro-Bai,China
Bai_Eryuan [bca-2],26.12,99.95,#3366CE,Tibeto-Burman,Macro-Bai,China
Bai_Heqing [bca-3],26.56,100.18,#2C62C8,Tibeto-Burman,Macro-Bai,China
Bai_Lanping [bca-4],26.45,99.42,#315EC3,Tibeto-Burman,Macro-Bai,China
Bai_Luobenzhuo [bca-5],26.42,98.89,#3176DF,Tibeto-Burman,Macro-Bai,China
Bai_Qiliqiao [bca-6],25.65,100.18,#345EC2,Tibeto-Burman,Macro-Bai,China
Bai_Xiangyun [bca-7],25.48,100.55,#345DC1,Tibeto-Burman,Macro-Bai,China
Bai_Xishan [bca-10],25.53,100.45,#2D61E7,Tibeto-Burman,Macro-Bai,China
Bai_Yunlong [bca-8],25.88,99.37,#3561CD,Tibeto-Burman,Macro-Bai,China
Bai_Zhoucheng [bca-9],24.48,101.34,#3A5FC8,Tibeto-Burman,Macro-Bai,China
Baikeno [bkx],-9.3,124.32,#787246,Malayo-Polynesian,Timoric,Timor leste
Baima [bqh],30.32,107.34,#2E6BD7,Tibeto-Burman,Bodic,China
Bainapi [dby],-7.904,142.715,#885F4F,Papuan Gulf,Strickland,Papua New Guinea
Baining [gcc-2],-4.6,152,#746563,Baining,,Papua New Guinea-Bismarcks
Baiso [bsw-3],6.45,37.77,#438787,Afro-Asiatic,Cushitic,Somalia
Bajau_Semporna [ssb],4.5,118.5,#76656A,Malayo-Polynesian,Barito,Indonesia-Kalimantan
Bajau_Sulawesi [bdl-2],-3.75,122.5,#8B6471,Malayo-Polynesian,Barito,Indonesia-Sulawesi
Bajo_Kangean [bdl],-7.17,115.82,#9072A4,Malayo-Polynesian,Barito,Indonesia-Kalimantan
Bajuni [swh-2],-1,42.04,#7289AE,Niger-Kongo,Atlantic-Congo,Somalia
Baka [bdh],4.8,31.6,#596ECC,Nilo-Saharan,Central Sudanic,South Sudan
Baka [bkc],2.16,13.78,#3B5DAC,Ubangian,Sere-Mba,Cameroon
Bakairí [bkq],-14,-55,#676C55,Cariban,Pekodian,Brazil
Bakairí_East [bkq-3],-14.43,-54.025,#716C51,Cariban,Pekodian,Brazil
Bakairí_West [bkq-2],-14.7302,-56.2479,#736D54,Cariban,Pekodian,Brazil
Bakaka [bqz],4.8,9.8,#58618C,Niger-Kongo,Atlantic-Congo,Cameroon
Bakhtiari [ldd],31.92,50.86,#5E9157,Indo-European,Indo-Iranian,Iran
Baki [bki],-16.717,168.138,#B47F87,Oceanic,Southern Oceanic,Vanuatu
Bakoko [bkh],4.2,9.67,#3F5DB0,Niger-Kongo,Atlantic-Congo,Cameroon
Bakole [kme],4.44,8.97,#606EBC,Niger-Kongo,Atlantic-Congo,Cameroon
Bakumpai [bkr],-1.988,114.7,#A5706E,Malayo-Polynesian,Barito,Indonesia-Kalimantan
Balaesang [bls],-0.06,119.69,#A76962,Malayo-Polynesian,Celebic,Indonesia-Sulawesi
Balami [new-4],27.801,85.25,#867FBF,Tibeto-Burman,Newaric,Nepal
Balangao [blw],17.167,120.333,#936A5D,Malayo-Polynesian,Philippines,Philippines
Balanta [ble],12,-15,#515C95,Niger-Kongo,Atlantic-Congo,Guinea Bissau
Balantak [blz],-0.82,123.431,#B76D6D,Malayo-Polynesian,Celebic,Indonesia-Sulawesi
Balante_Sofa [bjt],12.54,-15.67,#5F61A3,Niger-Kongo,Atlantic-Congo,Guinea Bissau
Balawaia [snc-2],-9.98,147.865,#797A44,Oceanic,Western Oceanic,Papua New Guinea
Balearic [cat-2],39.5,3,#707BAA,Indo-European,Romance,Spain
Balendru [led],1.968,30.485,#3A73BA,Nilo-Saharan,Central Sudanic,Democratic Republic of the Congo
Bali-Vitu [wiv],-4.733,149.283,#A36B62,Oceanic,Western Oceanic,Papua New Guinea-Bismarcks
Balinese [ban],-8.583,115.25,#A86998,Malayo-Polynesian,Malayo-Sumbawan,Indonesia-NTB
Balingian [mel-7],2.92,112.53,#AD7E76,Malayo-Polynesian,Malayo-Sumbawan,Malaysia-Borneo
Balochi [bgp-2],27,63.5,#6D9B80,Indo-European,Indo-Iranian,Pakistan
Balti [bft],35.2,76,#71A8A9,Tibeto-Burman,Bodic,Pakistan
Baluchi [bgp],27.2,60.68,#478F6D,Indo-European,Indo-Iranian,Iran
Balui Liko [ree-3],1.92,114.52,#936C70,Malayo-Polynesian,North Borneo,Malaysia-Borneo
Bam [bmc],-3.61,144.82,#B36C75,Oceanic,Western Oceanic,Papua New Guinea
Bambalang [bmo],5.86,10.54,#3A7CB7,Niger-Kongo,Atlantic-Congo,Cameroon
Bambara [bam],12.5,-7.5,#536497,Mande,Western Mande,Mali
Bamenyam [bce],5.77,10.33,#596AB2,Niger-Kongo,Atlantic-Congo,Cameroon
Bamu [bcf],-8,143.833,#8F6747,Kiwaian,Bamu,Papua New Guinea
Bamun [bax],5.726,10.904,#4163BF,Niger-Kongo,Atlantic-Congo,Cameroon
Bamunka [bvm],6,10.51,#4B6AA2,Niger-Kongo,Atlantic-Congo,Cameroon
Bana [bcw],10.42,13.58,#37AB92,Afro-Asiatic,Chadic,Cameroon
Banam Bay [vrt-2],-16.41,167.78,#5D6182,Oceanic,Southern Oceanic,Vanuatu
Banda [bnd],-5.25,133.17,#9B6273,Malayo-Polynesian,Central Maluku,Indonesia-Maluku-north
Banda [bpd],2,22,#3466AE,Ubangian,Bandaic,Central African Republic
Banda_Ndele [bfl],8.03,23.9,#3567AB,Ubangian,Bandaic,Central African Republic
Bandi [bza],7.74,-10.17,#3662A1,Mande,Western Mande,Liberia
Bandiaal [bqj-2],13.02,-15.32,#9E5F83,Niger-Kongo,Atlantic-Congo,Senegal
Bandjalang [bdy],-28.74,153.01,#D87771,Pama-Nyungan,Yugambeh-Bundjalung,Australia
Bandjalang-2 [bdy-4],-28.39,152.61,#D87771,Pama-Nyungan,Yugambeh-Bundjalung,Australia
Bandjalang-Gidabal [bdy-2],-28.25,152,#D97772,Pama-Nyungan,Yugambeh-Bundjalung,Australia
Bandjigali [bjd],-30.08,143.28,#FB8D98,Pama-Nyungan,Yarli-Baagandji,Australia
Banggai [bgz],-1.42,123.17,#9A667D,Malayo-Polynesian,Celebic,Indonesia-Sulawesi
Banggime [dbb],14.78,-3.76,#5D50A9,Banggime,,Mali
Bangla Rahri Upobhasa [ben-12],23.24,87.86,#7C87A3,Indo-European,Indo-Iranian,Bangladesh
Bangla_Mymensingh [ben-11],24.75,90.4,#6C7160,Indo-European,Indo-Iranian,Bangladesh
Bangolan [bgj],6.05,10.45,#485973,Niger-Kongo,Atlantic-Congo,Cameroon
Bangru [hru-3],27.9,93.35,#8C5E91,Tibeto-Burman,Hrusish,India
Bangubangu [bnx],-4.689,27.693,#646466,Niger-Kongo,Atlantic-Congo,Democratic Republic of the Congo
Baniwa_Central [bwi],1.4091,-68.1358,#C17A6C,Arawak,Northern Maipuran,Brazil
Baniwa_do_Içana [bwi-2],2.18,-67.77,#BE8A96,Arawak,Northern Maipuran,Brazil
Baniwa_Rio_Negro [bwi-3],0.053,-67.43,#757260,Arawak,Northern Maipuran,Brazil
Baniwa_Siusi [bwi-4],2.19,-67.76,#BB94A2,Arawak,Northern Maipuran,Brazil
Banjar [bjn],0.75,115.79,#C17F77,Malayo-Polynesian,Malayo-Sumbawan,Indonesia-Kalimantan
Banjari [lmn-2],16.5,77.455,#AF86A5,Indo-European,Indo-Iranian,India
Bankariya [cdm-2],27.5,85,#8292C1,Tibeto-Burman,Chepang,Nepal
Bankon [abb],4.37,9.64,#5A6FBF,Niger-Kongo,Atlantic-Congo,Cameroon
Banoni [bcm],-6.417,155.25,#92745C,Oceanic,Western Oceanic,Papua New Guinea-Bougainville
Bantang [pho-6],21.75,102.25,#3A65B6,Tibeto-Burman,Lolo-Burmese,Laos
Bantawa [bap],27.2,87.1,#756E9A,Tibeto-Burman,Kiranti,Nepal
Banten [sun-2],-6.35,106.1,#9D708F,Malayo-Polynesian,Malayo-Sumbawan,Indonesia-Java
Bantik [bnq],1.564,124.859,#9D6A5C,Malayo-Polynesian,Philippines,Indonesia-Sulawesi
Bantoanon [bno],12.784,122.049,#AF7A59,Malayo-Polynesian,Philippines,Philippines
Banyaduq [byd],0.5,110,#B97788,Malayo-Polynesian,Malayo-Sumbawan,Indonesia-Kalimantan
Banyum [bab],11.497,-16.5,#836393,Niger-Kongo,Atlantic-Congo,Guinea Bissau
Banyun [bcb-2],12.75,-16.3,#926093,Niger-Kongo,Atlantic-Congo,Senegal
Baoan [peh],35.05,102.1,#62A1A8,Mongolic,Core Mongolic,China
Baoan [yue-20],22.55,113.9,#5459B6,Tibeto-Burman,Sinitic,China
Baoan_Dahejia [peh-2],35.72,102.88,#679296,Mongolic,Core Mongolic,China
Baoan_Dongxiang [peh-5],35.6,103.22,#5B9B9D,Mongolic,Core Mongolic,China
Baoan_Kangjia [peh-4],35.04,101.25,#488C96,Mongolic,Core Mongolic,China
Baoan_Ñantoq [peh-3],35.41,102.08,#619699,Mongolic,Core Mongolic,China
Bará [bao],0.1,-70.45,#775E38,Tucanoan,East Tucanoan,Colombia
Baraba [tat-3],55.333,78.333,#4E8182,Turkic,Common Turkic,Russia
Barai [bbb],-9.417,148,#646852,Southeast Papuan,Owen Stanley Ranges,Papua New Guinea
Barain_Giliya [bva-2],12.08,18.58,#B26787,Afro-Asiatic,Chadic,Chad
Barain_Jalking [bva-3],12.22,18.8,#B16587,Afro-Asiatic,Chadic,Chad
Barain_Jalkiya [bva],12.18,18.68,#9B5F90,Afro-Asiatic,Chadic,Chad
Barain_Komiya [bva-4],12.17,18.75,#9D618B,Afro-Asiatic,Chadic,Chad
Baram [brd],27.95,85,#8975A2,Tibeto-Burman,Western Himalayan,Nepal
Barang-barang [lji],-6.4,120.5,#AE768C,Malayo-Polynesian,Celebic,Indonesia-Sulawesi
Barapa Barapa [rbp],-35.95,144.32,#DB7DAC,Pama-Nyungan,Kulinic,Australia
Barapasi [brp],-2.247,136.995,#5E5C5E,Geelvink Bay,Barapasi-Sauri-Kofei,Indonesia-Papua
Barasano [bsn],-0.25,-70.75,#635A42,Tucanoan,East Tucanoan,Colombia
Bardi [bcj],-16.58,122.92,#F5888E,Nyulnyul,West Nyulnyul,Australia
Baré [bae],1.6,-66.8,#6FA676,Arawak,Northern Maipuran,Venezuela
Bareke [mpr],-8.543,158.113,#7C6F62,Oceanic,Western Oceanic,Solomons
Barese [ita-47],41.1,16.9,#536B99,Indo-European,Romance,Italy
Bargam [mlp],-4.87,145.76,#7E6074,Trans New Guinea,Madang,Papua New Guinea
Bari [bfa],3.8,31,#5483B7,Nilo-Saharan,Eastern Sudanic,South Sudan
Barí [mot],9,-73.5,#745658,Chibchan,Core Chibchan,Venezuela
Bariai [bch],-5.497,148.63,#A36662,Oceanic,Western Oceanic,Papua New Guinea
Bariba [bba],10.217,2.667,#524D8C,Niger-Kongo,Atlantic-Congo,Benin
Bariji [bjc],-9.211,148.401,#7E6848,Southeast Papuan,Owen Stanley Ranges,Papua New Guinea
Barman Thar [xxx-108],25.899,89.899,#5D6674,Tibeto-Burman,Bodo-Garo,India
Barok [bjk],-3.48,152.19,#92695B,Oceanic,Western Oceanic,Papua New Guinea-Bismarcks
Barranbinya [zmu-2],-30.1,145.93,#F490A1,Pama-Nyungan,Muruwari,Australia
Barranquenho [por-3],38.13,-6.975,#585E73,Indo-European,Romance,Portugal
Barrow_Point [bpt],-14.373,144.63,#D58D95,Pama-Nyungan,Paman,Australia
Baruga [bjz],-9.328,148.734,#6B6A49,Trans New Guinea,Oro-Wharton,Papua New Guinea
Barunggam [xxx-47],-26.25,151.25,#D47271,Pama-Nyungan,Waka-Kabic,Australia
Barupu [wra],-3.083,142.083,#64388F,Skou,Eastern Skou,Papua New Guinea
Baruya [byr],-6.917,145.833,#985685,Trans New Guinea,Morobe-Eastern Highlands,Papua New Guinea
Basà [bzw],8.03,7.06,#406BA8,Niger-Kongo,Atlantic-Congo,Nigeria
Basaa [bas],5,10.15,#5366B0,Niger-Kongo,Atlantic-Congo,Cameroon
Basap [bdb],0.91,117.56,#9F6762,Malayo-Polynesian,Basap,Indonesia-Kalimantan
Basari [bsc],12.25,-13,#3B8DB6,Niger-Kongo,Atlantic-Congo,Senegal
Basay [byq-2],25,121.86,#AF8C69,Austronesian,East Formosan,Taiwan
Basay_Trobriawan [byq],25,122,#85714C,Austronesian,East Formosan,Taiwan
Basel [gsw-4],47.56,7.59,#3C8593,Indo-European,Germanic,Switzerland
Bashkarik [gwc-3],35.358,72.137,#7896B1,Indo-European,Indo-Iranian,Pakistan
Bashkir [bak],53,58,#488085,Turkic,Common Turkic,Russia
Basila [ade],8.17,0.62,#6361BE,Niger-Kongo,Atlantic-Congo,Benin
Basketo [bst],6.384,36.651,#479E77,Afro-Asiatic,Omotic,Ethiopia
Basque [eus],42.82,-1.95,#7E869F,Basque,,Spain
Basque_Arbizu [eus-4],42.9,-2,#7075A1,Basque,,Spain
Basque_Baztan [eus-10],43.2,1.47,#898AAE,Basque,,Spain
Basque_Baztan [eus-9],43.2,-1.5,#7373A0,Basque,,Spain
Basque_Gernika [eus-3],43.3,-2.7,#736C9D,Basque,,Spain
Basque_Lekeitio [eus-2],43.365,-2.51,#5C737C,Basque,,Spain
Basque_Navarro [bqe],43.17,-1.24,#557A9D,Basque,,France
Basque_Ondarroa [eus-7],43.3,-2.4,#7C6699,Basque,,Spain
Bassa [bsq],7.26,-7.22,#3068AC,Niger-Kongo,Atlantic-Congo,Côte d'Ivoire
Basseri [pes-7],29.61,52.54,#4F875C,Indo-European,Indo-Iranian,Iran
Bassossi [bsi],5.24,9.52,#615F9A,Niger-Kongo,Atlantic-Congo,Cameroon
Bata [bta],9.7,12.5,#44618A,Afro-Asiatic,Chadic,Nigeria
Batak_Dairi [btd],2.546,98.3,#A37068,Malayo-Polynesian,Batak-Barrier Islands,Indonesia-Sumatra
Batak_Karo [btx],3,98.167,#826085,Malayo-Polynesian,Batak-Barrier Islands,Indonesia-Sumatra
Batak_Palawan [bya],10.115,119.214,#B6766C,Malayo-Polynesian,Philippines,Philippines
Batang [khg-8],30.57,98.97,#2F79DD,Tibeto-Burman,Bodic,China
Batanga [bnm],2.09,9.75,#665AAB,Niger-Kongo,Atlantic-Congo,Equatorial Guinea
Bateg [btq],5,102.5,#A26A83,Austroasiatic,Aslian,Malaysia
Bathari [bhm],17.6,56,#3C925E,Afro-Asiatic,Semitic,Oman
Bati [btc],4.26,11.06,#45679A,Niger-Kongo,Atlantic-Congo,Cameroon
Batsbi [bbl-2],42.05,45.31,#34A473,Nakh-Daghestanian,Nakh,Georgia
Batuley [bay],-5.8,134.75,#8D6A56,Malayo-Polynesian,Southeast Maluku,Indonesia-Maluku-south
Bau [bbd],-5.213,145.556,#6F6A47,Trans New Guinea,Madang,Papua New Guinea
Baukan_Murut [bnb],5.273,116.519,#B77166,Malayo-Polynesian,North Borneo,Malaysia-Borneo
Baule [bci],7.5,-5,#435A9E,Niger-Kongo,Atlantic-Congo,Côte d'Ivoire
Baure [brg],-15,-64,#797546,Arawak,Southern Maipuran,Bolivia
Bauro [bxa],-10.647,161.858,#7B725C,Oceanic,Southeast Solomonic,Solomons
Bauzi [bvz],-2.5,137.667,#6E6C50,Geelvink Bay,,Indonesia-Papua
Bavarian [bar],46.73,12.28,#3778A2,Indo-European,Germanic,Italy
Bawm [bgr],22.5,92.25,#5C77B6,Tibeto-Burman,Kuki-Chin-Naga,India
Bayan [duq-2],-0.85,115.39,#A96E76,Malayo-Polynesian,Barito,Indonesia-Kalimantan
Bayso [bsw],6.28,37.76,#4E9669,Afro-Asiatic,Cushitic,Somalia
Bayso-2 [bsw-2],6.456,37.745,#5F9D69,Afro-Asiatic,Cushitic,Ethiopia
Bayungu [bxj],-23.3,113.7,#FB8C97,Pama-Nyungan,Kanyara-Mantharta,Australia
Bduul [ajp-6],30.33,35.44,#4DA96A,Afro-Asiatic,Semitic,Syria
Beary [xxx-101],12.605,75.01,#B36E82,Dravidian,South Dravidian,India
Bedamini [beo],-6.321,142.489,#7A5E42,Trans New Guinea,Bosavi,Papua New Guinea
Bedayuh [bth],1.01,110.51,#B07585,Malayo-Polynesian,Land Dayak,Malaysia-Borneo
Bedik [tnr],12.75,-12.467,#4462AF,Niger-Kongo,Atlantic-Congo,Senegal
Bediondo [bjv],10.203,17,#465F92,Nilo-Saharan,Central Sudanic,Chad
Befang [bby-2],6.28,10.03,#3079A1,Niger-Kongo,Atlantic-Congo,Cameroon
Begak [dbj],5.25,118.833,#997688,Malayo-Polynesian,North Borneo,Malaysia-Borneo
Beihai [yue-13],21.47,109.1,#415EB6,Tibeto-Burman,Sinitic,China
Beja [bej],18,36,#51798B,Afro-Asiatic,Cushitic,Sudan
Bekati [bei],0.975,109.425,#9F655C,Malayo-Polynesian,Land Dayak,Indonesia-Kalimantan
Beketan [bkn-3],1.3,114.9,#9C786D,Malayo-Polynesian,Land Dayak,Indonesia-Kalimantan
Bekwarra [bkv],6.74,8.86,#6969AA,Niger-Kongo,Atlantic-Congo,Nigeria
Bekwil [bkw],1.72,14.65,#4A759A,Niger-Kongo,Atlantic-Congo,Cameroon
Bela [bxd-2],24.33,98.4,#386DB1,Tibeto-Burman,Lolo-Burmese,Myanmar
Belait [beg],4.382,114.462,#AD8281,Malayo-Polynesian,North Borneo,Brunei
Belanda Boor [bxb],6.5,28,#9167C4,Nilo-Saharan,Eastern Sudanic,South Sudan
Belarussian [bel],54,27,#4EAAAA,Indo-European,Balto-Slavic,Belarus
Belep [yly],-19.75,163.67,#B872A0,Oceanic,Southern Oceanic,New Caledonia
Belhare [byw],27,87.25,#887C91,Tibeto-Burman,Kiranti,Nepal
Beli [blm],6.75,29.75,#6559C9,Nilo-Saharan,Central Sudanic,South Sudan
Bella Coola [blc],52.5,-126.67,#52C161,Salish,Bella Coola,Canada
Bellona [mnv-2],-11.296,159.79,#716447,Oceanic,Central Pacific,Solomons
Belneng [glb],9.15,9.51,#3661AC,Afro-Asiatic,Chadic,Nigeria
Bemal [bmh],-5.234,145.475,#7A714B,Trans New Guinea,Madang,Papua New Guinea
Bemba [bem],-11,31,#46659E,Niger-Kongo,Atlantic-Congo,Zambia
Bembe [bmb],-4,14,#3E5885,Niger-Kongo,Atlantic-Congo,Democratic Republic of the Congo
Bena [bez],-9.27,35.04,#586197,Niger-Kongo,Atlantic-Congo,Tanzania
Bena-Bena [bef],-6.114,145.567,#6C6942,Trans New Guinea,Morobe-Eastern Highlands,Papua New Guinea
Bench [bcq],7,35.75,#237A9F,Afro-Asiatic,Omotic,Ethiopia
Bende [bdp],-6,30.5,#4F5385,Niger-Kongo,Atlantic-Congo,Tanzania
Beng [nhb],7.83,-4.25,#545CB9,Mande,Eastern Mande,Côte d'Ivoire
Benga [bng],1.2,9.5,#3F7F7D,Niger-Kongo,Atlantic-Congo,Equatorial Guinea
Bengali [ben],22.5,90,#4F7D89,Indo-European,Indo-Iranian,Bangladesh
Bengali_Barisal [ben-10],22.7,90.37,#487662,Indo-European,Indo-Iranian,Bangladesh
Bengali_east [ben-7],24.4,90.28,#3D796F,Indo-European,Indo-Iranian,Bangladesh
Bengali_west [ben-8],23.4,89.45,#577D8D,Indo-European,Indo-Iranian,Bangladesh
Bengni [adi-11],28.66,93.37,#74609D,Tibeto-Burman,Macro-Tani,China
Benuaq [lbx-2],-1.6,115.51,#A5706E,Malayo-Polynesian,Barito,Indonesia-Kalimantan
Benyadu [byd-2],0.595,109.62,#A66766,Malayo-Polynesian,Land Dayak,Indonesia-Kalimantan
Beothuk [bue],48,-55,#887953,Beothuk,,Canada
Bergamasco [ita-17],45.7,9.75,#595D96,Indo-European,Romance,Italy
Bergensk [nno],60.39,5.33,#3E56AB,Indo-European,Germanic,Norway
Berik [bkl],-2.25,138.92,#6FA578,Tor-Kwerba,Orya-Tor,Indonesia-Papua
Berlinerisch [deu-4],52.5,13.15,#3A709B,Indo-European,Germanic,Germany
Bernese [gsw-3],46.83,7.62,#466F9B,Indo-European,Germanic,Switzerland
Berom [bom-2],9.67,8.81,#6A65AA,Niger-Kongo,Atlantic-Congo,Nigeria
Berrichon [fra-17],47.08,2.38,#575F95,Indo-European,Romance,France
Berta [wti],10.67,34.5,#47769A,Nilo-Saharan,Berta,Ethiopia
Besemah [pse],-4.2,103,#AB7B85,Malayo-Polynesian,Malayo-Sumbawan,Indonesia-Sumatra
Beserrman [udm-2],58.02,52.15,#7484AE,Uralic,Permic,Russia
Bésiro [cax-2],-16.6375,-61.9271,#7B6951,Arawak,Southern Maipuran,Bolivia
Besoa [bep],-1.599,120.379,#745F7B,Malayo-Polynesian,Celebic,Indonesia-Sulawesi
Betawi [bew],-6.21,107.02,#9E6691,Malayo-Polynesian,Malayo-Sumbawan,Indonesia-Java
Bete [byf],7.05,9.748,#5B5D82,Niger-Kongo,Atlantic-Congo,Nigeria
Betoi [xxx-126],7.22,-71.42,#79744A,Betoi-Jirara,,Colombia
Betta Kurumba [xub],11.58,76.55,#C4879D,Dravidian,South Dravidian,India
Bewani [pgi],-3.024,141.167,#825B48,Trans New Guinea,Border,Papua New Guinea
Bezhta [kap],42.133,46.128,#32A77D,Nakh-Daghestanian,Tsezic,Russia
Bhaderwahi [bhd-2],32.98,75.71,#5A80A9,Indo-European,Indo-Iranian,India
Bhaṭe-sa zib [xxx-102],34.94,72.88,#72A09C,Indo-European,Indo-Iranian,Afghanistan
Bhatibari [ben-5],26.48,89.54,#9A87A5,Indo-European,Indo-Iranian,India
Bhele [bhy-2],0.25,28.67,#495E89,Niger-Kongo,Atlantic-Congo,Democratic Republic of the Congo
Bhili [bhb],22,73,#8993C0,Indo-European,Indo-Iranian,India
Bhili_Mahikantha [bhb-2],23.83,72.5,#858DC4,Indo-European,Indo-Iranian,India
Bhoi [kha-5],25.9,91.88,#AA8586,Austroasiatic,Khasi-Palaung,India
Bhojpuri [bho],26.8,85.3,#9192BB,Indo-European,Indo-Iranian,India
Bhojpuri_Nagpuria [bho-3],23.36,85.33,#9091BE,Indo-European,Indo-Iranian,India
Bhojpuri_Northern [bho-2],26.76,83.37,#9091BE,Indo-European,Indo-Iranian,India
Bhojpuri_Western [bho-4],25.32,83.01,#9391BA,Indo-European,Indo-Iranian,India
Bhumij [muw],21.333,86.5,#B187B0,Austroasiatic,Munda,India
Biafada [bif],11.47,-15.13,#6271BC,Niger-Kongo,Atlantic-Congo,Guinea Bissau
Biage [bdf],-9.158,147.664,#736347,Southeast Papuan,Owen Stanley Ranges,Papua New Guinea
Biak [bhw],-1.14,136,#816649,Malayo-Polynesian,Eastern Malayo-Polynesian,Indonesia-Papua
Biak-west [bhw-2],-0.835,135.59,#69515C,Malayo-Polynesian,Eastern Malayo-Polynesian,Indonesia-Papua
Biaka [axk-2],3.65,17.27,#4C5D7A,Niger-Kongo,Atlantic-Congo,Congo
Biali [beh],11.04,1.08,#5E586A,Niger-Kongo,Atlantic-Congo,Benin
Bian_Marind [bpv],-7.222,140.548,#436969,Anim,Marind-Yaqay,Indonesia-Papua
Biangai [big],-7.33,146.75,#9D6B5A,Trans New Guinea,Oro-Wharton,Papua New Guinea
Biao [byk-3],23.9,112.2,#475BC9,Tai-Kadai,Kam-Tai,China
Biao_Dagang [byk-2],23.81,112.135,#4D5FCB,Tai-Kadai,Kam-Tai,China
Biao_Yonggu [byk],23.72,112.07,#485EC3,Tai-Kadai,Kam-Tai,China
Biaomin Yao [bmt],23.6,111.75,#4E6BDC,Hmong-Mien,Mienic,China
Biatah [bth-2],1.264,110.32,#9F6071,Malayo-Polynesian,Land Dayak,Indonesia-Kalimantan
Bidjara [bym],-24.5,146.592,#E88182,Pama-Nyungan,Greater Maric,Australia
Bierebo [bnk],-16.667,168.131,#6A8C97,Oceanic,Southern Oceanic,Vanuatu
Bieria [brj],-16.807,168.194,#8B6361,Oceanic,Southern Oceanic,Vanuatu
Bih [rad],12.48,108.025,#746EB4,Malayo-Polynesian,Malayo-Sumbawan,Vietnam
Bijago [bjg],11.28,-15.83,#7463AA,Niger-Kongo,Atlantic-Congo,Guinea Bissau
Bijago_Orango [bjg-2],11.034,-16.146,#A16797,Niger-Kongo,Atlantic-Congo,Guinea Bissau
Bikele [biw-2],3.67,12.85,#6061B1,Niger-Kongo,Atlantic-Congo,Cameroon
Bikol [bcl],13.333,123.5,#A0715E,Malayo-Polynesian,Philippines,Philippines
Bikol_Iriga [bcl-3],13.39,123.33,#B5765F,Malayo-Polynesian,Philippines,Philippines
Bikol_Naga [bcl-4],13.62,123.17,#A4705F,Malayo-Polynesian,Philippines,Philippines
Biksi [yet],-4.013,140.494,#9D5D76,Yetfa-Biksi,,Papua New Guinea
Bila [bip],1.17,28.76,#2E4F91,Niger-Kongo,Atlantic-Congo,Democratic Republic of the Congo
Bilba [bpz],-10.67,123.34,#936456,Malayo-Polynesian,Timoric,Indonesia-NTT
Bilbil [brz],-5.26,145.76,#AC6A5F,Oceanic,Western Oceanic,Papua New Guinea
Biliau [bcu-2],-5.65,146.3,#A06D5E,Oceanic,Western Oceanic,Papua New Guinea
Bilin [byn],15.9,38.3,#9BA185,Afro-Asiatic,Cushitic,Eritrea
Bilinara [nbj],-16,131.667,#F2888B,Pama-Nyungan,Ngumbin-Yapa,Australia
Biloxi [bll],32.25,-90,#426C53,Siouan,Western Siouan,USA
Bilua [blb],-7.75,156.667,#A76873,Solomons East Papuan,,Solomons
Bima [bhp],-8.545,118.677,#4D7589,Malayo-Polynesian,Bima,Indonesia-NTB
Bima_Kolo [bhp-3],-8.32,118.76,#577A84,Malayo-Polynesian,Bima,Indonesia-NTB
Bimin [bhl],-5.43,141.942,#745C58,Trans New Guinea,Ok,Papua New Guinea
Bimoba [bim],10.46,0.06,#6360B1,Niger-Kongo,Atlantic-Congo,Ghana
Bina [bmn],-10.249,149.683,#946742,Oceanic,Western Oceanic,Papua New Guinea
Binandere [bhg],-8.167,147.917,#6C5B5D,Trans New Guinea,Oro-Wharton,Papua New Guinea
Binbinga [wmb-2],-16.17,135,#F18E8F,Mirndi,Ngurlun,Australia
Bine [bon],-9.05,142.884,#A36378,Eastern Trans Fly,,Papua New Guinea
Bini_Edo [bin],6.42,5.83,#375E89,Niger-Kongo,Atlantic-Congo,Nigeria
Bini-2 [bin-2],6.41,5.7,#51658E,Niger-Kongo,Atlantic-Congo,Nigeria
Binigura [pnv],-22.488,116.506,#FB8B97,Pama-Nyungan,Kanyara-Mantharta,Australia
Bininj Gun-Wok [gup],-12.5,133.75,#E28798,Macro-Gunwinygu,Gunwingyuan proper,Australia
Bintan Orang Laut [zlm-14],1.077,104.5,#8A638F,Malayo-Polynesian,Malayo-Sumbawan,Indonesia-Sumatra
Bintauna [bne],0.75,123.49,#786A73,Malayo-Polynesian,Philippines,Indonesia-Sulawesi
Bintulu [bny],3.83,113.67,#997680,Malayo-Polynesian,North Borneo,Malaysia-Borneo
Binukid [bkd],8.3,125,#A9785B,Malayo-Polynesian,Philippines,Philippines
Binumarien [bjr],-6.25,146.08,#695164,Trans New Guinea,Morobe-Eastern Highlands,Papua New Guinea
Binyang [cmn-47],23.22,108.82,#4460B3,Tibeto-Burman,Sinitic,China
Bipi [biq],-2.109,146.4,#917687,Oceanic,Admiralties,Papua New Guinea
Bira [brf-2],1.6,30.13,#2B62B3,Niger-Kongo,Atlantic-Congo,Democratic Republic of the Congo
Bira [brf],1.5,30.03,#486D9D,Niger-Kongo,Atlantic-Congo,Democratic Republic of the Congo
Birao [brr],-9.746,160.515,#8F7366,Oceanic,Southeast Solomonic,Solomons
Birgid [btf],13,27,#5A679D,Afro-Asiatic,Chadic,Sudan
Biri [bvi],7.55,6.233,#4C76C0,Ubangian,Sere-Mba,Nigeria
Biri [bzr],-20.5,146.5,#EE8384,Pama-Nyungan,Greater Maric,Australia
Birifor [biv],9.29,-2.73,#4A78B4,Niger-Kongo,Atlantic-Congo,Ghana
Biritai [bqq],-3,137.6,#4A3548,Lakes Plains,Tariku,Indonesia-Papua
Birom [bom],9.67,8.83,#3C5C82,Niger-Kongo,Atlantic-Congo,Nigeria
Birriya [xpa-2],-24.5,143.5,#F98B96,Pama-Nyungan,Pirriya-Kungkari,Australia
Bisa [bib],11.783,0.366,#735B99,Mande,Eastern Mande,Burkina Faso
Bisayah_Sarawak [bsb],5.33,115.5,#916382,Malayo-Polynesian,North Borneo,Malaysia-Borneo
Bishnupriya [bpy],24.8,93.12,#AA7B5A,Indo-European,Indo-Iranian,India
Bisiacco [vec-2],45.95,12.45,#646F99,Indo-European,Romance,Italy
Bissa [bib-2],10.43,-1.67,#835894,Mande,Eastern Mande,Burkina Faso
Bisu [bii],19.75,100,#6780C7,Tibeto-Burman,Lolo-Burmese,Thailand
Bitur [mcc],-8.52,142.71,#89684C,Anim,Tirio,Papua New Guinea
Biya [mij-6],6.615,10.18,#3B60C2,Niger-Kongo,Atlantic-Congo,Cameroon
Biyo [byo],22.51,101.65,#3963A5,Tibeto-Burman,Lolo-Burmese,Thailand
Bizkaian [eus-6],43.25,-2.98,#A58E76,Basque,,Spain
Bjokapakha [tsj-3],26.965,91.05,#767FCB,Tibeto-Burman,Bodic,Bhutan
Bjokapakha-2 [tsj-4],26.965,91.045,#6972B0,Tibeto-Burman,Bodic,Bhutan
Blablanga [blp],-8.17,159.42,#8391A9,Oceanic,Western Oceanic,Solomons
Blablanga_Ghove [blp-2],-8.33,159.5,#7497AE,Oceanic,Western Oceanic,Solomons
Black Lahu [lhu-4],20.355,99.77,#3369BA,Tibeto-Burman,Lolo-Burmese,Myanmar
Black_Tai [blt-2],19.75,105,#3362A5,Tai-Kadai,Kam-Tai,Vietnam
Blackfoot [bla],50,-112.67,#8A793D,Algic,Algonquian,Canada
Blagar [beu],-8.33,124.25,#826467,Timor-Alor-Pantar,Alor-Pantar,Indonesia-NTT
Blang [blr],23.3,100,#5B62B9,Austroasiatic,Khasi-Palaung,China
Boano [bzl],0.51,120.99,#AA7264,Malayo-Polynesian,Celebic,Indonesia-Sulawesi
Boano [bzn],-2.96,127.95,#855E30,Malayo-Polynesian,Central Maluku,Indonesia-Maluku-north
Boazi [kvg],-7,141.25,#416865,Anim,Boazi,Papua New Guinea
Boazi_Kuni [kvg-2],-6.913,141.326,#3B626E,Anim,Boazi,Papua New Guinea
Bobangi [bni],0,17.8,#3C6481,Niger-Kongo,Atlantic-Congo,Democratic Republic of the Congo
Bobo_Madare_North [bbo-2],12.42,-4.48,#7760A8,Mande,Western Mande,Burkina Faso
Bobo_Madare_South [bwq],11.54,-4.26,#695294,Mande,Western Mande,Burkina Faso
Bobo-Fing [bbo],11.83,-4.42,#5456B4,Mande,Western Mande,Burkina Faso
Bobongko [bgb],-0.5,121.75,#AC6F6E,Malayo-Polynesian,Celebic,Indonesia-Sulawesi
Bobot [bty],-3.33,130.17,#806748,Malayo-Polynesian,Central Maluku,Indonesia-Maluku-north
Bocota [sab],9.34,-82.24,#844E70,Chibchan,Core Chibchan,Panama
Bogaya [boq],-5.621,142.231,#6E6754,Trans New Guinea,Duna-Bogaya,Papua New Guinea
Bohemian [ces-3],50,13,#63A278,Indo-European,Balto-Slavic,Czech Republic
Boholano [ceb-2],9.9,124.2,#B88566,Malayo-Polynesian,Philippines,Philippines
Bohutu [bxh],-10.5,150.33,#579E63,Oceanic,Western Oceanic,Papua New Guinea
Boiken [bzf],-3.525,143.415,#74675F,Ndu,Boiken,Papua New Guinea
Bokala [lin-2],4.57,19.02,#4159A7,Niger-Kongo,Atlantic-Congo,Democratic Republic of the Congo
Bokar [adi-2],29,94.35,#8D6096,Tibeto-Burman,Macro-Tani,India
Boko [bkp],10.52,3.72,#3B6079,Mande,Eastern Mande,Benin
Bokyi [bky],6.1,9.06,#4A64AE,Niger-Kongo,Atlantic-Congo,Nigeria
Bola [bnp],-5.5,150,#AB695D,Oceanic,Western Oceanic,Papua New Guinea-Bismarcks
Bola [bxd-3],24.45,98.6,#3C65AF,Tibeto-Burman,Lolo-Burmese,China
Bolaang-Mongondow [mog],0.55,124,#AD726F,Malayo-Polynesian,Philippines,Indonesia-Sulawesi
Bolano [bzl-2],0.52,121,#B37471,Malayo-Polynesian,Celebic,Indonesia-Sulawesi
Bole [bol],11.007,10.747,#3E74A4,Afro-Asiatic,Chadic,Nigeria
Bolgo [bvo-2],10.9,18.81,#655998,Niger-Kongo,Atlantic-Congo,Chad
Bolgo_Dugag [bvo],10.79,18.61,#75539D,Niger-Kongo,Atlantic-Congo,Chad
Bolinao [smk],16.341,119.893,#AB6C5F,Malayo-Polynesian,Philippines,Philippines
Bologna [ita-4],44.51,11.35,#6B6A9D,Indo-European,Romance,Italy
Bolyu [ply],24.78,105.35,#3B6FC2,Austroasiatic,Mangic,China
Bom [bmf],9.28,-11.6,#5A6E9D,Niger-Kongo,Atlantic-Congo,Sierra Leone
Boma [boh],2.5,15.6,#3D6CAD,Niger-Kongo,Atlantic-Congo,Cameroon
Bomitaba [zmx],1.701,17.371,#3D6496,Niger-Kongo,Atlantic-Congo,Congo
Bomitaba-2 [zmx-2],1.7,17.37,#495862,Niger-Kongo,Atlantic-Congo,Congo
Bonan [peh-6],35.7,103,#5691A8,Mongolic,Core Mongolic,China
Bonda [bfw-2],19,82.75,#C7878E,Austroasiatic,Munda,India
Bondei [bou],-5.082,38.432,#617063,Niger-Kongo,Atlantic-Congo,Tanzania
Bonerate [bna],-7.38,121.79,#656669,Malayo-Polynesian,Celebic,Indonesia-Sulawesi
Bongaigaon [asm-4],26.48,90.56,#695C93,Indo-European,Indo-Iranian,India
Bonggi [bdg],7.3,117.2,#965D69,Malayo-Polynesian,North Borneo,Philippines
Bonggo [bpg],-2.28,139.6,#936551,Oceanic,Western Oceanic,Indonesia-Papua
Bongili [bui],0.37,16.61,#54617A,Niger-Kongo,Atlantic-Congo,Congo
Bongo [bot],7.5,28,#5D66B1,Nilo-Saharan,Central Sudanic,South Sudan
Boni [bob],0.5,43,#719483,Afro-Asiatic,Cushitic,Somalia
Bonifacino [lij-3],41.39,9.16,#4978A0,Indo-European,Romance,France
Bontoc_Guinaang [bnc-2],17.08,120.9,#AB725A,Malayo-Polynesian,Philippines,Philippines
Bontok [bnc],17.083,120.917,#A96E58,Malayo-Polynesian,Philippines,Philippines
Bor [bvf],5.605,27.472,#B07AAB,Afro-Asiatic,Chadic,South Sudan
Bora [boa],-2.25,-71.75,#62835A,Boran,Bora,Peru
Bori [adi-5],28.2,94.6,#895B90,Tibeto-Burman,Macro-Tani,India
Bormiese [ita-16],46.47,10.375,#476B9C,Indo-European,Romance,Italy
Bornholmsk [scy],55,15,#40678A,Indo-European,Germanic,Denmark
Boro [brx],26.75,92,#6E5187,Tibeto-Burman,Bodo-Garo,India
Boro-Shinasha [bwo],10.66,35.34,#6C547E,Afro-Asiatic,Omotic,Ethiopia
Borong Kosorong [ksr],-6.534,147.502,#A0676B,Trans New Guinea,Morobe-Eastern Highlands,Papua New Guinea
Boróro [bor],-15,-52,#9A6652,Macro-Je,Bororo,Brazil
Bororo-2 [bor-2],-16.6,-55.2,#A16654,Macro-Je,Bororo,Brazil
Boruca [brn],9.001,-83.325,#596B87,Chibchan,Core Chibchan,Costa Rica
Bosavi [bco-2],-6.425,142.765,#726452,Trans New Guinea,Bosavi,Papua New Guinea
Bosnian [bos],44,18,#5F9984,Indo-European,Balto-Slavic,Bosnia
Botin_Samban [kbx-2],-4.33,144.17,#8F695F,ApMa,,Papua New Guinea
Botlikh [bph],42.66,46.22,#42A773,Nakh-Daghestanian,Avar-Andi,Russia
Bourbonnais [fra-11],46.57,3.33,#5A5C94,Indo-European,Romance,France
Bouyei [pcc-5],25.817,107.55,#4972C8,Tai-Kadai,Kam-Tai,China
Bouyei_Changshun Duncao [pcc-9],25.9,106.5,#4470CF,Tai-Kadai,Kam-Tai,China
Bouyei_Dushan Huanghou [pcc-11],25.4,107.6,#476AD2,Tai-Kadai,Kam-Tai,China
Bouyei_Guiding Houchang [pcc-13],26.4,107,#4267D2,Tai-Kadai,Kam-Tai,China
Bouyei_Huishui Yashui [pcc-12],26,106.9,#4768D1,Tai-Kadai,Kam-Tai,China
Bouyei_Libo Fucun [pcc-10],25.3,108,#4965CA,Tai-Kadai,Kam-Tai,China
Bouyei_Luodian Bamao [pcc-8],25.3,106.95,#456CD3,Tai-Kadai,Kam-Tai,China
Bouyei_Luodian Luokun [pcc-7],25.25,106.7,#446AC9,Tai-Kadai,Kam-Tai,China
Bouyei_Pingtang Sizhai [pcc-14],25.65,107.4,#4966D4,Tai-Kadai,Kam-Tai,China
Bouyei_Sandu Zhouqin [pcc-15],25.7,107.9,#4071CF,Tai-Kadai,Kam-Tai,China
Bouyei_west [pcc-2],25.75,107.333,#576ECF,Tai-Kadai,Kam-Tai,China
Boze [jer-2],10.2,8.96,#415CC3,Niger-Kongo,Atlantic-Congo,Nigeria
Brabants [nld-3],50.75,4.65,#515C84,Indo-European,Germanic,Belgium
Brag-g.yab [khg-2],30.65,97.55,#7581C5,Tibeto-Burman,Bodic,China
Brahui (Jahlawān) [brh-4],25.81,66.49,#669361,Dravidian,North Dravidian,Pakistan
Brahui [brh],29,67,#9DA584,Dravidian,North Dravidian,Pakistan
Brahui_Jahlawan [brh-3],25.79,66.51,#609463,Dravidian,North Dravidian,Pakistan
Brahui_Sarawan [brh-2],29,66.6,#5C9162,Dravidian,North Dravidian,Pakistan
Brajbhasha [bra],27.49,77.67,#7D8EB9,Indo-European,Indo-Iranian,India
Brao [brb],14,107.001,#6A86C4,Austroasiatic,Bahnaric,Cambodia
Brao_Krung [brb-2],13.8,107,#7F8AB4,Austroasiatic,Bahnaric,Cambodia
Breton [bre],47.65,-2.75,#3E7F9F,Indo-European,Celtic,France
Breton_Grand Lorient [bre-6],47.75,-3.36,#538ABF,Indo-European,Celtic,France
Breton_Kerneveg [bre-2],48,-4.1,#3D839C,Indo-European,Celtic,France
Breton_Leoneg [bre-3],48.6,-4.3,#3E859D,Indo-European,Celtic,France
Breton_Plozevet [bre-5],47.99,-4.42,#637DB3,Indo-European,Celtic,France
Breton_Tregiereg [bre-4],48.5,-3.125,#3D839C,Indo-European,Celtic,France
Bribri [bzd],9.5,-83,#48679D,Chibchan,Core Chibchan,Costa Rica
Brinken [zmd],-14.05,130.08,#EE8587,Western Daly,Bringen,Australia
Brokpa [sgt],27.33,92,#5A75AF,Tibeto-Burman,Bodic,Bhutan
Bru_Western [brv],16.75,104.75,#686CA8,Austroasiatic,Katuic,Laos
Brugge [vls-3],51.22,3.23,#4F648A,Indo-European,Germanic,Netherlands
Bruu [bru],17.167,104.333,#495EB7,Austroasiatic,Katuic,Thailand
Bu [jid],9.05,8.66,#3C6398,Niger-Kongo,Atlantic-Congo,Nigeria
Buamu [box],11.17,-3.5,#875176,Niger-Kongo,Atlantic-Congo,Burkina Faso
Buang_Central [bzh],-6.855,146.774,#668F9F,Oceanic,Western Oceanic,Papua New Guinea
Bube [bvb],3.5,8.7,#4266A8,Niger-Kongo,Atlantic-Congo,Equatorial Guinea
Bubia [bbx-2],4.02,9.22,#5361A5,Niger-Kongo,Atlantic-Congo,Cameroon
Budong-bundong [bdx],-2.171,119.328,#9E6B5A,Malayo-Polynesian,Greater South Sulawesi,Indonesia-Sulawesi
Budu [buu],2.01,27.95,#2A6AB6,Niger-Kongo,Atlantic-Congo,Democratic Republic of the Congo
Budu-2 [buu-3],2.011,27.949,#2C63AB,Niger-Kongo,Atlantic-Congo,Democratic Republic of the Congo
Buduma [bdm],13.6,14,#53608E,Afro-Asiatic,Chadic,Chad
Budux [bdk],41.19,48.37,#30A386,Nakh-Daghestanian,Lezgic,Russia
Bugan [bbh],23.75,105,#2D71CF,Austroasiatic,Mangic,China
Bugan_Nala [bbh-2],23.487,105.15,#2C70CF,Austroasiatic,Mangic,China
Bughotu [bgt],-8.478,159.808,#877462,Oceanic,Southeast Solomonic,Solomons
Bugis [bug],-4,120,#AB6D79,Malayo-Polynesian,Greater South Sulawesi,Indonesia-Sulawesi
Bugun [bgn],27.3,92.35,#4E72A9,Tibeto-Burman,Kho-Bwa,India
Buhid [bku],12.574,121.25,#AC6D61,Malayo-Polynesian,Philippines,Philippines
Buin [buo],-6.75,155.833,#9E525A,South Bougainville,Buin,Papua New Guinea-Bougainville
Bukar_Sadong [sdo],0.97,110.66,#7D6D99,Malayo-Polynesian,Land Dayak,Malaysia-Borneo
Bukat [bvk],1.29,113.25,#B5786D,Malayo-Polynesian,Land Dayak,Malaysia-Borneo
Bukawa [buk],-6.732,147.359,#535F69,Oceanic,Western Oceanic,Papua New Guinea
Buket [bvk-2],0.8,112.6,#9A6560,Malayo-Polynesian,Land Dayak,Malaysia-Borneo
Bukhari [bhh],39.79,64.45,#51895B,Indo-European,Indo-Iranian,Tajikistan
Bukit [bvu],-2.75,115.64,#C47A77,Malayo-Polynesian,Malayo-Sumbawan,Indonesia-Kalimantan
Bukitan [bkn],2.35,114.89,#B0726E,Malayo-Polynesian,Malayo-Sumbawan,Malaysia-Borneo
Bukiyip_Arapesh [ape],-3.667,142.5,#786080,Torricelli,Kombio-Arapesh,Papua New Guinea
Bukusu [bxk],1.02,35,#9D6A61,Niger-Kongo,Atlantic-Congo,Kenya
Bularnu [yil],-21.5,137.5,#F08DA1,Pama-Nyungan,Warluwaric,Australia
Bulgarian [bul],43,25,#458C71,Indo-European,Balto-Slavic,Bulgaria
Bulgarian_Banat [bul-6],45.7,20.9,#478387,Indo-European,Balto-Slavic,Bulgaria
Bulgarian_Boboshevo [bul-4],42.15,23,#539266,Indo-European,Balto-Slavic,Bulgaria
Bulgarian_Erkech [bul-5],42.84,27.58,#4E8F6A,Indo-European,Balto-Slavic,Bulgaria
Bulgarian_Gabare [bul-8],43.316,21.92,#50926E,Indo-European,Balto-Slavic,Bulgaria
Bulgarian_Lovec [bul-9],43.14,24.71,#4B8D73,Indo-European,Balto-Slavic,Bulgaria
Bulgarian_Moesian [bul-3],42.7,27.75,#5B88A2,Indo-European,Balto-Slavic,Bulgaria
Bulgarian_Momchilovci [bul-10],41.66,24.77,#488A6C,Indo-European,Balto-Slavic,Bulgaria
Bulgarian_North-west [bul-7],43.6,23.18,#438B72,Indo-European,Balto-Slavic,Bulgaria
Bulgarian_Nova Nadezda [bul-11],42.02,25.72,#56936B,Indo-European,Balto-Slavic,Bulgaria
Buli [bzq],0.833,128.5,#A26F6F,Malayo-Polynesian,Eastern Malayo-Polynesian,Indonesia-Maluku-north
Bulu [bum],2.917,11.15,#396996,Niger-Kongo,Atlantic-Congo,Cameroon
Bulungan [bdb-2],0.89,117.58,#AF6C77,Malayo-Polynesian,Basap,Indonesia-Kalimantan
Bulusu [bqr],3,116,#AF6D6D,Malayo-Polynesian,Bulusu,Indonesia-Kalimantan
Bum [bmv],6.49,10.42,#3C668E,Niger-Kongo,Atlantic-Congo,Cameroon
Buma [tkw-2],-11.615,166.966,#B18191,Oceanic,Te Motu,Solomons_East
Buma [yns-2],-3.33,17.5,#4670B6,Niger-Kongo,Atlantic-Congo,Democratic Republic of the Congo
Bumang [bvp],22.5,96.5,#3461C3,Austroasiatic,Khasi-Palaung,Laos
Bumbita_Arapesh [aon],-3.667,142.833,#8D7162,Torricelli,Kombio-Arapesh,Papua New Guinea
Bumthang [kjz],27.802,90.8,#6E75C7,Tibeto-Burman,Bodic,Bhutan
Bumthang_Ura [kjz-2],27.48,90.905,#425AE3,Tibeto-Burman,Bodic,Bhutan
Bunama [bdd],-10.064,151.075,#8B8959,Oceanic,Western Oceanic,Papua New Guinea
Bunan [bfu],32.61,76.91,#5277BD,Tibeto-Burman,Western Himalayan,India
Bunaq [bfn],-9.1,125.15,#4E6568,Timor-Alor-Pantar,Mainland Timor-Alor-Pantar,Indonesia-NTT
Bunaq_Lolotoen [bfn-2],-9.161,125.26,#4D6765,Timor-Alor-Pantar,Mainland Timor-Alor-Pantar,Timor leste
Bunaq_South [bfn-3],-9.227,125.393,#536965,Timor-Alor-Pantar,Mainland Timor-Alor-Pantar,Timor leste
Bundeli [bns],23.18,79.95,#9E91C0,Indo-European,Indo-Iranian,India
Bunganditj [xbg],-36.5,141,#F98D97,Pama-Nyungan,Kulinic,Australia
Bungku [bkz],-3,122.33,#6F6470,Malayo-Polynesian,Celebic,Indonesia-Sulawesi
Bungku_Tulambatu [bkz-2],-3.17,122.12,#636573,Malayo-Polynesian,Celebic,Indonesia-Sulawesi
Bungu [wun],-8.33,32.88,#355DBD,Niger-Kongo,Atlantic-Congo,Tanzania
Bunong [cmo],12.63,107.3,#6C7EBB,Austroasiatic,Bahnaric,Cambodia
Bunu [buh],25.5,108.7,#3974EB,Hmong-Mien,Hmongic,China
Bunu_Dongnu [bwx],23.88,108.08,#2476F8,Hmong-Mien,Hmongic,China
Bunu_Nunu [bwx-2],23.799,110.178,#306ED6,Hmong-Mien,Hmongic,China
Bunuba [bck],-17.75,125.75,#F98998,Bunuban,,Australia
Bunun [bnn],23.5,121,#8A774B,Austronesian,Bunun,Taiwan
Bunun_Isbukun [bnn-2],23.459,121.056,#79915C,Austronesian,Bunun,Taiwan
Buol [blf],1,121.5,#8F665C,Malayo-Polynesian,Philippines,Indonesia-Sulawesi
Bura [bwr],10.611,12.195,#318EA3,Afro-Asiatic,Chadic,Nigeria
Burarra [bvr],-12.25,134.667,#E78399,Macro-Gunwinygu,Maningrida,Australia
Burji [bji],5.5,37.9,#5B8D67,Afro-Asiatic,Cushitic,Ethiopia
Burmbar [vrt],-16.372,167.749,#745B69,Oceanic,Southern Oceanic,Vanuatu
Burmese [mya],20,96,#4B77D0,Tibeto-Burman,Lolo-Burmese,Myanmar
Burmese_Arakan [mya-4],20.14,92.9,#4E77D8,Tibeto-Burman,Lolo-Burmese,Myanmar
Burmese_Intha [mya-3],20.55,96.92,#5172CA,Tibeto-Burman,Lolo-Burmese,Myanmar
Burmese_Myeik [mya-2],12.43,98.6,#3B6DBE,Tibeto-Burman,Lolo-Burmese,Myanmar
Burmese_Palaw [mya-6],13.12,98.68,#4468BC,Tibeto-Burman,Lolo-Burmese,Myanmar
Burmese_Tavoyan [mya-5],14.08,98.2,#4273D4,Tibeto-Burman,Lolo-Burmese,Myanmar
Burmeso [bzu],-2.447,138.209,#737346,Burmeso,,Indonesia-Papua
Buru [mhs],-3.7,126.4,#A26F65,Malayo-Polynesian,Central Maluku,Indonesia-Maluku-north
Burum [bmu],-6.484,147.311,#AE8271,Trans New Guinea,Morobe-Eastern Highlands,Papua New Guinea
Burum_Mindik [bmu-3],-6.47,147.44,#728E64,Trans New Guinea,Morobe-Eastern Highlands,Papua New Guinea
Burun [bdi-2],10.8,33.8,#B867A5,Nilo-Saharan,Eastern Sudanic,Sudan
Burushaski [bsk],36.5,74.5,#5898B0,Burushaski,,Pakistan
Burushaski_eastern [bsk-2],36.32,74.65,#508ABE,Burushaski,,Pakistan
Burushaski_Jammu-Kashmir [bsk-3],34.11,74.82,#6A90BD,Burushaski,,India
Buruwai [asi-2],-3.55,133.33,#89674C,Trans New Guinea,Asmat-Kamoro,Indonesia-Papua
Buryat [bxm],52,108,#6C695C,Mongolic,Core Mongolic,Russia
Busa [bqp],9.67,4,#296A84,Mande,Eastern Mande,Nigeria
Busa-2 [bqp-2],9.91,4.4,#42556C,Mande,Eastern Mande,Nigeria
Busami [bsm],-1.8,135.95,#8F644A,Malayo-Polynesian,Eastern Malayo-Polynesian,Indonesia-Papua
Bushong [buf],-4.67,21.3,#545AB3,Niger-Kongo,Atlantic-Congo,Democratic Republic of the Congo
Busoa [bup],-5.62,122.616,#467583,Malayo-Polynesian,Celebic,Indonesia-Sulawesi
Bussa [dox],5.75,37.2,#668056,Afro-Asiatic,Cushitic,Ethiopia
Butmas_Tur [bnr],-15.376,167.028,#A7676B,Oceanic,Southern Oceanic,Vanuatu
Buwal [bhs],10.5,13.86,#3B9EAC,Afro-Asiatic,Chadic,Cameroon
Buxing [bgk-2],21.48,101.57,#4872B0,Austroasiatic,Khasi-Palaung,China
Buyang [yha],24,104.8,#3E7DDD,Tai-Kadai,Kadaic,China
Buyi_Hezhang [pcc-3],27.12,104.73,#346ECF,Tai-Kadai,Kam-Tai,China
Buyuan_Jino [jiy],22.05,101,#3F5AC2,Tibeto-Burman,Lolo-Burmese,China
Bwaidoka [bwd],-9.479,150.311,#738154,Oceanic,Western Oceanic,Papua New Guinea
Bwala [xxx-115],-4.45,16.2,#3272AC,Niger-Kongo,Atlantic-Congo,Democratic Republic of the Congo
Byansi [bee],30.17,80.5,#767AC7,Tibeto-Burman,Western Himalayan,India
C'lela [dri],11.47,5.27,#36ACA9,Niger-Kongo,Atlantic-Congo,Nigeria
Caac [msq],-20.42,164.42,#9B8CC2,Oceanic,Southern Oceanic,New Caledonia
Cabecar [cjp],9.91,-83.68,#585DAD,Chibchan,Core Chibchan,Costa Rica
Cabiyarí [cbb],-0.1302,-70.6927,#A17348,Arawak,Northern Maipuran,Colombia
Cacaopera [ccr],13.74,-88.11,#9F7448,Misumalpan,Sumalpan,Nicaragua
Caddo [cad],33.33,-93.5,#46795B,Caddoan,Caddo,USA
Cadorino [ita-21],46.445,12.39,#56648F,Indo-European,Romance,Italy
Cagayano [cgc-2],10.47,119.87,#A67A59,Malayo-Polynesian,Philippines,Philippines
Cagliaritano [ita-55],39.225,9.15,#4D6E95,Indo-European,Romance,Italy
Cahita [opt-2],27.9,-109,#616E60,Uto-Aztecan,Cahitan,Mexico
Cahuilla [chl],33.75,-117.75,#86AA70,Uto-Aztecan,North Uto-Aztecan,USA
Caijia_Niujiaojing [xxx-51],27.067,104.297,#3678D0,Tibeto-Burman,Macro-Bai,China
Caijia_Xingfa [xxx-45],26.934,104.863,#3B6EC3,Tibeto-Burman,Macro-Bai,China
Cak [ckh],21.41,92.6,#4F6DAE,Tibeto-Burman,Jingpho,Bangladesh
Cakchiquel [ckf],14.5,-91,#599C63,Mayan,Core Mayan,Guatemala
Calabrian [scn-4],38.148,16.18,#4782AD,Indo-European,Romance,Italy
Calabrian-2 [scn-3],38.92,16.6,#5982A7,Indo-European,Romance,Italy
Callahuaya [caw],-15,-69,#87A67D,Puquina,,Bolivia
Calusa [xxx-100],27.76,-82.55,#A17161,Tunica,,USA
Camling [rab],27.3,86.8,#6A84B5,Tibeto-Burman,Kiranti,Nepal
Campa [cni],-12,-74,#89804E,Arawak,Southern Maipuran,Peru
Campalagian [cml],-4.02,119.62,#B6727B,Malayo-Polynesian,Greater South Sulawesi,Indonesia-Sulawesi
Campobassano [ita-45],41.6,14.66,#5C6F9F,Indo-European,Romance,Italy
Camsá [kbh],1,-77,#407980,Camsá,,Colombia
Camuno [lmo-7],45.943,10.28,#5A5F98,Indo-European,Romance,Italy
Canamari [knm-2],-6.46,-68.78,#B46E60,Katukinan,,Brazil
Candoshi [cbu],-4.17,-77,#6C8D54,Candoshi,,Peru
Canela-Krahô [ram],-6.5,-45,#8F5A72,Macro-Je,Je,Brazil
Canichana [caz],-14.31,-64.94,#797A4B,Canichana-Tequiraca,,Bolivia
Cantabrian_East [spa-7],43.3,-3.9,#896375,Indo-European,Romance,Spain
Cantabrian_West [spa-8],43.3,-4.1,#8A6074,Indo-European,Romance,Spain
Cantonese [yue],22.333,114,#4564B7,Tibeto-Burman,Sinitic,Hong Kong
Cantonese_Nanning [yue-10],22.817,108.317,#3B65B3,Tibeto-Burman,Sinitic,China
Canzés [lmo-6],45.85,9.27,#536AA7,Indo-European,Romance,Italy
Cao Bang [zyg-2],23.18,105.41,#4262CC,Tai-Kadai,Kam-Tai,China
Caodeng_rGyalrong [jya-4],32.2,101.8,#3980C2,Tibeto-Burman,Na-Qiangic,China
Capanahua [kaq],-7,-74,#547659,Panoan,Southern Panoan,Peru
Cappadocian [cpg],38.66,34.85,#6192AD,Indo-European,Graeco-Phrygian,Turkey
Caquinte [cot],-11.7092,-73.9252,#9A8867,Arawak,Southern Maipuran,Peru
Car [caq],9.167,92.75,#936492,Austroasiatic,Nicobar,India_Andaman-Nicobars
Cara [cfd],10.13,8.75,#4A6FA9,Niger-Kongo,Atlantic-Congo,Nigeria
Carapana [cbc],0.45,-71,#5E5844,Tucanoan,East Tucanoan,Colombia
Carib [car],7.85,-59,#6F6062,Cariban,Guianan Carib,Guyana
Carib_Suriname [crb],5.7,-55.932,#9A624B,Arawak,Northern Maipuran,Suriname
Carib_Venezuela [crb-2],7.969,-65.67,#9E6449,Arawak,Northern Maipuran,Venezuela
Carijona [cbd],0.148,-70.708,#826553,Cariban,Guianan Carib,Colombia
Carolinian [cal],15,146,#7288A3,Oceanic,Micronesian,USA Northern Mariana Islands
Carrarese [ita-29],44.08,10.1,#616DA3,Indo-European,Romance,Italy
Cashibo-Cacataibo [cbr],-9.1,-75.5,#596E58,Panoan,Southern Panoan,Peru
Cashinahua [cbs],-10.5,-71.75,#477056,Panoan,Southern Panoan,Peru
Castagniers [frp-4],43.79,7.23,#5E658C,Indo-European,Romance,France
Castellanese [sdn-6],40.913,8.71,#6A78AB,Indo-European,Romance,Italy-Sardinia
Catalan [cat],41.4,2.02,#7779AF,Indo-European,Romance,Spain
Catalan_Northern [cat-5],42.7,2.9,#897FAC,Indo-European,Romance,France
Catalan_Northwestern [cat-6],42.5,1.5,#847FAD,Indo-European,Romance,Andorra
Catanese [ita-52],37.5,15.1,#5F7A9E,Indo-European,Romance,Italy
Catanzarese [ita-51],38.9,16.6,#707BA5,Indo-European,Romance,Italy
Catawba [chc],34,-81,#71754A,Siouan,Eastern Siouan,USA
Cauho [pho-7],21.4,102,#4762CC,Tibeto-Burman,Lolo-Burmese,Laos
Cavineña [cav],-12.25,-67.5,#978D63,Tacanan,Cavineña,Bolivia
Cayapa [cbi],1.2,-78.75,#979586,Barbacoan,Southern Barbacoan,Ecuador
Cayapo [txu-2],-7.77,-51.67,#A15789,Macro-Je,Je,Brazil
Cayuga [cay],42.75,-76.75,#5A604A,Iroquoian,Northern Iroquoian,USA
Cayuse [xcy],46.11,-117.94,#62945B,Cayuse,,USA
Cayuvava [cyb],-12.5,-67,#65655C,Cayuvava,,Bolivia
Ce [ruk],10,8.67,#5E68C2,Niger-Kongo,Atlantic-Congo,Nigeria
Cebuano [ceb],10,124,#B48667,Malayo-Polynesian,Philippines,Philippines
Cemuhi [cam],-20.833,165,#696BA9,Oceanic,Southern Oceanic,New Caledonia
Central !Kung [nmn-3],-19.57,18.12,#3F8CD0,Tuu,Hua,Botswana
Central Banda [tor],6.64,22.76,#2F66AE,Ubangian,Bandaic,Central African Republic
Central-Eastern Niger Fulfulde [fuq],15.09,8.43,#6A79B6,Niger-Kongo,Atlantic-Congo,Niger
Cerma [cme],10.249,-4.85,#866C98,Niger-Kongo,Atlantic-Congo,Burkina Faso
Ch'ol [cti],17.49,-92.47,#607F59,Mayan,Core Mayan,Mexico
Cha'palaachi [cbi-2],0.838,-78.877,#6AA582,Barbacoan,Southern Barbacoan,Ecuador
Chachapuya [xxx-109],-6.42,-77.92,#738364,Chachapoya,,Peru
Chacobo [cao],-12.25,-65,#738346,Panoan,Southern Panoan,Bolivia
Chadong [cdy],25.2,110.2,#3F78DD,Tai-Kadai,Kam-Tai,China
Chaga-Kiwoso [old-2],-3.29,37.57,#5F679F,Niger-Kongo,Atlantic-Congo,Kenya
Chaga-Ng'uni [jmc-3],-3.18,37.2,#5F598F,Niger-Kongo,Atlantic-Congo,Kenya
Chaga-Rombo-North [rof],-3.08,37.54,#5E649C,Niger-Kongo,Atlantic-Congo,Kenya
Chaga-Rombo-South [rof-2],-3.21,37.54,#6769A4,Niger-Kongo,Atlantic-Congo,Kenya
Chaga-Siha [jmc-2],-3.36,36.92,#695685,Niger-Kongo,Atlantic-Congo,Kenya
Chaga-Vunjo [wun],-3.43,37.58,#5478B4,Niger-Kongo,Atlantic-Congo,Kenya
Chaha [sgw],8.2,38,#3D7F65,Afro-Asiatic,Semitic,Ethiopia
Chakali [cli],9.83,-1.9,#4D53C1,Niger-Kongo,Atlantic-Congo,Ghana
Chakavian [hrv-2],45.17,14.85,#46699F,Indo-European,Balto-Slavic,Croatia
Chakhar [mon-5],44.94,115.38,#746368,Mongolic,Core Mongolic,Mongolia
Chakhar-2 [mon-6],43,115,#7C8E66,Mongolic,Core Mongolic,China
Chakma [ccp],22.9,92.23,#5C699B,Indo-European,Indo-Iranian,Bangladesh
Chakosi [cko-2],10.36,0.48,#625FAB,Niger-Kongo,Atlantic-Congo,Ghana
Chali [tgf],27.3,91.26,#6D7EC4,Tibeto-Burman,Bodic,Bhutan
Chaling [gan-20],28.81,113.64,#3564C2,Tibeto-Burman,Sinitic,China
Cham_Eastern [cjm],10.93,108.1,#6D6CBC,Malayo-Polynesian,Malayo-Sumbawan,Vietnam
Cham_Western [cja],12,105.5,#7C6EA4,Malayo-Polynesian,Malayo-Sumbawan,Cambodia
Chama [ese-5],-11.33,-66.25,#698B4B,Tacanan,Takanik-Chamik,Bolivia
Chamacoco [ceg],-22.3578,-59.7197,#56795C,Zamucoan,,Paraguay
Chamalal_Gigatil [cji],42.54,46.06,#35AD74,Nakh-Daghestanian,Avar-Andi,Russia
Chamalal_Nizhnee_Gakvari [cji-2],42.53,46.05,#32AE75,Nakh-Daghestanian,Avar-Andi,Russia
Chamba [ndi-2],8.19,11.74,#5B5DB3,Niger-Kongo,Atlantic-Congo,Cameroon
Chambri [can],-4.167,143.083,#804D7C,Lower Sepik-Ramu,Lower Sepik,Papua New Guinea
Chamicuro [ccc],-5.114,-75.736,#898F85,Arawak,Western Maipuran,Peru
Chamorro [cha],13.583,145,#645E82,Malayo-Polynesian,Chamorro,USA Federated States of Micronesia Guam
Chaná [qsi],-34,-55,#76706D,Charruan,,Uruguay
Chang Naga [nbc],26.23,94.817,#647D84,Tibeto-Burman,Konyak,India
Changana [tso-2],-24.516,31.504,#1C8DD3,Niger-Kongo,Atlantic-Congo,South Africa
Changchow [nan-25],24.75,117.833,#3765C0,Tibeto-Burman,Sinitic,China
Changchun [cmn-21],43.88,125.32,#396AC9,Tibeto-Burman,Sinitic,China
Changle [cmn-48],25.92,119.55,#3367BB,Tibeto-Burman,Sinitic,China
Changpaoyao [bmt-2],25.417,107.88,#3672EF,Hmong-Mien,Mienic,China
Changsha [hsn],28,113,#385CBB,Tibeto-Burman,Sinitic,China
Changsha_Old [hsn-25],27.9,112.9,#3C5EBD,Tibeto-Burman,Sinitic,China
Changting [hak-14],25.83,116.35,#4161BC,Tibeto-Burman,Sinitic,China
Changzhi [cjy-4],36.167,113,#3B5F97,Tibeto-Burman,Sinitic,China
Changzhou [wuu-32],31.783,119.967,#3D64D1,Tibeto-Burman,Sinitic,China
Channel_English [eng-8],49.45,-2.54,#47708F,Indo-European,Germanic,Britain
Chantyal [chx],28.75,83.5,#876FAA,Tibeto-Burman,Bodic,Nepal
Chaoyang [nan-42],23.32,116.48,#3B57B1,Tibeto-Burman,Sinitic,China
Chaozhou [nan-26],23.667,116.667,#4559BA,Tibeto-Burman,Sinitic,China
Chaplino [ess-2],65,-173,#759A5C,Eskimo-Aleut,Eskimo,Russia
Chaplino_Alaska [ess-3],63.5,-170.5,#67C27D,Eskimo-Aleut,Eskimo,USA-Alaska
Chara [cra],6.64,36.42,#519575,Afro-Asiatic,Omotic,Ethiopia
Chara-2 [cra-2],6.617,36.238,#448862,Afro-Asiatic,Omotic,Ethiopia
Charleroi [wln-2],50.41,4.45,#656684,Indo-European,Romance,Belgium
Chatino [ctp],16.5,-97.25,#41569F,Otomanguean,Eastern Otomanguean,Mexico
Chatino_Tataltepec [cta],16.3,-97.55,#3C7BB7,Otomanguean,Eastern Otomanguean,Mexico
Chatino_Yaitepec [ctp-2],16.225,-97.27,#3D51A3,Otomanguean,Eastern Otomanguean,Mexico
Chatino_Zenzontepec [czn],17.34,-92.34,#528E6F,Otomanguean,Eastern Otomanguean,Mexico
Chattisgarhi [hne],21.25,81.25,#847CAB,Indo-European,Indo-Iranian,India
Chaudangsi [cdn],29.7,80.48,#8388D5,Tibeto-Burman,Western Himalayan,India
Che [ruk-2],10.03,8.65,#576EBC,Niger-Kongo,Atlantic-Congo,Nigeria
Che'_Wong [cwg],3.833,102,#9E7AA0,Austroasiatic,Aslian,Malaysia
Chechen [che],43.13,45.54,#2DA589,Nakh-Daghestanian,Nakh,Russia
Chechen_Pẋarçxoy Äqqiy [che-4],43.12,46.48,#23957F,Nakh-Daghestanian,Nakh,Russia
Chechen_Şaroy [che-3],42.63,45.8,#35A378,Nakh-Daghestanian,Nakh,Russia
Chechen_Ҫ̇äberloy [che-2],42.6,46,#35A378,Nakh-Daghestanian,Nakh,Russia
Cheke_Holo_Maringe [mrn],-8.5,159.67,#7392B4,Oceanic,Western Oceanic,Solomons
Chemakum [xch],48.08,-122.93,#52BC5A,Chimakuan,,USA
Chemehuevi [ute-2],34.33,-115.17,#74AD72,Uto-Aztecan,Numic,USA
Chemnitz [nds-5],50.83,12.92,#408181,Indo-European,Germanic,Germany
Chen [nbe-2],26.58,95.1,#5765B4,Tibeto-Burman,Konyak,India
Chenapian [cjn],-4.25,142.33,#625A7C,Sepik,Iwam-Wogamus,Papua New Guinea
Chenchu [cde],15.88,79.25,#BF746C,Dravidian,South-Central Dravidian,India
Cheng [jeg],15,107.167,#765C8C,Austroasiatic,Bahnaric,Laos
Chengdu [cmn-14],30.6,104.1,#3A5EB6,Tibeto-Burman,Sinitic,China
Chengfeng [xxx-87],29.685,113.49,#3E83CF,Hmong-Mien,Hmongic,China
Chengqiao [wuu-6],31.63,121.4,#255ACC,Tibeto-Burman,Sinitic,China
Chenxian [hsn-18],26.34,113.285,#4556C0,Tibeto-Burman,Sinitic,China
Chenzhou [hsn-8],25.77,113.01,#4556BD,Tibeto-Burman,Sinitic,China
Chepang [cdm],28.05,83.92,#6894CE,Tibeto-Burman,Chepang,Nepal
Cheremis [mrj],55.624,55.484,#537682,Uralic,Mari,Russia
Cherepon [cpn],6.05,-0.11,#66719F,Niger-Kongo,Atlantic-Congo,Ghana
Cherokee [chr],35.5,-83.5,#6F684C,Iroquoian,Southern Iroquoian,USA
Cherokee_lower [chr-3],37.48,-82.53,#676745,Iroquoian,Southern Iroquoian,USA
Cherokee_Qualla [chr-2],35.5,-83.26,#836745,Iroquoian,Southern Iroquoian,USA
Cheyenne [chy],43.5,-104,#67653F,Algic,Algonquian,USA
Chiapanec [cip],16.66,-91.94,#74626F,Otomanguean,Western Otomanguean,Mexico
Chibcha [chb-2],9.2,-74.5,#6A7453,Chibchan,Core Chibchan,Colombia
Chichewa [nya-2],-14.8,32.81,#317BBB,Niger-Kongo,Atlantic-Congo,Malawi
Chichimec [pei],24.87,-103.7,#38848C,Otomanguean,Western Otomanguean,Mexico
Chichimeco-Jonaz [pei],21.29,-100.52,#2F78A6,Otomanguean,Western Otomanguean,Mexico
Chickasaw [cic],34,-88,#456E6D,Muskogean,Western Muskogean,USA
Chietino [ita-44],42.35,14.17,#597094,Indo-European,Romance,Italy
Chifundi [swh-13],-4.57,39.43,#548D99,Niger-Kongo,Atlantic-Congo,Tanzania
Chiguano_Izoceño [gui-2],-20,-63,#586139,Tupian,Tupi-Guarani,Bolivia
ChiKunda [kdn],-15.73,30.28,#2E6CA3,Niger-Kongo,Atlantic-Congo,Mozambique
Chilcotin [clc],52,-125,#23C371,Dene-Yeniseic,Na-Dene,Canada
Chimane [cas-4],-14.64,-67.84,#5B765E,Moseten,Chimane,Bolivia
Chimariko [cid],41,-123,#60B67B,Chimariko,,USA
Chimila [cbg],10.75,-73,#5B84BB,Chibchan,Core Chibchan,Colombia
Chimwiini [swh-4],1.1,43,#6081A3,Niger-Kongo,Atlantic-Congo,Somalia
Chin_Daai [dao],21.1,93.65,#4671B2,Tibeto-Burman,Kuki-Chin-Naga,Myanmar
Chin_Daai_Mkuui [dao-2],21.25,93.5,#506FC3,Tibeto-Burman,Kuki-Chin-Naga,Myanmar
Chin_Falam [cfm],22.9,93.67,#6484C3,Tibeto-Burman,Kuki-Chin-Naga,Myanmar
Chin_Tiddim [ctd],23.333,93.667,#6C5BA3,Tibeto-Burman,Kuki-Chin-Naga,Myanmar
Chinali [cih],32.5,77.83,#7C8DAF,Indo-European,Indo-Iranian,India
Chinantec_Chiltepec [csa],17.93,-96.17,#5F5D94,Otomanguean,Western Otomanguean,Mexico
Chinantec_Comaltepec [cco],17.57,-96.55,#4A4FAA,Otomanguean,Western Otomanguean,Mexico
Chinantec_La-Alicia [xxx-96],17.64,-96.02,#5D5CAD,Otomanguean,Western Otomanguean,Mexico
Chinantec_Lacova [xxx-80],17.46,-95.94,#545FAD,Otomanguean,Western Otomanguean,Mexico
Chinantec_Lalana [cnl],17.475,-95.875,#4655BE,Otomanguean,Western Otomanguean,Mexico
Chinantec_Latani [tpx-2],17.38,-95.91,#565C9D,Otomanguean,Western Otomanguean,Mexico
Chinantec_Lealao [cle],17.32,-95.93,#4961B1,Otomanguean,Western Otomanguean,Mexico
Chinantec_Mayultianguis [xxx-99],17.92,-96.57,#565C9D,Otomanguean,Western Otomanguean,Mexico
Chinantec_Ojitlan [chj],18.05,-96.4,#5C58BB,Otomanguean,Western Otomanguean,Mexico
Chinantec_Ozumacin [chz],17.68,-96.23,#4D5AB9,Otomanguean,Western Otomanguean,Mexico
Chinantec_Palantla [cpa],17.83,-96.39,#4357A7,Otomanguean,Western Otomanguean,Mexico
Chinantec_Petlapa [xxx-105],17.48,-96.025,#545FAD,Otomanguean,Western Otomanguean,Mexico
Chinantec_Quetzalapa [xxx-93],17.34,-95.88,#4E5AAE,Otomanguean,Western Otomanguean,Mexico
Chinantec_Quiotepec [chq],17.6,-96.58,#3E60C1,Otomanguean,Western Otomanguean,Mexico
Chinantec_Rio-Chiquito [xxx-95],17.6,-95.97,#5A5CA8,Otomanguean,Western Otomanguean,Mexico
Chinantec_Sochiapam [cso],17.825,-96.67,#3A53A6,Otomanguean,Western Otomanguean,Mexico
Chinantec_Temextitlan [cco-2],17.59,-96.55,#5B4B66,Otomanguean,Western Otomanguean,Mexico
Chinantec_Teotalcingo [xxx-94],17.42,-95.95,#545FAD,Otomanguean,Western Otomanguean,Mexico
Chinantec_Tepetotutla [cnt],17.26,-96.11,#4758BB,Otomanguean,Western Otomanguean,Mexico
Chinantec_Tlacoatzintepec [ctl],17.86,-96.6,#4959AC,Otomanguean,Western Otomanguean,Mexico
Chinantec_Usila [cuc],17.89,-96.52,#4C56B8,Otomanguean,Western Otomanguean,Mexico
Chinantec_Valle_Nacional [cvn],17.77,-96.3,#5A588D,Otomanguean,Western Otomanguean,Mexico
Chinantec_Yolox [xty],17.61,-96.57,#505B9C,Otomanguean,Western Otomanguean,Mexico
Chindamba [ndj],-8.4,36.03,#55618C,Niger-Kongo,Atlantic-Congo,Tanzania
Chinook [chh],46,-124,#61A859,Chinook,Lower Chinook,USA
Chinsenga [nse],-15.39,31.35,#4C71A8,Niger-Kongo,Atlantic-Congo,Mozambique
ChiNyanja [nya],-15,35,#3872AD,Niger-Kongo,Atlantic-Congo,Malawi
Chioggiotto [ita-23],44.22,12.28,#635E8D,Indo-European,Romance,Italy
Chipaya [cap],-19,-68,#56C490,Uru-Chipaya,,Bolivia
Chiquimulilla [xin-2],14.08,-90.38,#55AF8A,Xinca,,Guatemala
Chiquitano [cax],-17.5,-62,#657D52,Chiquitano,,Bolivia
Chiquitano_Migueleño [cax-3],-17,-60.97,#7A7952,Chiquitano,,Bolivia
Chiricahua [apm],33.5,-108,#189276,Dene-Yeniseic,Na-Dene,USA
Chiriguano_Chané [gui-3],-17.793,-63.18,#7F694E,Tupian,Tupi-Guarani,Bolivia
Chiru [cdf],24.99,93.5,#5B5F9D,Tibeto-Burman,Kuki-Chin-Naga,India
Chitimacha [ctm],29.67,-91,#447460,Totozoquean-Chitimacha,Chitimacha,USA
Chitoniya_Tharu [the],27.58,84.41,#8A90BE,Indo-European,Indo-Iranian,Nepal
Chittagong [ben-2],22.37,91.8,#4D7891,Indo-European,Indo-Iranian,Bangladesh
Chiwere [iow-2],40.05,-95.52,#6D805C,Siouan,Western Siouan,USA
Chöcangacakha [cgk],27.53,91.14,#5B74C9,Tibeto-Burman,Bodic,Bhutan
Chöcangacakha-2 [cgk-2],27.55,90.92,#5368B8,Tibeto-Burman,Bodic,Bhutan
Chochenyo [cst],37.65,-121.91,#8B8B57,Yok-Utian,Utian,USA
Chocho [coz],17.67,-97.33,#2873B8,Otomanguean,Eastern Otomanguean,Mexico
Choctaw [cho],32.25,-88.5,#5A7A52,Muskogean,Western Muskogean,USA
Chokobo [cbo],10.35,8.85,#526FAD,Niger-Kongo,Atlantic-Congo,Nigeria
Chokri [nri],26.67,93.75,#5579D1,Tibeto-Burman,Kuki-Chin-Naga,India
Chokri-2 [nri-2],25.7,94.3,#4077C8,Tibeto-Burman,Kuki-Chin-Naga,India
Chokwe [cjk],-9.702,22.876,#3170B8,Niger-Kongo,Atlantic-Congo,Democratic Republic of the Congo
Cholon [cht],-8,-77.5,#858958,Cholon,,Peru
Chomo [cfg],8.87,10.82,#3D5C58,Niger-Kongo,Atlantic-Congo,Nigeria
Chong [cog-2],12.91,102.01,#6E72B7,Austroasiatic,Pearic,Thailand
Chong'an [mnp-5],27.76,118.03,#4A5CBA,Tibeto-Burman,Sinitic,China
Chongming [wuu-35],31.67,121.5,#3C7CD0,Tibeto-Burman,Sinitic,China
Chongqing [cmn-61],29.55,106.6,#335CBB,Tibeto-Burman,Sinitic,China
Chongyang [gan-3],29.55,114.17,#395BBA,Tibeto-Burman,Sinitic,China
Chono [xxx-70],-46,-75,#928574,Chonan,Chonan Proper,Chile
Chontal [chd],18.17,-92.58,#527E6C,Mayan,Core Mayan,Mexico
Chontal [clo],16.3,-95.5,#6C8C5B,Tequistlatecan,,Mexico
Chonyi [coh],-3.8,39.76,#4B7EB7,Niger-Kongo,Atlantic-Congo,Kenya
Chopi [cce],-24.718,34.744,#306DAE,Niger-Kongo,Atlantic-Congo,Mozambique
Chori [cry],9.59,8.06,#3E92B9,Niger-Kongo,Atlantic-Congo,Nigeria
Chorote [crq],-22,-63,#7F987D,Matacoan,Mataguayo II,Argentina
Chorti [caa],14.8,-89.3,#5A915E,Mayan,Core Mayan,Guatemala
Chrau [crw],10.667,107.5,#866A94,Austroasiatic,Bahnaric,Vietnam
Chru [cje],11.774,108.575,#A56B8E,Malayo-Polynesian,Malayo-Sumbawan,Vietnam
Chuave [cjv],-6.168,145.119,#614D68,Trans New Guinea,Chimbu-Wahgi,Papua New Guinea
Chuj [cac],16,-91.5,#779663,Mayan,Core Mayan,Mexico
Chuj_Ixtatán [cnm],15.833,-91.483,#79A06E,Mayan,Core Mayan,Guatemala
Chukchansi [yok-4],36.99,-119.64,#5EB78D,Yok-Utian,Yokuts,USA
Chukchi [ckt],67,-173,#C17965,Chukotko-Kamchatkan,Main Chukotko-Kamchatkan,Russia
Chulym [clw],54.32,89.55,#4E92A3,Turkic,Common Turkic,Russia
Chumash [boi],34.5,-120.25,#3AB099,Chumashan,South Chumashan,USA
Chumash_Barbareño [boi-2],34.46,-119.7,#34B395,Chumashan,South Chumashan,USA
Chumash_Cruzeño [veo-4],34.05,-119.86,#36B296,Chumashan,South Chumashan,USA
Chumash_Ineseño [inz],34.61,-120.09,#34B295,Chumashan,South Chumashan,USA
Chumash_Obispeño [veo-5],35.29,-120.67,#34B58E,Chumashan,North Chumashan,USA
Chumash_Purisimeño [veo-2],34.69,-120.43,#32B690,Chumashan,South Chumashan,USA
Chumash_Ventureño [veo],34.22,-118.72,#34AA8F,Chumashan,South Chumashan,USA
Chumash_Ventureño-Mitsqanaqan [veo-3],34.28,-119.23,#33AA91,Chumashan,South Chumashan,USA
Chumburung [ncu],8.15,-0.28,#5E62A4,Niger-Kongo,Atlantic-Congo,Ghana
Chung [scq],14.004,99.55,#707CB8,Austroasiatic,Pearic,Laos
Chungcheong_Korean [kor-6],35.83,127.15,#4D5F89,Korean,,Korea
Chuukese [chk],7.333,151.75,#A15C78,Oceanic,Micronesian,USA Federated States of Micronesia
Chuvash [chv],55.5,47.5,#7C6870,Turkic,Oghur,Russia
Chuwabu [chw],-17.36,37.1,#6C76B9,Niger-Kongo,Atlantic-Congo,Mozambique
Chuxnabán_Mixe [pxm],17,-96,#54686D,Totozoquean-Chitimacha,Totozoquean,Mexico
Ciacia [cia],-5.75,122.75,#8D6471,Malayo-Polynesian,Celebic,Indonesia-Sulawesi
Cicipu [awc],10.911,5.703,#228493,Niger-Kongo,Atlantic-Congo,Nigeria
Cijomvu [swh-11],-3.98,39.62,#6C91AE,Niger-Kongo,Atlantic-Congo,Tanzania
CiLuba [lua],-6,22,#4A648D,Niger-Kongo,Atlantic-Congo,Democratic Republic of the Congo
Cimbrian [cim],45.62,11.13,#4686B5,Indo-European,Germanic,Italy
Cisuundi [sdj],-5.56,12.19,#38738A,Niger-Kongo,Atlantic-Congo,Angola
Citak [tml],-5.509,139.218,#A6664E,Trans New Guinea,Asmat-Kamoro,Indonesia-Papua
Citumbuka [tum],-11,33.5,#5775A6,Niger-Kongo,Atlantic-Congo,Malawi
Coahuilteco [xcw],28,-100,#3EA06E,Coahuilteco,,USA
Cocama-Cocamilla [cod],-5,-74.3,#B67759,Tupian,Tupi-Guarani,Peru
Cochimi [coj],27.28,-112.89,#689F64,Yuman-Cochimi,Cochimi,Mexico
Coconucan [cca],2.55,-76.65,#B08469,Barbacoan,Northern Barbacoan,Colombia
Cocopa [coc],32.5,-115,#89AE6B,Yuman-Cochimi,Yuman,USA
Coeur d'Alene [crd],47.33,-117,#40D67E,Salish,Interior Salish,USA
Cofan [con],0.25,-77,#357780,Kofan,,Ecuador
Cog-rtse_rGyalrong-2 [jya-5],31.5,102,#518FAD,Tibeto-Burman,Na-Qiangic,China
Cognino [ita-12],45.61,7.36,#4E6FAB,Indo-European,Romance,Italy
Cogtse Gyarong [jya],32.1,100.6,#6294B5,Tibeto-Burman,Na-Qiangic,China
Col [liw],-3.3,102.86,#A8747C,Malayo-Polynesian,Malayo-Sumbawan,Indonesia-Sumatra
Colac [xxx-42],-38.33,143.5,#F6889B,Pama-Nyungan,Kulinic,Australia
Colloquial_Tamil [tam-7],9.23,78.12,#B5829D,Dravidian,South Dravidian,India
Columbian [col-2],48.22,-118.45,#4CDF75,Salish,Interior Salish,USA
Comacchiese [ita-31],44.7,12.18,#5569A2,Indo-European,Romance,Italy
Comanche [com],33.5,-101.5,#817244,Uto-Aztecan,Numic,USA
Comecrudo [xcm],26.09,-98.28,#8A8B47,Coahuiltecan,,Mexico
Comorian [wlc-2],-12.17,44.25,#3F8E8C,Niger-Kongo,Atlantic-Congo,Comoros
Comox [coo],49.75,-125,#49D576,Salish,Central Salish,Canada
Cone [adx-4],34.58,103.5,#3976CA,Tibeto-Burman,Bodic,China
Congjiang [kmc-2],25.752,108.91,#4281D9,Tai-Kadai,Kam-Tai,China
Coos [csz],43.5,-124.17,#33B372,Coos,,USA
Cora [crn],23.333,-99,#5A9677,Uto-Aztecan,Corachol,Mexico
Cora_Ixcatan [crn-2],20.88,-103.35,#879766,Uto-Aztecan,Corachol,Mexico
Cornish [cor],50.5,-4.5,#3F7185,Indo-European,Celtic,Britain
Corsican [cos],42.1,9.5,#88A295,Indo-European,Romance,France
Cosao [xxx-25],21.62,101.567,#336ED3,Tibeto-Burman,Lolo-Burmese,China
