name,latitude,longitude,color,family,subgroup,country
!Xoon [nmn],-24,21.5,#197BBB,Tuu,Hua,Botswana
’Weenhayek [mtp],-21.99,-63.6,#4DB191,Matacoan,Mataguayo II,Bolivia
||Ana [gnk],-22.2,22.4,#1F7582,Khoe,Khoe,Botswana
||Ani [hnh],-19.3,22.5,#278298,Khoe,Khoe,Botswana
||Gana [gnk-2],-19,22.5,#236289,Khoe,Khoe,Botswana
||Xekwi [xeg],-23,22,#2FA8A9,Tuu,!Kwi,Botswana
|Gwi [gwj],-22.435,21.654,#2770A7,Khoe,Khoe,Botswana
|Xam [xam],-30.34,21.82,#367BA2,Tuu,/Xam,South Africa
A'iwa [ash],-2,-74.5,#768B4E,A'iwa,,Peru
A'jië [aji],-21.342,165.459,#A383B2,Oceanic,Southern Oceanic,New Caledonia
Aari [aiw],6,36.6,#2C818F,Afro-Asiatic,Omotic,Ethiopia
Aashing [adi-10],28.99,94.9,#A87089,Tibeto-Burman,Macro-Tani,India
Abanyom [abm],6.499,8.647,#695AAC,Niger-Kongo,Atlantic-Congo,Nigeria
Abar [mij-3],6.59,10.26,#466FB7,Niger-Kongo,Atlantic-Congo,Cameroon
Abau [aau],-4,141.167,#674D5C,Sepik,Abau,Papua New Guinea
Abawiri [flh],-3.05,139.21,#354967,Lakes Plains,Eastern Lakes Plains,Indonesia-Papua
Abaza [abq],44.34,41.67,#2EEB74,Northwest Caucasus,Abaza-Abkhaz,Russia
Abduyi [pes-4],29.7,52.07,#4A815B,Indo-European,Indo-Iranian,Iran
Abelam [abt-2],-3.83,143.17,#C4837B,Ndu,Nuclear Ndu,Papua New Guinea
Abellen [abp],15.41,120.2,#A87258,Malayo-Polynesian,Philippines,Philippines
Abenaki_Western [abe],44,-72.25,#737250,Algic,Algonquian,USA
Aberdeenshire_English [sco-4],57.3,-2,#3F7980,Indo-European,Germanic,Britain
Abidji [abi],5.66,-4.58,#4F6397,Niger-Kongo,Atlantic-Congo,Côte d'Ivoire
Abinomn [bsa],-3,138.8,#6E6F4C,Abinomn,,Indonesia-Papua
Abipon [axb],-26,-61,#9D8554,Guaicuruan,Southern Guaicuruan,Argentina
Abkhaz [abk],43,41.03,#3CE371,Northwest Caucasus,Abaza-Abkhaz,Abkhazia
Abkhaz_Bzyp [ady-13],43.32,40.41,#31EC79,Northwest Caucasus,Abaza-Abkhaz,Abkhazia
Abkhaz_Sadz [ady-12],43.33,40.22,#3BE970,Northwest Caucasus,Abaza-Abkhaz,Abkhazia
Abron [abr],8.03,-2.8,#404B8B,Niger-Kongo,Atlantic-Congo,Ghana
Abruzzo [nap],42.66,13.7,#6684B4,Indo-European,Romance,Italy
Abua [abn],4.8,6.654167,#4D64B3,Niger-Kongo,Atlantic-Congo,Nigeria
Abui [abz],-8.417,124.6,#7B5563,Timor-Alor-Pantar,Alor-Pantar,Indonesia-NTT
Abujh_Maria [mrr-2],18.75,80.68,#B7826B,Dravidian,South-Central Dravidian,India
Abun [kgr],-0.833,132,#4A5C8C,West Papuan,Birds Head,Indonesia-Papua
Abure [abu],5.22,-3.64,#5B5DA1,Niger-Kongo,Atlantic-Congo,Côte d'Ivoire
Acatec [agu-2],15.7,-91.617,#539F65,Mayan,Core Mayan,Guatemala
Aceh_Lhokseumawe [ace-7],5.19,97.14,#6976C9,Malayo-Polynesian,Malayo-Sumbawan,Indonesia-Sumatra
Aceh_Pidie [ace-2],5.38,95.96,#7077C8,Malayo-Polynesian,Malayo-Sumbawan,Indonesia-Sumatra
Acehnese [ace],5.333,96.167,#6475C2,Malayo-Polynesian,Malayo-Sumbawan,Indonesia-Sumatra
Acehnese_Northeast [ace-6],4.62,97.62,#5A73BD,Malayo-Polynesian,Malayo-Sumbawan,Indonesia-Sumatra
Acehnese_South [ace-4],4.1,96.23,#5B71BD,Malayo-Polynesian,Malayo-Sumbawan,Indonesia-Sumatra
Acehnese_Southwest [ace-3],5.05,95.34,#5C71BC,Malayo-Polynesian,Malayo-Sumbawan,Indonesia-Sumatra
Acehnese_West [ace-5],5.47,95.26,#5970BD,Malayo-Polynesian,Malayo-Sumbawan,Indonesia-Sumatra
Achagua [aca],4.002,-72.814,#6C8657,Arawak,Northern Maipuran,Colombia
Achang_Lianghe [acn-2],24.8,98.3,#4F81D8,Tibeto-Burman,Lolo-Burmese,China
Achang_Longchuan [can-2],24.25,97.833,#4488E8,Tibeto-Burman,Lolo-Burmese,China
Achang_Luxi [can-3],24.527,103.764,#446CC3,Tibeto-Burman,Lolo-Burmese,China
Aćharêtâʹ [phl-2],35.4,71.75,#5581BF,Indo-European,Indo-Iranian,Afghanistan
Aché [guq],-25.25,-55.17,#7C6165,Tupian,Tupi-Guarani,Paraguay
Achi [acr],15.25,-90.5,#669559,Mayan,Core Mayan,Guatemala
Achuar [acu],-3,-76,#9A7E54,Jivaroan,Shuaric,Peru
Achumawi [acv],41.5,-121,#45B183,Palaihnihan,,USA
Acipa [acp],10.71,6.01,#1E9097,Niger-Kongo,Atlantic-Congo,Nigeria
Acoma [kjq-2],34.92,-107.58,#34A3B4,Keresan,Western Keresan,USA
Acooli [ach],3.293,32.871,#9270B6,Nilo-Saharan,Eastern Sudanic,Uganda
Adamawa Fulfulde [fub],8.9,15.84,#5C6DB0,Niger-Kongo,Atlantic-Congo,Cameroon
Adang [adn],-8.163,124.456,#8A6162,Timor-Alor-Pantar,Alor-Pantar,Indonesia-NTT
Adangme [ada],5.8,0.33,#4964AE,Niger-Kongo,Atlantic-Congo,Ghana
Adim [yay],5.81,8.03,#417279,Niger-Kongo,Atlantic-Congo,Nigeria
Adyghe [ady],44.1,39.08,#30D96F,Northwest Caucasus,Ubykh-Circassian,Russia
Adyghe_Abzakh [ady-11],44.7,38.9,#2ADB70,Northwest Caucasus,Ubykh-Circassian,Russia
Adyghe_Besleney [ady-5],44.7,40.75,#2CDF71,Northwest Caucasus,Ubykh-Circassian,Russia
Adyghe_Black Sea Shapsugh [ady-14],44.375,38.4,#20EB7F,Northwest Caucasus,Ubykh-Circassian,Russia
Adyghe_Bzhedug [ady-6],45,39.3,#23E17E,Northwest Caucasus,Ubykh-Circassian,Russia
Adyghe_Cherkess [ady-9],44.25,42.05,#2FDC6E,Northwest Caucasus,Ubykh-Circassian,Russia
Adyghe_Hakuchi [ady-8],44.88,38,#2FDC6E,Northwest Caucasus,Ubykh-Circassian,Russia
Adyghe_Natukai [ady-3],44.4,38.35,#2AE973,Northwest Caucasus,Ubykh-Circassian,Russia
Adyghe_Shapsugh [ady-2],44.3,39,#20EC7F,Northwest Caucasus,Ubykh-Circassian,Russia
Adyghe_Temirgoy [ady-10],45.125,39.83,#30DA6F,Northwest Caucasus,Ubykh-Circassian,Russia
Adyghe_Uzunyayla [ady-4],44.25,38.77,#2FDE71,Northwest Caucasus,Ubykh-Circassian,Russia
Adynyamathanha [adt],-31,139.5,#F08F9B,Pama-Nyungan,Thura-Yura,Australia
Adyukru [adj],5.38,-4.53,#755DB4,Niger-Kongo,Atlantic-Congo,Ghana
Adzera [azr],-6.417,146.25,#776B63,Oceanic,Western Oceanic,Papua New Guinea
Aeka [aez],-8.601,147.994,#6F5868,Trans New Guinea,Oro-Wharton,Papua New Guinea
Afar [aar],11.85,42,#CC7067,Afro-Asiatic,Cushitic,Djibouti
Afitti [aft-2],12.44,31,#8A629C,Nilo-Saharan,Eastern Sudanic,Sudan
Afrikaans [afr],-33.9,18.5,#6F6083,Indo-European,Germanic,South Africa
Afshar [azj-2],37.475,57.33,#4F8E84,Turkic,Common Turkic,Iran
Agabag [mvv-3],3.965,117.095,#B16E82,Malayo-Polynesian,North Borneo,Indonesia-Kalimantan
Agarabi [agd],-6.25,145.917,#8A4A67,Trans New Guinea,Morobe-Eastern Highlands,Papua New Guinea
Agatu [agc],7.98,7.72,#5577B4,Niger-Kongo,Atlantic-Congo,Nigeria
Aghem [agq],6.39,10.12,#3868D2,Niger-Kongo,Atlantic-Congo,Cameroon
Aghu [ahh],-6.333,140,#545A53,Trans New Guinea,Awyu-Dumut,Indonesia-Papua
Aghu-Tharrnggala [gtu],-13.73,142.43,#D081AD,Pama-Nyungan,Paman,Australia
Aghul_Huppuq’ [agx-6],41.836,47.6602,#2FA176,Nakh-Daghestanian,Lezgic,Russia
Aglla [idu-3],6.8,7.95,#5885C8,Niger-Kongo,Atlantic-Congo,Nigeria
Agöb [kit],-9.09,142.53,#A06B93,South New Guinea,East Morehead,Papua New Guinea
Agta [agt],17.967,121.833,#836760,Malayo-Polynesian,Philippines,Philippines
Aguaruna [agr],-5.25,-78,#8C7D45,Jivaroan,Aguaruna,Peru
Aguatec [agu],15.4,-91.4,#519865,Mayan,Core Mayan,Guatemala
Agul [agx],41.78,47.59,#349F70,Nakh-Daghestanian,Lezgic,Russia
Agul_Burkixan [agx-2],41.78,47.6,#34AB78,Nakh-Daghestanian,Lezgic,Russia
Agul_Burshag [agx-3],41.86,47.62,#39B074,Nakh-Daghestanian,Lezgic,Russia
Agul_Fite [agx-4],41.79,47.59,#31AE7F,Nakh-Daghestanian,Lezgic,Russia
Agul_Richa [agx-5],41.78,47.61,#2FB67A,Nakh-Daghestanian,Lezgic,Russia
Agusan [mbb-2],8.68,125.79,#A06F5A,Malayo-Polynesian,Philippines,Philippines
Agusan_Manobo [msm],8.63,125.74,#A06B64,Malayo-Polynesian,Philippines,Philippines
Agutaynen [agn],11.15,120.95,#B47E60,Malayo-Polynesian,Philippines,Philippines
Agwamin [wmi],-16.986,143.001,#DF768E,Pama-Nyungan,Paman,Australia
Ahamb [ahb],-16.507,167.703,#6E6598,Oceanic,Southern Oceanic,Vanuatu
Ahan [ahn],7.44,6.01,#4D69A5,Niger-Kongo,Atlantic-Congo,Nigeria
Ahanta [aha],4.85,-1.95,#4D6BA4,Niger-Kongo,Atlantic-Congo,Ghana
Ahi [yix],24.4,103.4,#2979C5,Tibeto-Burman,Lolo-Burmese,China
Ahom [aho],25,95,#4C5DAF,Tai-Kadai,Kam-Tai,India
Ahtna [aht],62,-145,#36926F,Dene-Yeniseic,Na-Dene,USA-Alaska
Ai-cham_Diwo [aih],25.8,107,#356DD4,Tai-Kadai,Kam-Tai,China
Aikaná [tba],-12.1,-60.6,#54667D,Aikaná,,Brazil
Aimaq [aiq],35.28,59.18,#4B895D,Indo-European,Indo-Iranian,Iran
Ainu [ain],43.5,142,#785E50,Ainu,,Japan
Ainu_Kuril [ain-2],46.5,151.5,#8E6946,Ainu,,Japan
Ainu_Sakhalin [ain-3],49.07,142.03,#79604C,Ainu,,Japan
Airoran [air],-1.7,138.15,#837247,Kwerba,Nuclear Kwerba,Indonesia-Papua
Aisi [mmq],-5.35,145.15,#9E615F,Trans New Guinea,Madang,Papua New Guinea
Ait_Seghrouchen [tzm-2],33,-5,#5AB05B,Afro-Asiatic,Berber,Morocco
Aita_Rotokas [roo-2],-6,155.08,#A75D52,North Bougainville,Rotokas,Papua New Guinea-Bougainville
Aiton [aio-2],24,94,#595ABB,Tai-Kadai,Kam-Tai,India
Aitutaki [rar-2],-18.872,-159.782,#AA6251,Oceanic,Central Pacific,Cook Islands
Aiwoo [nfl],-10.5,166.5,#7D87A5,Oceanic,Te Motu,Solomons_East
Aizi [ahp],5.25,-4.5,#4F66A5,Niger-Kongo,Atlantic-Congo,Côte d'Ivoire
Aja [ajg],7.07,1.65,#5182CC,Niger-Kongo,Atlantic-Congo,Benin
Ajumbu [muc-2],6.55,10.27,#346AC4,Niger-Kongo,Atlantic-Congo,Cameroon
Aka [axk],3.46,15.73,#2E5DA1,Ubangian,,Central African Republic
Aka [hru-2],27.2,92.9,#33939F,Tibeto-Burman,Hrusish,India
Akabea [abj-2],12.38,92.78,#D0799C,Andaman,,India_Andaman-Nicobars
Akan [aka],6.5,-1.25,#346B80,Niger-Kongo,Atlantic-Congo,Ghana
Akaselem [aks],8.89,1.37,#605CAE,Niger-Kongo,Atlantic-Congo,Togo
Akawaio [ake],6,-59.5,#89644F,Cariban,Venezuelan,Guyana
Ake [aik],8.6,8.76,#3D5EA6,Niger-Kongo,Atlantic-Congo,Nigeria
Akei [tsr],-15.49,166.75,#996D4D,Oceanic,Southern Oceanic,Vanuatu
Akha [ahk],20.3,99.6,#356192,Tibeto-Burman,Lolo-Burmese,Thailand
Akha_Akhe [ahk-8],21.916,100.465,#356FC7,Tibeto-Burman,Lolo-Burmese,Thailand
Akha_Buli [ahk-4],21.2,101.15,#3A6BC2,Tibeto-Burman,Lolo-Burmese,Laos
Akha_Chicho [ahk-2],20.92,101.4,#3A6BCF,Tibeto-Burman,Lolo-Burmese,Laos
Akha_Senchai [ahk-3],26.9,99,#306DB7,Tibeto-Burman,Lolo-Burmese,Myanmar
Akie [oki],-5.43,37.19,#7C5DB9,Nilo-Saharan,Eastern Sudanic,Kenya
Aklanon [akl],11.58,122.33,#9C775C,Malayo-Polynesian,Philippines,Philippines
Akosse [bss],5,9.7,#465C99,Niger-Kongo,Atlantic-Congo,Cameroon
Akoye [miw-2],-7.645,145.65,#61476B,Trans New Guinea,Morobe-Eastern Highlands,Papua New Guinea
Akpes [ibe],7.5,5.96,#466794,Niger-Kongo,Atlantic-Congo,Nigeria
Akuntsu [aqz],-12.74,-60.8,#B46958,Tupian,Tupari,Brazil
Akurio [ako],3.0132,-55.6434,#A5674D,Cariban,Guianan Carib,Suriname
Akwa [akw],-0.005,15.612,#415AA8,Niger-Kongo,Atlantic-Congo,Congo
Akweya [akf],7.33,8.02,#7988CE,Niger-Kongo,Atlantic-Congo,Nigeria
Akye-Gnan [ati-2],5.48,-4.09,#1D5BB0,Niger-Kongo,Atlantic-Congo,Côte d'Ivoire
Alaaba [alw],7.31,38.09,#447F77,Afro-Asiatic,Cushitic,Ethiopia
Alaala [nrz],-9,146.667,#A06064,Oceanic,Western Oceanic,Papua New Guinea
Alaba-K'abeena [alw-2],7.39,38.17,#447692,Afro-Asiatic,Cushitic,Ethiopia
Alabama [akz],32.7,-86.1,#6A714C,Muskogean,Alabama-Koasati,USA
Alacalufe_Central [alc-2],-53.528,-70.9573,#667A48,Alaculufan,,Chile
Alacalufe_Southern [alc-3],-55.2,-69.4,#688254,Alaculufan,,Chile
Alagwa [wbj],-4.64,35.72,#59B77D,Afro-Asiatic,Cushitic,Tanzania
Alamblak [amp],-4.667,143.25,#796E49,Sepik,Sepik Hill,Papua New Guinea
Alangan-Mangyan [alj],13.1,121.02,#A36F5C,Malayo-Polynesian,Philippines,Philippines
Alas_Batak [btz],2.64,98,#8F677A,Malayo-Polynesian,Batak-Barrier Islands,Indonesia-Sumatra
Alawa [alh],-15.75,134.333,#E8869B,Macro-Gunwinygu,Marran,Australia
Albanian_Cham [als-4],39.6,20.8,#5488A7,Indo-European,Albanian,Greece
Albanian_Gheg [aln-2],42.43,20.73,#457898,Indo-European,Albanian,Albania
Albanian_Gheg_Kosovo [aln],42.58,21,#4C8570,Indo-European,Albanian,Kosovo
Albanian_Lab [als-5],40.17,19.83,#4E82AB,Indo-European,Albanian,Albania
Albanian_Mandritsa [aln-5],41.38,26.13,#547FAD,Indo-European,Albanian,Bulgaria
Albanian_Tosk [als],40.5,20,#4987B3,Indo-European,Albanian,Albania
Albanian_Upper_Reka [aln-4],41.72,20.57,#4A8A9A,Indo-European,Albanian,Montenegro
Albanian_Vaccarizzo [als-6],39.58,16.43,#5397B2,Indo-European,Albanian,Italy
Albese [ita-14],44.7,8.04,#7469AF,Indo-European,Romance,Italy
Alekano [gah-2],-6,145.4,#565C5F,Trans New Guinea,Morobe-Eastern Highlands,Papua New Guinea
Aleut [ale],54,-166,#66B188,Eskimo-Aleut,Aleut,USA-Alaska
Aleut_Atkan [ale-2],52,-174,#66B37D,Eskimo-Aleut,Aleut,USA-Alaska
Aleut_Attuan [ale-3],52.85,172.9,#69B482,Eskimo-Aleut,Aleut,USA-Alaska
Aleut_Eastern [ale-4],54.75,-164,#68B37D,Eskimo-Aleut,Aleut,USA-Alaska
Aleut_Unangas [ale-5],55.3,166,#A7A671,Eskimo-Aleut,Aleut,USA-Alaska
Algherese [cat-3],40.55,8.32,#7C7EAE,Indo-European,Romance,Italy-Sardinia
Algonquin [alq],46,-82,#597149,Algic,Algonquian,Canada
Ali [ykm],-3.17,142.25,#BD746E,Oceanic,Western Oceanic,Papua New Guinea
Alladian [ald],5.17,-4.33,#3C6D9A,Niger-Kongo,Atlantic-Congo,Côte d'Ivoire
Allentiac [qbt],-32,-66,#82875B,Huarpe,,Argentina
Alngith [aid],-12.5,142.17,#CB8BA9,Pama-Nyungan,Paman,Australia
Alo-Teqel [tql-2],-13.8,167.47,#A0716B,Oceanic,Southern Oceanic,Vanuatu
Alor [aol],-8.245,124.412,#8B6B5E,Malayo-Polynesian,Timoric,Indonesia-NTT
Alsatian [gsw-2],48.32,7.44,#4B7797,Indo-European,Germanic,France
Alsea [aes],44.67,-123.93,#39CE77,Alsean,,USA
Altai [alt],51,87,#56928F,Turkic,Common Turkic,Russia
Altai_Kumandy [atv],51.3,87.7,#5F667F,Turkic,Common Turkic,Russia
Alumbis_Murut [mvv],4.799,115.496,#AA7063,Malayo-Polynesian,North Borneo,Malaysia-Borneo
Alune [alp],-3.167,128.333,#7C6E44,Malayo-Polynesian,Central Maluku,Indonesia-Maluku-north
Alur [alz],2.5,31.25,#566CB8,Nilo-Saharan,Eastern Sudanic,Uganda
Alutiiq [ems],58.015,-152.765,#67BD6F,Eskimo-Aleut,Eskimo,USA-Alaska
Alyawarr [aly],-24.6,134.5,#EE9BAC,Pama-Nyungan,Arandic,Australia
Alyutor [alr],61,165,#AF9A64,Chukotko-Kamchatkan,Main Chukotko-Kamchatkan,Russia
Ama [amm],-4.168,141.671,#58526F,Left May,,Papua New Guinea
Amahai_Soahuku [amq],-3.332,128.949,#A76D53,Malayo-Polynesian,Central Maluku,Indonesia-Maluku-north
Amahuaca [amc],-10.8,-73.5,#5B7A4F,Panoan,Southern Panoan,Peru
Amaimon [ali],-5.193,145.325,#A06D61,Trans New Guinea,Madang,Papua New Guinea
Amam [wer-2],-7.85,146.95,#A46254,Trans New Guinea,Oro-Wharton,Papua New Guinea
Amami_Ryukyu [ams],28,129,#3F7295,Japonic,Ryukyuan,Japan-Ryukyu
Amanab [amn],-3.5,141.167,#875B62,Trans New Guinea,Border,Papua New Guinea
Amanuban [aoz-2],-9.82,124.47,#7A6B43,Malayo-Polynesian,Timoric,Indonesia-NTT
Amanutun [aoz-4],-9.69,124.83,#7E784D,Malayo-Polynesian,Timoric,Indonesia-NTT
Amara [aie],-5.533,148.667,#AE6072,Oceanic,Western Oceanic,Papua New Guinea-Bismarcks
Amarakaeri [amr],-12.6938,-70.3235,#8D6756,Harakmbet,Harakmbut,Peru
Amarasi [aaz],-10.08,124.33,#7F6F48,Malayo-Polynesian,Timoric,Indonesia-NTT
Amba_Nembao [utp],-11.27,166.48,#736970,Oceanic,Te Motu,Solomons_East
Ambae_West [omb],-15.5,167.75,#9C7161,Oceanic,Southern Oceanic,Vanuatu
Ambai [amk],-1.917,136.533,#776449,Malayo-Polynesian,Eastern Malayo-Polynesian,Indonesia-Papua
Ambel [xmt-2],-0.05,130.7,#805C6B,Malayo-Polynesian,Eastern Malayo-Polynesian,Indonesia-Papua
Ambelau [mhs-4],-3.89,127.205,#865D7B,Malayo-Polynesian,Central Maluku,Indonesia-Maluku-north
Ambele [ael],5.94,9.62,#4665B3,Niger-Kongo,Atlantic-Congo,Cameroon
Amblong [alm],-15.497,166.926,#866754,Oceanic,Southern Oceanic,Vanuatu
Ambonese Malay [abs],-3.7,128.2,#B4747F,Malayo-Polynesian,Malayo-Sumbawan,Indonesia-Maluku-north
Ambrym_Southeast [tvk-2],-16.33,168.08,#876563,Oceanic,Southern Oceanic,Vanuatu
Ambulas [abt],-3.75,143.083,#9F6582,Ndu,Nuclear Ndu,Papua New Guinea
Amdo [adx],36,94,#5C94B9,Tibeto-Burman,Bodic,China
Ameland [frs-3],53.45,5.77,#4B6186,Indo-European,Germanic,Netherlands
Amele_Haija [aey],-5.25,145.75,#736446,Trans New Guinea,Madang,Papua New Guinea
Amele_Huar [aey-3],-5.287,145.718,#82644B,Trans New Guinea,Madang,Papua New Guinea
Amele_Jagahala [aey-2],-5.264,145.642,#796547,Trans New Guinea,Madang,Papua New Guinea
Amfo'an [aoz-3],-9.45,123.9,#707643,Malayo-Polynesian,Timoric,Indonesia-NTT
Amharic [amh],10,38,#4C8679,Afro-Asiatic,Semitic,Ethiopia
Ami [amy],-14,130,#DC767B,Western Daly,Maranunggu-Ame-Manda,Australia
Amis [ami],23.333,121.333,#918D53,Austronesian,East Formosan,Taiwan
Amo [amo],10.33,8.67,#4C659B,Niger-Kongo,Atlantic-Congo,Nigeria
Amonap / Apalakiri / Matipu [mzo],-12.05,-53.4,#8E7361,Cariban,Nahukwa,Brazil
Amoy [nan],24.5,118,#2B508A,Tibeto-Burman,Sinitic,China
Ampale [apz],-6.753,146.107,#5E5D90,Trans New Guinea,Morobe-Eastern Highlands,Papua New Guinea
Ampibabo [law-2],-0.46,120.06,#B46F6A,Malayo-Polynesian,Celebic,Indonesia-Sulawesi
Amu [swh-9],-2.27,40.9,#6093A3,Niger-Kongo,Atlantic-Congo,Tanzania
Amuesha [ame],-10,-73,#80AA7E,Arawak,Western Maipuran,Peru
Amundava [adw],-10.9942,-63.0642,#9B6156,Tupian,Tupi-Guarani,Brazil
Amurdak [amg],-12.022,132.892,#FC8C98,Iwaidjan,Amurdak,Australia
Amuzgo [amu],16.83,-98,#3B69C0,Otomanguean,Eastern Otomanguean,Mexico
Amuzgo_Huixtepec [amu-2],16.5,-98.1,#4B6C6B,Otomanguean,Eastern Otomanguean,Mexico
Amuzgo_San_Pedro [azg],16.85,-98,#495D76,Otomanguean,Eastern Otomanguean,Mexico
Amuzgo_Xochistlahuaca [amu-3],16.79,-98.24,#486FB7,Otomanguean,Eastern Otomanguean,Mexico
Amwi [aml],25.209,92.068,#4764A1,Austroasiatic,Khasi-Palaung,India
Anaguta [nar],9.964,8.731,#5A72A6,Niger-Kongo,Atlantic-Congo,Nigeria
Anakalang [akg],-9.67,119.67,#9E677C,Malayo-Polynesian,Flores-Sawu-Sumba,Indonesia-NTT
Anal [anm],24.33,93.99,#587FC1,Tibeto-Burman,Kuki-Chin-Naga,India
Anamuxra [imi],-4.667,145,#727945,Trans New Guinea,Madang,Papua New Guinea
Andalusian [spa-4],37.5,-3.6,#73645D,Indo-European,Romance,Spain
Andi [ani],42.79,46.27,#31A57C,Nakh-Daghestanian,Avar-Andi,Russia
Andi_Tad-Magitil [ani-2],42.75,46.25,#2FA17A,Nakh-Daghestanian,Avar-Andi,Russia
Andoa [anb],-2.9,-76.4051,#7C9B5E,Zaparoan,Iquito-Arabela,Peru
Andoké [ano],0,-72,#455357,Andoké,,Colombia
Anejom [aty],-20.25,169.833,#818B9B,Oceanic,Southern Oceanic,Vanuatu
Anem [anz],-5.667,149,#9D5D7C,Anem,,Papua New Guinea-Bismarcks
Aneme_Wake [aby],-9.733,148.52,#7C593D,Southeast Papuan,Owen Stanley Ranges,Papua New Guinea
Anfillo [myo],8.57,34.65,#517E61,Afro-Asiatic,Omotic,Ethiopia
Anfu [gan-21],27.38,114.62,#3A5BCD,Tibeto-Burman,Sinitic,China
Angaatiha [agm],-7.22,146.25,#BB6872,Trans New Guinea,Morobe-Eastern Highlands,Papua New Guinea
Angal [age],-6,143.6,#756260,Trans New Guinea,Engan,Papua New Guinea
Angal_Heneng [akh],-6.13,143.42,#80575A,Trans New Guinea,Engan,Papua New Guinea
Angali [pes-2],29.75,50.96,#4A9272,Indo-European,Indo-Iranian,Iran
Angami [njm],25.667,94.5,#628ED2,Tibeto-Burman,Kuki-Chin-Naga,India
Angas [anc],9.75,8.75,#3C75AC,Afro-Asiatic,Chadic,Nigeria
Anggor [agg],-3.667,141.167,#745D5C,Trans New Guinea,Border,Papua New Guinea
Anggreso [kwe-2],-2.17,138.25,#937249,Kwerba,Nuclear Kwerba,Indonesia-Papua
Angkamuthi [avm],-11.5,142.25,#CB849B,Pama-Nyungan,Paman,Australia
Angkola_Batak [akb],1.518,99.531,#B06E77,Malayo-Polynesian,Batak-Barrier Islands,Indonesia-Sumatra
Anguthimri [awg],-12.333,141.833,#A980BD,Pama-Nyungan,Paman,Australia
Ani_Phowa [ypn],23.6,103.3,#1688B9,Tibeto-Burman,Lolo-Burmese,China
Anib [kni],9.55,8.6,#3062A8,Niger-Kongo,Atlantic-Congo,Nigeria
Anii [blo],9.003,1.669,#5667C3,Niger-Kongo,Atlantic-Congo,Benin
Anindilyagwa [aoi],-14,136.5,#EC9DA7,Macro-Gunwinygu,East Arnhem,Australia
Anindilyagwa_East [aoi-2],-13.86,136.81,#E095B1,Macro-Gunwinygu,East Arnhem,Australia
Aniwa [fut-2],-19.256,169.6,#965F4C,Oceanic,Central Pacific,Vanuatu
Anjam [boj],-5.441,145.737,#B47383,Trans New Guinea,Madang,Papua New Guinea
Ankave [aak],-7.137,145.744,#A56452,Trans New Guinea,Morobe-Eastern Highlands,Papua New Guinea
Anlong [pcc-6],25.1,105.44,#4581CD,Tai-Kadai,Kam-Tai,China
Anmatyerr_East [amx],-22.256,131.5,#F98DA1,Pama-Nyungan,Arandic,Australia
Anmatyerr_West [amx-2],-21,135,#FF948F,Pama-Nyungan,Arandic,Australia
Anong [nun],27.2,98.8,#4D85E3,Tibeto-Burman,Nungish,China
Ansus [and],-1.73,135.806,#82624A,Malayo-Polynesian,Eastern Malayo-Polynesian,Indonesia-Papua
Anta [tci-3],-8.65,141.52,#696B63,South New Guinea,East Morehead,Indonesia-Papua
Antakarinya [ant],-27.11,134.85,#F7868B,Pama-Nyungan,Wati,Australia
Antakirinya [ant-2],-27.13,134.83,#F3878C,Pama-Nyungan,Wati,Australia
Antekerrepinhe [adg],-22.52,137.34,#EE93B2,Pama-Nyungan,Arandic,Australia
Antioquian [xxx-107],7,-73,#7D624D,Chibchan,Core Chibchan,Colombia
Antwerps [nld-2],51.22,4.4,#4E7599,Indo-European,Germanic,Belgium
Añú [pbg],11,-71.62,#8B6350,Arawak,Northern Maipuran,Venezuela
Anuak [anu],7.18,34.097,#B0649C,Nilo-Saharan,Eastern Sudanic,South Sudan
Anufo [cko],10.218,0.33,#6659A3,Niger-Kongo,Atlantic-Congo,Ghana
Anus [auq],-2.13,139.51,#895D58,Oceanic,Western Oceanic,Indonesia-Papua
Anuta [aud],-11.611,169.85,#9C5B4C,Oceanic,Central Pacific,Solomons_East
Anyi [gan-18],28.84,115.6,#4360C5,Tibeto-Burman,Sinitic,China
Anyin [any],5.9,-2.9,#47576C,Niger-Kongo,Atlantic-Congo,Côte d'Ivoire
Anywa [anu-2],7.3,33,#B066AF,Nilo-Saharan,Eastern Sudanic,South Sudan
Aoheng [pni],1.025,114.175,#9D5D71,Malayo-Polynesian,North Borneo,Indonesia-Kalimantan
Aore [aor],-15.577,167.181,#9E676B,Oceanic,Southern Oceanic,Vanuatu
Apache_Western [apw],33.9,-109.55,#289571,Dene-Yeniseic,Na-Dene,USA
Apalachee [xap],30.04,-84.17,#867D45,Muskogean,Alabama-Koasati,USA
Apalai [apy],0,-54,#7B6A44,Cariban,Apalai,Brazil
Apali [ena],-5.088,145.017,#7C715B,Trans New Guinea,Madang,Papua New Guinea
Apatani [apt],27.4,93.8,#6361B4,Tibeto-Burman,Macro-Tani,India
Apiaká [api],-7.9484,-57.7365,#9B6057,Tupian,Tupi-Guarani,Brazil
Apinaye [apn],-6.25,-48,#6C5693,Macro-Je,Je,Brazil
Apma [app],-15.775,168.158,#73676A,Oceanic,Southern Oceanic,Vanuatu
Apma_Suru Kavian [app-2],-15.61,168.14,#7B6975,Oceanic,Southern Oceanic,Vanuatu
Apurinã [apu],-7.26,-64.8,#886F4C,Arawak,Southern Maipuran,Brazil
Apurinã-2 [apu-2],-5.63,-63.17,#8B7650,Arawak,Southern Maipuran,Brazil
Aputai [apx],-7.888,126.505,#876D4B,Malayo-Polynesian,Timoric,Indonesia-NTT
Arabana [ard],-28,137,#FB8E9B,Pama-Nyungan,Karnic,Australia
Arabela [arl],-2,-75.17,#7A7049,Zaparoan,Iquito-Arabela,Peru
Arabic [arb],30,42,#5FB056,Afro-Asiatic,Semitic,Saudi Arabia
Arabic_Abéché [ayl-4],13.83,20.83,#5DB886,Afro-Asiatic,Semitic,Chad
Arabic_Abha [acw-2],18.22,42.51,#4D9E55,Afro-Asiatic,Semitic,Saudi Arabia
Arabic_Afghanistan [acm-3],36.7,67.12,#65954F,Afro-Asiatic,Semitic,Afghanistan
Arabic_Algerian [arq],36.7,3.1,#979856,Afro-Asiatic,Semitic,Algeria
Arabic_Andalusian [xaa],35.767,-5.8,#50A65C,Afro-Asiatic,Semitic,Spain
Arabic_Attuwair [acw-3],29.9,40.1,#5ABB70,Afro-Asiatic,Semitic,Saudi Arabia
Arabic_Baghdad [acm-4],33.33,44.38,#5AA24E,Afro-Asiatic,Semitic,Iran
Arabic_Bareqi [acw-7],18.93,41.94,#61AA52,Afro-Asiatic,Semitic,Saudi Arabia
Arabic_Basra [acm],30.5,47.825,#4BB76A,Afro-Asiatic,Semitic,Iraq
Arabic_Bukhara [abh],39.76,64.42,#5F9955,Afro-Asiatic,Semitic,Uzbekistan
Arabic_Chad [shu-3],14,19,#5F9065,Afro-Asiatic,Semitic,Chad
Arabic_Chowa [shu-4],12.5,14.5,#5D8A5F,Afro-Asiatic,Semitic,Nigeria
Arabic_Coastal-Dhofari [acx],20.7,58.2,#4B9B55,Afro-Asiatic,Semitic,Oman
Arabic_Cypriot [acy],34.343,33.011,#4F9160,Afro-Asiatic,Semitic,Cyprus
Arabic_Egyptian [arz],30,30,#4F9253,Afro-Asiatic,Semitic,Egypt
Arabic_Faifa [jye-3],17.25,43.1,#4EA461,Afro-Asiatic,Semitic,Yemen
Arabic_Fezzan [ayl-3],26.33,13.43,#66C066,Afro-Asiatic,Semitic,Libya
Arabic_Gulf [afb],24,54,#4BA763,Afro-Asiatic,Semitic,United Arab Emirates
Arabic_Hadhrami_coast [jye-5],14.95,50.34,#649F50,Afro-Asiatic,Semitic,Yemen
Arabic_Hadhrami_wadi [jye-6],16.05,49,#5FA251,Afro-Asiatic,Semitic,Yemen
Arabic_Harb [acw],25.81,42.87,#3AA26B,Afro-Asiatic,Semitic,Saudi Arabia
Arabic_Hassaniya [mey],16.6,-7.25,#69B370,Afro-Asiatic,Semitic,Mauritania
Arabic_Hejazi [acw-4],21.543,41.173,#499858,Afro-Asiatic,Semitic,Saudi Arabia
Arabic_Hejazi_Al'Ula [acw-5],26.627,37.917,#4C9655,Afro-Asiatic,Semitic,Saudi Arabia
Arabic_Hejazi_Badr [acw-8],23.78,38.79,#519355,Afro-Asiatic,Semitic,Saudi Arabia
Arabic_Ilbahariyya [arz-2],28.35,28.93,#58A352,Afro-Asiatic,Semitic,Egypt
Arabic_Jijel [ary-3],36.821,5.75,#9A9755,Afro-Asiatic,Semitic,Algeria
Arabic_Jordanian [ajp-5],32,36,#3CA25C,Afro-Asiatic,Semitic,Jordan
Arabic_Judeo-Tunisian [ajt],33.87,10.85,#51B16B,Afro-Asiatic,Semitic,Tunisia
Arabic_Khawetna [arb-3],36.42,41.225,#55B56B,Afro-Asiatic,Semitic,Turkey
Arabic_Khuzestan [acm-2],31.33,48.69,#4AA25D,Afro-Asiatic,Semitic,Iran
Arabic_Lebanese [apc-2],33.883,35.502,#88754C,Afro-Asiatic,Semitic,Lebanon
Arabic_Levantine_al-Karak [ajp-10],31.2,35.7,#4A9359,Afro-Asiatic,Semitic,Jordan
Arabic_Levantine_Amman [ajp-9],31.9,35.9,#4A9359,Afro-Asiatic,Semitic,Jordan
Arabic_Levantine_Homs [ajp-7],34.7,36.7,#4E9256,Afro-Asiatic,Semitic,Syria
Arabic_Levantine_Jerusalem [ajp-8],31.8,35.2,#518C52,Afro-Asiatic,Semitic,Israel
Arabic_Levantine_Northern_coast [ajp-11],34.9,35.9,#5C8D50,Afro-Asiatic,Semitic,Syria
Arabic_Levantine_Northern_inland [ajp-12],33.1,35.7,#539054,Afro-Asiatic,Semitic,Syria
Arabic_Levantine_Outer-south [ajp-14],31.3,34.6,#658F51,Afro-Asiatic,Semitic,Israel
Arabic_Levantine_Southern [ajp-13],31.7,34.9,#639C55,Afro-Asiatic,Semitic,Israel
Arabic_Libyan [ayl],32,20.25,#3FA060,Afro-Asiatic,Semitic,Libya
Arabic_Libyan_Western [ayl-2],32.5,13,#54A455,Afro-Asiatic,Semitic,Libya
Arabic_Mardin [apc-3],37.363,40.91,#47A462,Afro-Asiatic,Semitic,Turkey
Arabic_Mauritanian [ary-2],18.083,-15.986,#A0A67A,Afro-Asiatic,Semitic,Mauritania
Arabic_Mesopotamian [acm-5],33,44,#55A550,Afro-Asiatic,Semitic,Israel
Arabic_Moroccan [ary],34,-7,#65B259,Afro-Asiatic,Semitic,Morocco
Arabic_Muscat [acx-2],23.63,58.55,#4CA959,Afro-Asiatic,Semitic,Oman
Arabic_Najdi [acw-6],23,45.5,#579E54,Afro-Asiatic,Semitic,Saudi Arabia
Arabic_Negev [ajp-15],31.386,34.758,#51AD5C,Afro-Asiatic,Semitic,Syria
Arabic_Omani [acx-3],23.589,58.556,#429563,Afro-Asiatic,Semitic,Oman
Arabic_Omani_Shawawi [acx-4],22.92,57.79,#549C58,Afro-Asiatic,Semitic,Syria
Arabic_Oran [arq-2],35.7,-0.63,#54AA60,Afro-Asiatic,Semitic,Algeria
Arabic_Palestinian_Urban [ajp-3],31.52,34.45,#4A9660,Afro-Asiatic,Semitic,Palestine
Arabic_Qatari [afb-3],25.3,51.52,#52A964,Afro-Asiatic,Semitic,Qatar
Arabic_Sa'idi [aec],25,32.75,#709E4A,Afro-Asiatic,Semitic,Egypt
Arabic_Sason [arb-2],38.333,41.42,#52A174,Afro-Asiatic,Semitic,Turkey
Arabic_Saudi [ars],24.48,40,#4C9855,Afro-Asiatic,Semitic,Saudi Arabia
Arabic_Sudanese [apd-2],15.5,32.56,#3C9865,Afro-Asiatic,Semitic,Sudan
Arabic_Syrian [apc],33,37,#4DB16C,Afro-Asiatic,Semitic,Syria
Arabic_Ta'izzi_Adeni [acq],11.502,43,#76B054,Afro-Asiatic,Semitic,Djibouti
Arabic_Tillo [arb-4],37.95,42.013,#4DBA7E,Afro-Asiatic,Semitic,Turkey
Arabic_Traras-Msirda [ary-4],35.18,-1.65,#999152,Afro-Asiatic,Semitic,Algeria
Arabic_Tunisian [aeb],36,10,#4AB56C,Afro-Asiatic,Semitic,Tunisia
Arabic_Wadi Mousa [ajp-2],30.32,35.48,#549252,Afro-Asiatic,Semitic,Jordan
Arabic_Yemeni [jye-2],14,47,#70AC4F,Afro-Asiatic,Semitic,Yemen
Arabic_Yemeni_Hadhrami [ayh],16.67,49.5,#66A24E,Afro-Asiatic,Semitic,Yemen
Arabic_Yemeni_Tihamiyya [arb-6],13.083,43.833,#7DAA4B,Afro-Asiatic,Semitic,Yemen
Arabic_Yemeni_Zabidi [acq-2],14.2,43.317,#64A952,Afro-Asiatic,Semitic,Yemen
Arabic; North Israel Bedouin [ajp-4],32.83,35.33,#3BB677,Afro-Asiatic,Semitic,Israel
Aragonese [arg],41,-1,#9E7C5F,Indo-European,Romance,Spain
Araki [akr],-15.629,166.957,#AC6E62,Oceanic,Southern Oceanic,Vanuatu
Arakmbut [hug],-13.27,-71.21,#A15B5C,Harakmbet,Harakmbut,Peru
Aralle-Tabulahan [atq],-2.756,119.203,#956557,Malayo-Polynesian,Greater South Sulawesi,Indonesia-Sulawesi
Arammba [stk],-8.25,141.5,#49658F,South New Guinea,East Morehead,Papua New Guinea
Arandai [jbj],-2.17,133,#826852,Trans New Guinea,South Birds Head,Indonesia-Papua
Aranese [oci-4],42.7,0.795,#4E848C,Indo-European,Romance,Spain
Araona [aro],-12.333,-67.75,#637E4B,Tacanan,Takanik-Chamik,Bolivia
Arapaho [arp],39.565,-105.345,#526E3E,Algic,Algonquian,USA
Arapesh_Muhiang [aoj],-3.564,142.9,#69834C,Torricelli,Kombio-Arapesh,Papua New Guinea
Arara_do_Acre [adc],-8.841,-72.315,#6B7148,Panoan,Southern Panoan,Brazil
Arara_do_Mato_Grosso [axg],-9.5,-60,#646282,Arara_do_Mato_Grosso,,Brazil
Arara_do_Para [aap-2],-4.24,-53.34,#C46864,Cariban,Pekodian,Brazil
Arára_Pará [aap],-4.2422,-53.3745,#C26C63,Cariban,Pekodian,Brazil
Araucanian lg [arn-2],-43,-73.5,#B88697,Araucanian,,Chile
Arawak [arw],5.64,-56.92,#776452,Arawak,Northern Maipuran,Guyana
Araweté [awt],-4.142017,-52.416914,#8E6947,Tupian,Tupi-Guarani,Brazil
Arbanasi [aln-3],44.11,15.23,#4E7393,Indo-European,Albanian,Croatia
Arbëresh [als-2],37.995,13.283,#439CA4,Indo-European,Albanian,Italy
Arbëresh Kundisa [als-10],37.73,13.18,#509D97,Indo-European,Albanian,Italy
Arbëresh_Pianese [als-8],37.8,12.8,#5CA09A,Indo-European,Albanian,Italy
Arbore [arv],4.92,36.8,#43749A,Afro-Asiatic,Cushitic,Ethiopia
Archi [aqc],42.07,46.86,#25CA7C,Nakh-Daghestanian,Lezgic,Russia
Arctic Bay_Inuit [ikt],73.036,-85.15,#948548,Eskimo-Aleut,Eskimo,Canada
Are [mwc],-9.67,150,#896F48,Oceanic,Western Oceanic,Papua New Guinea
Are'are [alu],-9.342,161.203,#8E6744,Oceanic,Southeast Solomonic,Solomons
Arem [aem],18.15,105.5,#3B6CD1,Austroasiatic,Vietic,Laos
Argobba [agj],10.66,39.76,#468976,Afro-Asiatic,Semitic,Ethiopia
Arguni [agf],-2.667,132.5,#976998,Malayo-Polynesian,Eastern Malayo-Polynesian,Indonesia-Papua
Ari [aac],-7.916,142.34,#875C4C,Papuan Gulf,Gogodala-Suki,Papua New Guinea
Aribwatsa [laz],-6.667,146.917,#886F60,Oceanic,Western Oceanic,Papua New Guinea
Aribwaungg [ylu],-6.592,146.874,#487A84,Oceanic,Western Oceanic,Papua New Guinea
Arifama-Miniafia [aai],-9.142,149.279,#7E6042,Oceanic,Western Oceanic,Papua New Guinea
Arikapu [ark],-13,-62.5,#7A6153,Macro-Je,Jabutí,Brazil
Arikara [ari],40,-97,#71723A,Caddoan,Northern Caddoan,USA
Aringa [luc],3,31,#4562BA,Nilo-Saharan,Central Sudanic,Uganda
Aritinngithigh [rrt],-13,141.67,#D67E95,Pama-Nyungan,Paman,Australia
Arizona Tewa [tew],35.8,-110.4,#3C6A72,Kiowa-Tanoan,Tewa,USA
Armenian [hye],40,45,#40916D,Indo-European,Armenian,Armenia
Armenian_Agulis [hye-5],38.95,45.98,#40926E,Indo-European,Armenian,Azerbaijan
Armenian_Aslanberg [hye-9],41.2,30.5,#448362,Indo-European,Armenian,Turkey
Armenian_Kharpert [hye-8],38.67,39.22,#40926E,Indo-European,Armenian,Armenia
Armenian_Khodorjur [hye-4],40.73,41.2,#3A876D,Indo-European,Armenian,Turkey
Armenian_Malatya [hye-7],38.35,38.3,#3C7D68,Indo-European,Armenian,Turkey
Armenian_Sebastia [hye-6],39.75,37.02,#3E8A70,Indo-European,Armenian,Armenia
Armenian_Van [hye-10],38.49,43.38,#4E8F62,Indo-European,Armenian,Turkey
Armenian_Western [hye-2],40,40,#3B7C67,Indo-European,Armenian,Turkey
Armenian_Yerevan [hye-11],40.18,44.52,#3E8C68,Indo-European,Armenian,Armenia
Aromanian [rup],42,23,#418466,Indo-European,Romance,Bulgaria
Aromanian-2 [rup-2],39.77,21.1,#4E8A97,Indo-European,Romance,Greece
Arop-Lokep [apr],-5.333,147.083,#9F6066,Oceanic,Western Oceanic,Papua New Guinea
Arosi [aia],-10.333,161.5,#886D58,Oceanic,Southeast Solomonic,Solomons
Arpitan [frp-3],45.17,5.72,#5877A4,Indo-European,Romance,France
Arrernte_Central [are],-22.85,133.7,#F89D9C,Pama-Nyungan,Arandic,Australia
Arrernte_Eastern [are-2],-23.292,134.445,#F390B0,Pama-Nyungan,Arandic,Australia
Arrernte_Mparntwe [aer],-24,136,#F297A5,Pama-Nyungan,Arandic,Australia
Arrernte_Pertame [xxx-57],-24.5,132,#F590AF,Pama-Nyungan,Arandic,Australia
Arta [atz],16.42,121.66,#A27463,Malayo-Polynesian,Philippines,Philippines
Arutani [atx],4.07,-62.87,#856E44,Arutani–Sape,,Brazil
Arvanitika [als-3],38.42,23.08,#4F84AD,Indo-European,Albanian,Greece
As [asz],-0.722,131.787,#836457,Malayo-Polynesian,Eastern Malayo-Polynesian,Indonesia-Papua
Asaro_Upper [aso],-5.967,145.292,#55675D,Trans New Guinea,Morobe-Eastern Highlands,Papua New Guinea
Asharon [acz],10.8,30.3,#AD77A9,Talodi-Heiban,Talodi,Sudan
Ashe [ahs],9.37,7.39,#4E64A6,Niger-Kongo,Atlantic-Congo,Nigeria
Asheninka_Apurucayali [cpc],-10.018,-74.793,#978552,Arawak,Southern Maipuran,Peru
Ashéninka_Perené [prq],-10.8734,-75.245,#8D8354,Arawak,Southern Maipuran,Peru
Ashéninka_Pichis [cpu],-9.9833,-74.9833,#969067,Arawak,Southern Maipuran,Peru
Ashéninka_Ucayali-Yurúa [cpb],-10.1619,-74.0234,#699965,Arawak,Southern Maipuran,Brazil
Ashkun [ask],34.84,70.37,#B9858E,Indo-European,Indo-Iranian,Afghanistan
Asho [csh-3],22.91,93.68,#4B76CC,Tibeto-Burman,Kuki-Chin-Naga,Myanmar
Ashuku [nza-2],6.98,10.71,#4F5BA0,Niger-Kongo,Atlantic-Congo,Nigeria
Ashuslay [cag-2],-23.5,-60.5,#479872,Matacoan,Mataguayo I,Paraguay
Asi [bno-2],12.95,122.08,#B17656,Malayo-Polynesian,Philippines,Philippines
Asienara [asi],-3.75,133.33,#7E6548,Trans New Guinea,Asmat-Kamoro,Indonesia-Papua
Asilulu [asl],-3.67,127.95,#966C45,Malayo-Polynesian,Central Maluku,Indonesia-Maluku-north
Asmat [asc],-5.3,138.3,#876146,Trans New Guinea,Asmat-Kamoro,Indonesia-Papua
Asmat_North [nks],-5,138.5,#936544,Trans New Guinea,Asmat-Kamoro,Indonesia-Papua
Assamese [asm],26.5,93,#576B9C,Indo-European,Indo-Iranian,India
Assamese_Dudhnoi [asm-10],26,90.8,#5B769C,Indo-European,Indo-Iranian,India
Assiniboine [asb],49,-100,#3A8750,Siouan,Western Siouan,Canada
Asturian [ast],43.33,-6,#A17E69,Indo-European,Romance,Spain
Asumboa [aua],-11.296,166.496,#A87D8C,Oceanic,Te Motu,Solomons_East
Asuri [asr],23.04,84.54,#AD7F6C,Austroasiatic,Munda,India
Asurini [asu],-3.3,-49.3,#8A6F57,Tupian,Tupi-Guarani,Brazil
Asuriní_Tocantins [asu-2],-3.3,-50,#8B6645,Tupian,Tupi-Guarani,Brazil
Asuriní_Xingú [asn],-4.13,-52.32,#876F59,Tupian,Tupi-Guarani,Brazil
Ata [ata],-5.667,151,#8E6C4E,Ata,,Papua New Guinea-Bismarcks
Ata_Manobo [atd],7.845,125.506,#A16C59,Malayo-Polynesian,Philippines,Philippines
Atacameño [kuz],-23,-69,#549D5A,Atacameño,,Chile
Atadei [slp-3],-8.46,123.555,#A76275,Malayo-Polynesian,Timoric,Indonesia-NTT
Atakapa [aqp],30,-93,#6B7F5C,Atakapa,,USA
Atamanu [jal],-3.396,129.313,#9B675F,Malayo-Polynesian,Central Maluku,Indonesia-Maluku-north
Atampaya [amz],-11.33,142.5,#CB8299,Pama-Nyungan,Paman,Australia
Atayal [tay],24.5,121,#769563,Austronesian,Atayalic,Taiwan
Atchin [upv],-16,167.333,#477295,Oceanic,Southern Oceanic,Vanuatu
Ateso [teo],1.915,33.955,#5E6AA8,Nilo-Saharan,Eastern Sudanic,Uganda
Athpare [aph],26.75,87.33,#747A97,Tibeto-Burman,Kiranti,Nepal
Atikamekw [atj],48,-74,#8E723F,Algic,Algonquian,Canada
Atong [aot],25.5,90.5,#8C738E,Tibeto-Burman,Bodo-Garo,India
Atsawaka [atc],-14.17,-69.5,#6D6F48,Panoan,Southern Panoan,Peru
Atsi [atb-2],28,93.5,#4B81C5,Tibeto-Burman,Lolo-Burmese,India
Atsugewi [atw],40.75,-121,#5EB26B,Palaihnihan,,USA
Atta_Pamplona-1 [att-2],18.46,121.341,#AA724F,Malayo-Polynesian,Philippines,Philippines
Atta_Pamplona-2 [att],18.458,121.342,#B37E59,Malayo-Polynesian,Philippines,Philippines
Attie [ati],6,-3.82,#2860B2,Niger-Kongo,Atlantic-Congo,Côte d'Ivoire
Au [avt],-3.5,142.083,#916B49,Torricelli,Central Torricelli,Papua New Guinea
Auhelawa [kud],-10.284,151.02,#6C7E4E,Oceanic,Western Oceanic,Papua New Guinea
Aulua [aul],-16.33,167.694,#8682A6,Oceanic,Southern Oceanic,Vanuatu
Aurland [nob-3],60.87,7.23,#446FB7,Indo-European,Germanic,Norway
Austral [aut],-23.377,-149.498,#7F654C,Oceanic,Central Pacific,French Polynesia
Auyana [auy],-6.523,145.708,#625661,Trans New Guinea,Morobe-Eastern Highlands,Papua New Guinea
Auye [auu],-3.495,136.002,#824E58,Trans New Guinea,Western Trans New Guinea,Indonesia-Papua
Avá-Canoeiro [avv],-13.166403,-47.928611,#BB6961,Tupian,Tupi-Guarani,Brazil
Avar [ava],42.54,46.7,#3BAA65,Nakh-Daghestanian,Avar-Andi,Russia
Avatime [avn],6.85,0.44,#2A74AA,Niger-Kongo,Atlantic-Congo,Ghana
Avava [tmb],-16.224,167.523,#8F7187,Oceanic,Southern Oceanic,Vanuatu
Aveteian [dix],-16.443,167.43,#9F6C8B,Oceanic,Southern Oceanic,Vanuatu
Avikam [avi],5.16,-5.25,#2E546E,Niger-Kongo,Atlantic-Congo,Côte d'Ivoire
Avok [xxx-59],-16.53,167.7,#5079A8,Oceanic,Southern Oceanic,Vanuatu
Avok_Maxbaxo [xxx-103],-16.496,167.665,#6481A6,Oceanic,Southern Oceanic,Vanuatu
Avokaya [avu],5,30.2,#4662C0,Nilo-Saharan,Central Sudanic,South Sudan
Awa [awb],-6.75,145.667,#714869,Trans New Guinea,Morobe-Eastern Highlands,Papua New Guinea
Awa Pit [kwi],0.75,-78.5,#538B74,Barbacoan,Northern Barbacoan,Ecuador
Awabakal [awk],-33.05,151.55,#DE7A71,Pama-Nyungan,Yuin-Kuri,Australia
Awad Bing [bcu],-5.584,146.349,#9A695E,Oceanic,Western Oceanic,Papua New Guinea
Awadhi [awa],27.5,81.5,#899BB3,Indo-European,Indo-Iranian,India
Awak [awo],9.86,11.33,#3D5FBF,Niger-Kongo,Atlantic-Congo,Nigeria
Awar [aya],-4,144.625,#556389,Lower Sepik-Ramu,Ramu,Papua New Guinea
Awara [awx],-6.094,146.441,#6B7563,Trans New Guinea,Morobe-Eastern Highlands,Papua New Guinea
Awbono [awh],-5.119,139.201,#6B644C,Bayono-Awbono,,Indonesia-Papua
Aweer [bob-2],-1.717,40.967,#BB767F,Afro-Asiatic,Cushitic,Kenya
Awera [awr],-2.677,136.242,#9A5C41,Lakes Plains,Western Lakes Plains,Indonesia-Papua
Awetí [awe],-12.926,-54.277,#BD6A68,Tupian,Aweti,Brazil
Awiakay [afp],-4.672,143.712,#BD6E7D,Arafundi,,Papua New Guinea
Awin [awi],-5.833,142.5,#6F5771,Trans New Guinea,Awin-Pa,Papua New Guinea
Awing [azo],5.88,10.24,#4D5B73,Niger-Kongo,Atlantic-Congo,Cameroon
Awiya [som-2],10.851,36.892,#4E79BC,Afro-Asiatic,Cushitic,Ethiopia
Awngi [awn],10.83,36.67,#3E95A3,Afro-Asiatic,Cushitic,Ethiopia
Awngthim [gwm],-12.54,141.98,#B187AF,Pama-Nyungan,Paman,Australia
Awtuw [kmn],-3.5,141.917,#C76278,Sepik,Ram,Papua New Guinea
Awu Alaya [typ-2],-14.83,143.32,#B27BAC,Pama-Nyungan,Paman,Australia
Awutu [afu],5.42,-0.6,#606DC8,Niger-Kongo,Atlantic-Congo,Ghana
Awyi [auw],-3,140.75,#845F5B,Trans New Guinea,Border,Papua New Guinea
Axi [yix-2],24.4,103.44,#317DC1,Tibeto-Burman,Lolo-Burmese,China
Axininca [cpc-2],-9,-75,#829960,Arawak,Southern Maipuran,Peru
Axvax [akv],42.379,46.384,#33A470,Nakh-Daghestanian,Avar-Andi,Russia
Ayapathu [ayd-2],-14.29,143.11,#DE7784,Pama-Nyungan,Paman,Australia
Ayere [aye],7.52,6.02,#4D69A5,Niger-Kongo,Atlantic-Congo,Nigeria
Ayerrerenge [axe],-22.5,137.36,#F78A9B,Pama-Nyungan,Arandic,Australia
Aymara [ayr],-16,-69.5,#94A768,Aymaran,Aymara,Peru
Aymara_Carangas [ayr-3],-18.45,-67.45,#A0A87B,Aymaran,Aymara,Bolivia
Aymara_Chile [ayc],-19.15,-69.4,#95AD85,Aymaran,Aymara,Chile
Aymara_Muylaq' [ayr-2],-16.675,-70.712,#91AA69,Aymaran,Aymara,Peru
Äynu [aib],38.069,76.227,#4E836D,Turkic,Common Turkic,China
Ayoré [ayo],-20.5,-59.25,#A67382,Zamucoan,,Paraguay
Ayu [ayu],9.26,8.6,#425FAD,Niger-Kongo,Atlantic-Congo,Nigeria
Azerbaijani [azj],40.5,48.5,#438072,Turkic,Common Turkic,Azerbaijan
Azerbaijani_Tabriz [azj-3],38.07,46.3,#457D63,Turkic,Common Turkic,Azerbaijan
Azeri [azb],40.67,47.75,#3E8276,Turkic,Common Turkic,Azerbaijan
Azha [aza],23.37,104.25,#2A78C3,Tibeto-Burman,Lolo-Burmese,China
Azhe [yiz],24.2,103.6,#3382CA,Tibeto-Burman,Lolo-Burmese,China
B'lit_Manobo [mta],6.39,124.23,#8F665B,Malayo-Polynesian,Philippines,Philippines
Ba:ngingi_Sama [sse],6.133,121.805,#A37871,Malayo-Polynesian,Barito,Philippines
Baagandji [drl],-32,142.533,#FA8D98,Pama-Nyungan,Yarli-Baagandji,Australia
Baangi [bqx],10.81,5.73,#27799D,Niger-Kongo,Atlantic-Congo,Nigeria
Baarin [mon-2],43.53,118.67,#62687F,Mongolic,Core Mongolic,China
Baatonum [bba-2],9.63,3,#575972,Niger-Kongo,Atlantic-Congo,Benin
Baba [bbw],6.11,10.52,#6772AF,Niger-Kongo,Atlantic-Congo,Cameroon
Babanki [bbk],6.104,10.311,#2F6CB6,Niger-Kongo,Atlantic-Congo,Cameroon
Babar_North [bcd],-7.83,129.58,#8C5D4E,Malayo-Polynesian,Southeast Maluku,Indonesia-Maluku-south
Babar_Southeast [vbb],-7.92,129.67,#7D724F,Malayo-Polynesian,Southeast Maluku,Indonesia-Maluku-south
Babatana [baa],-7.397,157.37,#7B636F,Oceanic,Western Oceanic,Solomons
Babine-Witsuwit'en [bcr],55,-127,#29AC76,Dene-Yeniseic,Na-Dene,Canada
Babungo [bav],6.12,10.42,#3456BE,Niger-Kongo,Atlantic-Congo,Cameroon
Babuza [bzg-2],24,120.58,#786F52,Austronesian,Western Plains,Taiwan
Baca [baf],4.36,11.03,#515CAA,Niger-Kongo,Atlantic-Congo,Cameroon
Bachamal [wdj-2],-13.17,130.17,#E889A2,Wagaydyic,Wadjiginy,Australia
Bada [bhz],-1.793,120.313,#715F80,Malayo-Polynesian,Celebic,Indonesia-Sulawesi
Badaga [bfq],11.31,76.6,#BA8AA1,Dravidian,South Dravidian,India
Bade [bde],12.79,10.66,#378DAD,Afro-Asiatic,Chadic,Nigeria
Bade-2 [bde-2],12,12,#4A9679,Afro-Asiatic,Chadic,Nigeria
Badeng [xkl-3],3.17,115.22,#906474,Malayo-Polynesian,North Borneo,Malaysia-Borneo
Badimaya [bia],-27.667,119,#F98D9A,Pama-Nyungan,Kardu,Australia
Badjala [xby],-25.084,152.529,#DD7882,Pama-Nyungan,Waka-Kabic,Australia
Badjiri [jbi],-28.79,145.47,#F18EA1,Pama-Nyungan,Karnic,Australia
Badyara [pbp],11.633,-13.4,#8F72A0,Niger-Kongo,Atlantic-Congo,Guinea
Baelelea [bvc],-8.453,160.66,#947864,Oceanic,Southeast Solomonic,Solomons
Baenggu [bvd],-8.506,160.706,#9C7163,Oceanic,Southeast Solomonic,Solomons
Baetora [btr],-15.258,168.166,#7A6F51,Oceanic,Southern Oceanic,Vanuatu
Bafang [cmn-68],35.6,103.217,#356EC4,Tibeto-Burman,Sinitic,China
Bafanji [bfj-2],5.84,10.46,#406FB5,Niger-Kongo,Atlantic-Congo,Cameroon
Bafo [bwt],6.351,10.229,#3D5CA5,Niger-Kongo,Atlantic-Congo,Cameroon
Bafut [bfd],6.083,10.0999,#317FB0,Niger-Kongo,Atlantic-Congo,Cameroon
Baga_Koga [bgo],10.13,-13.95,#6F68B8,Niger-Kongo,Atlantic-Congo,Guinea
Baga_Mboteni [bcg],10.83,-14.55,#8F6588,Niger-Kongo,Atlantic-Congo,Guinea
Baga_Sitemu [bsp],10.48,-14.48,#765F9B,Niger-Kongo,Atlantic-Congo,Guinea
Bagheli [bfy],24.35,81.43,#7390BB,Indo-European,Indo-Iranian,India
Bagirmi [bmi],10.202,17,#9272C2,Nilo-Saharan,Central Sudanic,Chad
Bagri [bgq],29.6,74.3,#7E7FCB,Indo-European,Indo-Iranian,India
Baguiro_Zangba [bmi-2],7.29,18.82,#6164C6,Nilo-Saharan,Central Sudanic,Central African Republic
Bagulal [kva],42.56,46.17,#49A76F,Nakh-Daghestanian,Avar-Andi,Russia
Bagusa [bqb],-1.905,137.932,#8A7348,Kwerba,Nuclear Kwerba,Indonesia-Papua
Baharnah [afb-4],26.03,50.55,#5B984E,Afro-Asiatic,Semitic,Bahrain
Bahau [bhv],0.06,115.65,#837060,Malayo-Polynesian,North Borneo,Indonesia-Kalimantan
Bahinemo [bjh],-4.435,142.726,#71664D,Sepik,Sepik Hill,Papua New Guinea
Bahing [bhj],27.27,86.56,#546DB5,Tibeto-Burman,Kiranti,Nepal
Bahnar [bdq],14,108.5,#A38DA0,Austroasiatic,Bahnaric,Vietnam
Bahonsuai [bsu],-2.23,121.71,#785F64,Malayo-Polynesian,Celebic,Indonesia-Sulawesi
Bai [bca],26,100,#336ECD,Tibeto-Burman,Macro-Bai,China
Bai_Eryuan [bca-2],26.12,99.95,#326BD3,Tibeto-Burman,Macro-Bai,China
Bai_Heqing [bca-3],26.56,100.18,#2B67CD,Tibeto-Burman,Macro-Bai,China
Bai_Lanping [bca-4],26.45,99.42,#3063C8,Tibeto-Burman,Macro-Bai,China
Bai_Luobenzhuo [bca-5],26.42,98.89,#307BE3,Tibeto-Burman,Macro-Bai,China
Bai_Qiliqiao [bca-6],25.65,100.18,#3263C8,Tibeto-Burman,Macro-Bai,China
Bai_Xiangyun [bca-7],25.48,100.55,#3261C7,Tibeto-Burman,Macro-Bai,China
Bai_Yunlong [bca-8],25.88,99.37,#3466D3,Tibeto-Burman,Macro-Bai,China
Bai_Zhoucheng [bca-9],24.48,101.34,#3964CD,Tibeto-Burman,Macro-Bai,China
Baikeno [bkx],-9.3,124.32,#796F44,Malayo-Polynesian,Timoric,Timor leste
Baima [bqh],30.32,107.34,#2E71DC,Tibeto-Burman,Bodic,China
Bainapi [dby],-7.904,142.715,#865D4F,Papuan Gulf,Strickland,Papua New Guinea
Baining [gcc-2],-4.6,152,#746663,Baining,,Papua New Guinea-Bismarcks
Baiso [bsw-3],6.45,37.77,#43878A,Afro-Asiatic,Cushitic,Somalia
Bajau_Semporna [ssb],4.5,118.5,#76646C,Malayo-Polynesian,Barito,Indonesia-Kalimantan
Bajau_Sulawesi [bdl-2],-3.75,122.5,#8F6575,Malayo-Polynesian,Barito,Indonesia-Sulawesi
Bajo_Kangean [bdl],-7.17,115.82,#9076A8,Malayo-Polynesian,Barito,Indonesia-Kalimantan
Bajuni [swh-2],-1,42.04,#718BAF,Niger-Kongo,Atlantic-Congo,Kenya
Baka [bdh],4.8,31.6,#5771D0,Nilo-Saharan,Central Sudanic,South Sudan
Baka [bkc],2.16,13.78,#3A5EAE,Ubangian,Sere-Mba,Cameroon
Bakairí [bkq],-14,-55,#6C6B51,Cariban,Pekodian,Brazil
Bakairí_East [bkq-3],-14.43,-54.025,#756B50,Cariban,Pekodian,Brazil
Bakairí_West [bkq-2],-14.7302,-56.2479,#796D4E,Cariban,Pekodian,Brazil
Bakaka [bqz],4.8,9.8,#566290,Niger-Kongo,Atlantic-Congo,Cameroon
Bakhtiari [ldd],31.92,50.86,#608D52,Indo-European,Indo-Iranian,Iran
Baki [bki],-16.717,168.138,#B37E8A,Oceanic,Southern Oceanic,Vanuatu
Bakoko [bkh],4.2,9.67,#3E60B6,Niger-Kongo,Atlantic-Congo,Cameroon
Bakole [kme],4.44,8.97,#5F71C0,Niger-Kongo,Atlantic-Congo,Cameroon
Bakumpai [bkr],-1.988,114.7,#A46E6E,Malayo-Polynesian,Barito,Indonesia-Kalimantan
Balaesang [bls],-0.06,119.69,#A76862,Malayo-Polynesian,Celebic,Indonesia-Sulawesi
Balami [new-4],27.801,85.25,#8582C1,Tibeto-Burman,Newaric,Nepal
Balangao [blw],17.167,120.333,#93695C,Malayo-Polynesian,Philippines,Philippines
Balanta [ble],12,-15,#505F9C,Niger-Kongo,Atlantic-Congo,Guinea Bissau
Balantak [blz],-0.82,123.431,#B46C6E,Malayo-Polynesian,Celebic,Indonesia-Sulawesi
Balante_Sofa [bjt],12.54,-15.67,#6065AA,Niger-Kongo,Atlantic-Congo,Guinea Bissau
Balawaia [snc-2],-9.98,147.865,#727741,Oceanic,Western Oceanic,Papua New Guinea
Balearic [cat-2],39.5,3,#717EAC,Indo-European,Romance,Spain
Balendru [led],1.968,30.485,#3777BC,Nilo-Saharan,Central Sudanic,Democratic Republic of the Congo
Bali-Vitu [wiv],-4.733,149.283,#A26961,Oceanic,Western Oceanic,Papua New Guinea-Bismarcks
Balinese [ban],-8.583,115.25,#A66F9E,Malayo-Polynesian,Malayo-Sumbawan,Indonesia-NTB
Balingian [mel-7],2.92,112.53,#AE807B,Malayo-Polynesian,Malayo-Sumbawan,Malaysia-Borneo
Balochi [bgp-2],27,63.5,#729E7C,Indo-European,Indo-Iranian,Pakistan
Balti [bft],35.2,76,#73ABA9,Tibeto-Burman,Bodic,Pakistan
Baluchi [bgp],27.2,60.68,#478D6A,Indo-European,Indo-Iranian,Iran
Balui Liko [ree-3],1.92,114.52,#926B70,Malayo-Polynesian,North Borneo,Malaysia-Borneo
Bam [bmc],-3.61,144.82,#B36977,Oceanic,Western Oceanic,Papua New Guinea
Bambalang [bmo],5.86,10.54,#387EB9,Niger-Kongo,Atlantic-Congo,Cameroon
Bambara [bam],12.5,-7.5,#51669B,Mande,Western Mande,Mali
Bamenyam [bce],5.77,10.33,#5A6DB5,Niger-Kongo,Atlantic-Congo,Cameroon
Bamu [bcf],-8,143.833,#896447,Kiwaian,Bamu,Papua New Guinea
Bamun [bax],5.726,10.904,#3F66C3,Niger-Kongo,Atlantic-Congo,Cameroon
Bamunka [bvm],6,10.51,#4871A6,Niger-Kongo,Atlantic-Congo,Cameroon
Bana [bcw],10.42,13.58,#35AB8E,Afro-Asiatic,Chadic,Cameroon
Banam Bay [vrt-2],-16.41,167.78,#605F81,Oceanic,Southern Oceanic,Vanuatu
Banda [bnd],-5.25,133.17,#9E6277,Malayo-Polynesian,Central Maluku,Indonesia-Maluku-north
Banda [bpd],2,22,#3267B1,Ubangian,Bandaic,Central African Republic
Banda_Ndele [bfl],8.03,23.9,#3369AE,Ubangian,Bandaic,Central African Republic
Bandi [bza],7.74,-10.17,#3A62A6,Mande,Western Mande,Liberia
Bandiaal [bqj-2],13.02,-15.32,#9D5E87,Niger-Kongo,Atlantic-Congo,Senegal
Bandjalang [bdy],-28.74,153.01,#DB7871,Pama-Nyungan,Yugambeh-Bundjalung,Australia
Bandjalang-2 [bdy-4],-28.39,152.61,#DB7771,Pama-Nyungan,Yugambeh-Bundjalung,Australia
Bandjalang-Gidabal [bdy-2],-28.25,152,#D97770,Pama-Nyungan,Yugambeh-Bundjalung,Australia
Bandjigali [bjd],-30.08,143.28,#FA8D99,Pama-Nyungan,Yarli-Baagandji,Australia
Banggai [bgz],-1.42,123.17,#93657F,Malayo-Polynesian,Celebic,Indonesia-Sulawesi
Banggime [dbb],14.78,-3.76,#5C53AE,Banggime,,Mali
Bangolan [bgj],6.05,10.45,#485A75,Niger-Kongo,Atlantic-Congo,Cameroon
Bangru [hru-3],27.9,93.35,#8F6298,Tibeto-Burman,Hrusish,India
Bangubangu [bnx],-4.689,27.693,#626467,Niger-Kongo,Atlantic-Congo,Democratic Republic of the Congo
Baniwa_Central [bwi],1.4091,-68.1358,#C0796B,Arawak,Northern Maipuran,Brazil
Baniwa_do_Içana [bwi-2],2.18,-67.77,#BE8A94,Arawak,Northern Maipuran,Brazil
Baniwa_Rio_Negro [bwi-3],0.053,-67.43,#736F5F,Arawak,Northern Maipuran,Brazil
Baniwa_Siusi [bwi-4],2.19,-67.76,#BB96A0,Arawak,Northern Maipuran,Brazil
Banjar [bjn],0.75,115.79,#C28079,Malayo-Polynesian,Malayo-Sumbawan,Indonesia-Kalimantan
Banjari [lmn-2],16.5,77.455,#AE87A6,Indo-European,Indo-Iranian,India
Bankariya [cdm-2],27.5,85,#7D97C2,Tibeto-Burman,Chepang,Nepal
Bankon [abb],4.37,9.64,#5971C3,Niger-Kongo,Atlantic-Congo,Cameroon
Banoni [bcm],-6.417,155.25,#91725C,Oceanic,Western Oceanic,Papua New Guinea-Bougainville
Bantang [pho-6],21.75,102.25,#3A69BC,Tibeto-Burman,Lolo-Burmese,Laos
Bantawa [bap],27.2,87.1,#75709C,Tibeto-Burman,Kiranti,Nepal
Banten [sun-2],-6.35,106.1,#A6758F,Malayo-Polynesian,Malayo-Sumbawan,Indonesia-Java
Bantik [bnq],1.564,124.859,#9B675D,Malayo-Polynesian,Philippines,Indonesia-Sulawesi
Bantoanon [bno],12.784,122.049,#AF7958,Malayo-Polynesian,Philippines,Philippines
Banyaduq [byd],0.5,110,#B9798C,Malayo-Polynesian,Malayo-Sumbawan,Indonesia-Kalimantan
Banyum [bab],11.497,-16.5,#806496,Niger-Kongo,Atlantic-Congo,Guinea Bissau
Banyun [bcb-2],12.75,-16.3,#8F6197,Niger-Kongo,Atlantic-Congo,Senegal
Baoan [peh],35.05,102.1,#61A3A7,Mongolic,Core Mongolic,China
Baoan [yue-20],22.55,113.9,#535EBD,Tibeto-Burman,Sinitic,China
Baoan_Dahejia [peh-2],35.72,102.88,#659394,Mongolic,Core Mongolic,China
Baoan_Dongxiang [peh-5],35.6,103.22,#5A9C9C,Mongolic,Core Mongolic,China
Baoan_Kangjia [peh-4],35.04,101.25,#478D94,Mongolic,Core Mongolic,China
Baoan_Ñantoq [peh-3],35.41,102.08,#5F9797,Mongolic,Core Mongolic,China
Bará [bao],0.1,-70.45,#7A5B36,Tucanoan,East Tucanoan,Colombia
Baraba [tat-3],55.333,78.333,#4E8381,Turkic,Common Turkic,Russia
Barai [bbb],-9.417,148,#70654D,Southeast Papuan,Owen Stanley Ranges,Papua New Guinea
Barain_Giliya [bva-2],12.08,18.58,#B2678A,Afro-Asiatic,Chadic,Chad
Barain_Jalking [bva-3],12.22,18.8,#B1668A,Afro-Asiatic,Chadic,Chad
Barain_Jalkiya [bva],12.18,18.68,#995F94,Afro-Asiatic,Chadic,Chad
Barain_Komiya [bva-4],12.17,18.75,#9C608F,Afro-Asiatic,Chadic,Chad
Baram [brd],27.95,85,#8978A3,Tibeto-Burman,Western Himalayan,Nepal
Barang-barang [lji],-6.4,120.5,#AD7991,Malayo-Polynesian,Celebic,Indonesia-Sulawesi
Barapa Barapa [rbp],-35.95,144.32,#DA7FAF,Pama-Nyungan,Kulinic,Australia
Barapasi [brp],-2.247,136.995,#5D5A5F,Geelvink Bay,Barapasi-Sauri-Kofei,Indonesia-Papua
Barasano [bsn],-0.25,-70.75,#645741,Tucanoan,East Tucanoan,Colombia
Bardi [bcj],-16.58,122.92,#F5898E,Nyulnyul,West Nyulnyul,Australia
Baré [bae],1.6,-66.8,#61A375,Arawak,Northern Maipuran,Venezuela
Bareke [mpr],-8.543,158.113,#806E62,Oceanic,Western Oceanic,Solomons
Barese [ita-47],41.1,16.9,#5E719A,Indo-European,Romance,Italy
Bargam [mlp],-4.87,145.76,#886275,Trans New Guinea,Madang,Papua New Guinea
Bari [bfa],3.8,31,#5485B8,Nilo-Saharan,Eastern Sudanic,South Sudan
Barí [mot],9,-73.5,#665748,Chibchan,Core Chibchan,Venezuela
Bariai [bch],-5.497,148.63,#AC6763,Oceanic,Western Oceanic,Papua New Guinea
Bariba [bba],10.217,2.667,#524D8D,Niger-Kongo,Atlantic-Congo,Benin
Bariji [bjc],-9.211,148.401,#7E6647,Southeast Papuan,Owen Stanley Ranges,Papua New Guinea
Barman Thar [xxx-108],25.899,89.899,#5D6674,Tibeto-Burman,Bodo-Garo,India
Barok [bjk],-3.48,152.19,#90675B,Oceanic,Western Oceanic,Papua New Guinea-Bismarcks
Barranbinya [zmu-2],-30.1,145.93,#F691A1,Pama-Nyungan,Muruwari,Australia
Barranquenho [por-3],38.13,-6.975,#625E6E,Indo-European,Romance,Portugal
Barrow_Point [bpt],-14.373,144.63,#D58D96,Pama-Nyungan,Paman,Australia
Baruga [bjz],-9.328,148.734,#6B6848,Trans New Guinea,Oro-Wharton,Papua New Guinea
Barunggam [xxx-47],-26.25,151.25,#D56F74,Pama-Nyungan,Waka-Kabic,Australia
Barupu [wra],-3.083,142.083,#5F3A98,Skou,Eastern Skou,Papua New Guinea
Baruya [byr],-6.917,145.833,#A05788,Trans New Guinea,Morobe-Eastern Highlands,Papua New Guinea
Basà [bzw],8.03,7.06,#406EAC,Niger-Kongo,Atlantic-Congo,Nigeria
Basaa [bas],5,10.15,#4F69B5,Niger-Kongo,Atlantic-Congo,Cameroon
Basap [bdb],0.91,117.56,#9E6561,Malayo-Polynesian,Basap,Indonesia-Kalimantan
Basari [bsc],12.25,-13,#3A8FB7,Niger-Kongo,Atlantic-Congo,Senegal
Basay [byq-2],25,121.86,#AE8B67,Austronesian,East Formosan,Taiwan
Basay_Trobriawan [byq],25,122,#846F4A,Austronesian,East Formosan,Taiwan
Basel [gsw-4],47.56,7.59,#3C8794,Indo-European,Germanic,Switzerland
Bashkarik [gwc-3],35.358,72.137,#7797B1,Indo-European,Indo-Iranian,Pakistan
Bashkir [bak],53,58,#488184,Turkic,Common Turkic,Russia
Basila [ade],8.17,0.62,#6563C3,Niger-Kongo,Atlantic-Congo,Benin
Basketo [bst],6.384,36.651,#459C74,Afro-Asiatic,Omotic,Ethiopia
Basque [eus],42.82,-1.95,#978F98,Basque,,Spain
Basque_Arbizu [eus-4],42.9,-2,#737AA3,Basque,,Spain
Basque_Baztan [eus-10],43.2,-1.5,#7778A3,Basque,,Spain
Basque_Baztan [eus-11],43.2,1.47,#8B8FAE,Basque,,Spain
Basque_Gernika [eus-3],43.3,-2.7,#7671A1,Basque,,Spain
Basque_Lekeitio [eus-6],43.365,-2.51,#5D787B,Basque,,Spain
Basque_Navarro [eus-2],43.17,-1.24,#58809F,Basque,,France
Basque_Ondarroa [eus-8],43.3,-2.4,#806B9D,Basque,,Spain
Bassa [bsq],7.26,-7.22,#3169AF,Niger-Kongo,Atlantic-Congo,Côte d'Ivoire
Bassossi [bsi],5.24,9.52,#60609E,Niger-Kongo,Atlantic-Congo,Cameroon
Bata [bta],9.7,12.5,#485F8F,Afro-Asiatic,Chadic,Nigeria
Batak_Dairi [btd],2.546,98.3,#A46F68,Malayo-Polynesian,Batak-Barrier Islands,Indonesia-Sumatra
Batak_Karo [btx],3,98.167,#8E648C,Malayo-Polynesian,Batak-Barrier Islands,Indonesia-Sumatra
Batak_Palawan [bya],10.115,119.214,#BF7868,Malayo-Polynesian,Philippines,Philippines
Batang [khg-8],30.57,98.97,#2E7EE1,Tibeto-Burman,Bodic,China
Batanga [bnm],2.09,9.75,#655DB0,Niger-Kongo,Atlantic-Congo,Equatorial Guinea
Bateg [btq],5,102.5,#A06886,Austroasiatic,Aslian,Malaysia
Bathari [bhm],17.6,56,#3D905B,Afro-Asiatic,Semitic,Oman
Bati [btc],4.26,11.06,#456998,Niger-Kongo,Atlantic-Congo,Cameroon
Batsbi [bbl-2],42.05,45.31,#34A36E,Nakh-Daghestanian,Nakh,Georgia
Batuley [bay],-5.8,134.75,#8E6856,Malayo-Polynesian,Southeast Maluku,Indonesia-Maluku-south
Bau [bbd],-5.213,145.556,#6B6947,Trans New Guinea,Madang,Papua New Guinea
Baukan_Murut [bnb],5.273,116.519,#B97168,Malayo-Polynesian,North Borneo,Malaysia-Borneo
Baule [bci],7.5,-5,#425CA2,Niger-Kongo,Atlantic-Congo,Côte d'Ivoire
Baure [brg],-15,-64,#777345,Arawak,Southern Maipuran,Bolivia
Bauro [bxa],-10.647,161.858,#7F6D5B,Oceanic,Southeast Solomonic,Solomons
Bauzi [bvz],-2.5,137.667,#696851,Geelvink Bay,,Indonesia-Papua
Bavarian [bar],46.73,12.28,#387BA5,Indo-European,Germanic,Italy
Bawm [bgr],22.5,92.25,#587CBA,Tibeto-Burman,Kuki-Chin-Naga,India
Bayan [duq-2],-0.85,115.39,#AB6F7A,Malayo-Polynesian,Barito,Indonesia-Kalimantan
Bayso [bsw],6.28,37.76,#519365,Afro-Asiatic,Cushitic,Somalia
Bayso-2 [bsw-2],6.456,37.745,#599766,Afro-Asiatic,Cushitic,Ethiopia
Bayungu [bxj],-23.3,113.7,#FA8D98,Pama-Nyungan,Kanyara-Mantharta,Australia
Bduul [ajp-6],30.33,35.44,#51AB65,Afro-Asiatic,Semitic,Syria
Beary [xxx-101],12.605,75.01,#B36D83,Dravidian,South Dravidian,India
Bedamini [beo],-6.321,142.489,#7A5C41,Trans New Guinea,Bosavi,Papua New Guinea
Bedayuh [bth],1.01,110.51,#B17789,Malayo-Polynesian,Land Dayak,Malaysia-Borneo
Bedik [tnr],12.75,-12.467,#4862B4,Niger-Kongo,Atlantic-Congo,Senegal
Bediondo [bjv],10.203,17,#466096,Nilo-Saharan,Central Sudanic,Chad
Befang [bby-2],6.28,10.03,#307AA3,Niger-Kongo,Atlantic-Congo,Cameroon
Begak [dbj],5.25,118.833,#96778B,Malayo-Polynesian,North Borneo,Malaysia-Borneo
Beihai [yue-13],21.47,109.1,#4063BC,Tibeto-Burman,Sinitic,China
Beja [bej],18,36,#527B8D,Afro-Asiatic,Cushitic,Sudan
Bekati [bei],0.975,109.425,#9E625B,Malayo-Polynesian,Land Dayak,Indonesia-Kalimantan
Beketan [bkn-3],1.3,114.9,#9B766B,Malayo-Polynesian,Land Dayak,Indonesia-Kalimantan
Bekwarra [bkv],6.74,8.86,#686BAE,Niger-Kongo,Atlantic-Congo,Nigeria
Bekwil [bkw],1.72,14.65,#4B779D,Niger-Kongo,Atlantic-Congo,Cameroon
Bela [bxd-2],24.33,98.4,#3F6FB7,Tibeto-Burman,Lolo-Burmese,Myanmar
Belait [beg],4.382,114.462,#AD8485,Malayo-Polynesian,North Borneo,Brunei
Belanda Boor [bxb],6.5,28,#936BC7,Nilo-Saharan,Eastern Sudanic,South Sudan
Belarussian [bel],54,27,#4DACA7,Indo-European,Balto-Slavic,Belarus
Belep [yly],-19.75,163.67,#B673A5,Oceanic,Southern Oceanic,New Caledonia
Belhare [byw],27,87.25,#857D92,Tibeto-Burman,Kiranti,Nepal
Beli [blm],6.75,29.75,#635DCF,Nilo-Saharan,Central Sudanic,South Sudan
Bella Coola [blc],52.5,-126.67,#52BF59,Salish,Bella Coola,Canada
Bellona [mnv-2],-11.296,159.79,#716146,Oceanic,Central Pacific,Solomons
Belneng [glb],9.15,9.51,#3564B1,Afro-Asiatic,Chadic,Nigeria
Bemal [bmh],-5.234,145.475,#746E4B,Trans New Guinea,Madang,Papua New Guinea
Bemba [bem],-11,31,#4566A0,Niger-Kongo,Atlantic-Congo,Zambia
Bembe [bmb],-4,14,#3C5887,Niger-Kongo,Atlantic-Congo,Democratic Republic of the Congo
Bena [bez],-9.27,35.04,#57639A,Niger-Kongo,Atlantic-Congo,Tanzania
Bena-Bena [bef],-6.114,145.567,#72683F,Trans New Guinea,Morobe-Eastern Highlands,Papua New Guinea
Bench [bcq],7,35.75,#2478A6,Afro-Asiatic,Omotic,Ethiopia
Bende [bdp],-6,30.5,#4D548A,Niger-Kongo,Atlantic-Congo,Tanzania
Beng [nhb],7.83,-4.25,#5461BF,Mande,Eastern Mande,Côte d'Ivoire
Benga [bng],1.2,9.5,#3F7F7B,Niger-Kongo,Atlantic-Congo,Equatorial Guinea
Bengali [ben],22.5,90,#4A7F85,Indo-European,Indo-Iranian,Bangladesh
Bengali_Barisal [ben-10],22.7,90.37,#45765F,Indo-European,Indo-Iranian,Bangladesh
Bengali_east [ben-7],24.4,90.28,#3A7A6D,Indo-European,Indo-Iranian,Bangladesh
Bengali_west [ben-8],23.4,89.45,#527F89,Indo-European,Indo-Iranian,Bangladesh
Bengni [adi-11],28.66,93.37,#7264A4,Tibeto-Burman,Macro-Tani,China
Benuaq [lbx-2],-1.6,115.51,#A46E6E,Malayo-Polynesian,Barito,Indonesia-Kalimantan
Benyadu [byd-2],0.595,109.62,#A56566,Malayo-Polynesian,Land Dayak,Indonesia-Kalimantan
Beothuk [bue],48,-55,#8B7951,Beothuk,,Canada
Bergamasco [ita-17],45.7,9.75,#646198,Indo-European,Romance,Italy
Bergensk [nno],60.39,5.33,#425AB0,Indo-European,Germanic,Norway
Berik [bkl],-2.25,138.92,#6CA676,Trans New Guinea,Orya-Tor,Indonesia-Papua
Berlinerisch [deu-4],52.5,13.15,#3B739D,Indo-European,Germanic,Germany
Bernese [gsw-3],46.83,7.62,#47739D,Indo-European,Germanic,Switzerland
Berom [bom-2],9.67,8.81,#6967AF,Niger-Kongo,Atlantic-Congo,Nigeria
Berrichon [fra-17],47.08,2.38,#626096,Indo-European,Romance,France
Berta [wti],10.67,34.5,#44769D,Nilo-Saharan,Berta,Ethiopia
Besemah [pse],-4.2,103,#AB7F88,Malayo-Polynesian,Malayo-Sumbawan,Indonesia-Sumatra
Beserrman [udm-2],58.02,52.15,#7486B0,Uralic,Permic,Russia
Bésiro [cax-2],-16.6375,-61.9271,#7A664F,Arawak,Southern Maipuran,Bolivia
Besoa [bep],-1.599,120.379,#735E80,Malayo-Polynesian,Celebic,Indonesia-Sulawesi
Betawi [bew],-6.21,107.02,#A26B99,Malayo-Polynesian,Malayo-Sumbawan,Indonesia-Java
Bété [btg],6.25,-6.25,#4964B5,Niger-Kongo,Atlantic-Congo,Côte d'Ivoire
Bete [byf],7.05,9.748,#5C5C80,Niger-Kongo,Atlantic-Congo,Nigeria
Betoi [xxx-xxx],7.22,-71.42,#7B7248,Betoi-Jirara,,Colombia
Betta Kurumba [xub],11.58,76.55,#C4899F,Dravidian,South Dravidian,India
Bewani [pgi],-3.024,141.167,#835948,Trans New Guinea,Border,Papua New Guinea
Bezhta [kap],42.133,46.128,#31A57A,Nakh-Daghestanian,Tsezic,Russia
Bhaṭe-sa zib [xxx-102],34.94,72.88,#70A29A,Indo-European,Indo-Iranian,Afghanistan
Bhatibari [ben-5],26.48,89.54,#9B8AA4,Indo-European,Indo-Iranian,India
Bhele [bhy-2],0.25,28.67,#485F8C,Niger-Kongo,Atlantic-Congo,Democratic Republic of the Congo
Bhili [bhb],22,73,#8995C2,Indo-European,Indo-Iranian,India
Bhili_Mahikantha [bhb-2],23.83,72.5,#8692C5,Indo-European,Indo-Iranian,India
Bhoi [kha-5],25.9,91.88,#A5838C,Austroasiatic,Khasi-Palaung,India
Bhojpuri [bho],26.8,85.3,#9995BB,Indo-European,Indo-Iranian,India
Bhojpuri_Nagpuria [bho-3],23.36,85.33,#9C94BA,Indo-European,Indo-Iranian,India
Bhojpuri_Northern [bho-2],26.76,83.37,#9C94BA,Indo-European,Indo-Iranian,India
Bhojpuri_Western [bho-4],25.32,83.01,#9C94BA,Indo-European,Indo-Iranian,India
Bhumij [muw],21.333,86.5,#B18AB2,Austroasiatic,Munda,India
Biafada [bif],11.47,-15.13,#6075BF,Niger-Kongo,Atlantic-Congo,Guinea Bissau
Biage [bdf],-9.158,147.664,#746045,Southeast Papuan,Owen Stanley Ranges,Papua New Guinea
Biak [bhw],-1.14,136,#7A6449,Malayo-Polynesian,Eastern Malayo-Polynesian,Indonesia-Papua
Biak-west [bhw-2],-0.835,135.59,#614F5F,Malayo-Polynesian,Eastern Malayo-Polynesian,Indonesia-Papua
Biaka [axk-2],3.65,17.27,#4B5C7B,Niger-Kongo,Atlantic-Congo,Congo
Biali [beh],11.04,1.08,#5F5669,Niger-Kongo,Atlantic-Congo,Benin
Bian_Marind [bpv],-7.222,140.548,#436869,Anim,Marind-Yaqay,Indonesia-Papua
Biangai [big],-7.33,146.75,#A46B5A,Trans New Guinea,Oro-Wharton,Papua New Guinea
Biao [byk-3],23.9,112.2,#4761D0,Tai-Kadai,Kam-Tai,China
Biao_Dagang [byk-2],23.81,112.135,#4C65D1,Tai-Kadai,Kam-Tai,China
Biao_Yonggu [byk],23.72,112.07,#4863CA,Tai-Kadai,Kam-Tai,China
Biaomin Yao [bmt],23.6,111.75,#4E72E2,Hmong-Mien,Mienic,China
Biatah [bth-2],1.264,110.32,#A06076,Malayo-Polynesian,Land Dayak,Indonesia-Kalimantan
Bidjara [bym],-24.5,146.592,#E68182,Pama-Nyungan,Greater Maric,Australia
Bierebo [bnk],-16.667,168.131,#728994,Oceanic,Southern Oceanic,Vanuatu
Bieria [brj],-16.807,168.194,#8A6163,Oceanic,Southern Oceanic,Vanuatu
Bih [rad],12.48,108.025,#7474B9,Malayo-Polynesian,Malayo-Sumbawan,Vietnam
Bijago [bjg],11.28,-15.83,#7465AE,Niger-Kongo,Atlantic-Congo,Guinea Bissau
Bijago_Orango [bjg-2],11.034,-16.146,#A1689C,Niger-Kongo,Atlantic-Congo,Guinea Bissau
Bikele [biw],3.66,12.86,#5F65B6,Niger-Kongo,Atlantic-Congo,Cameroon
Bikol [bcl],13.333,123.5,#A9745B,Malayo-Polynesian,Philippines,Philippines
Bikol_Iriga [bcl-3],13.39,123.33,#B4745E,Malayo-Polynesian,Philippines,Philippines
Bikol_Naga [bcl-4],13.62,123.17,#A46E5E,Malayo-Polynesian,Philippines,Philippines
Biksi [yet],-4.013,140.494,#9A5D7B,Yetfa-Biksi,,Papua New Guinea
Bila [bip],1.17,28.76,#2C5095,Niger-Kongo,Atlantic-Congo,Democratic Republic of the Congo
Bilba [bpz],-10.67,123.34,#8B6156,Malayo-Polynesian,Timoric,Indonesia-NTT
Bilbil [brz],-5.26,145.76,#AF6961,Oceanic,Western Oceanic,Papua New Guinea
Biliau [bcu-2],-5.65,146.3,#A06B5E,Oceanic,Western Oceanic,Papua New Guinea
Bilin [byn],15.9,38.3,#9BA186,Afro-Asiatic,Cushitic,Eritrea
Bilinara [nbj],-16,131.667,#F2898C,Pama-Nyungan,Ngumbin-Yapa,Australia
Biloxi [bll],32.25,-90,#3F6954,Siouan,Western Siouan,USA
Bilua [blb],-7.75,156.667,#A46673,Solomons East Papuan,,Solomons
Bima [bhp],-8.545,118.677,#487489,Malayo-Polynesian,Bima,Indonesia-NTB
Bima_Kolo [bhp-2],-8.32,118.76,#567983,Malayo-Polynesian,Bima,Indonesia-NTB
Bimin [bhl],-5.43,141.942,#705B59,Trans New Guinea,Ok,Papua New Guinea
Bimoba [bim],10.46,0.06,#6761B6,Niger-Kongo,Atlantic-Congo,Ghana
Bina [bmn],-10.249,149.683,#926142,Oceanic,Western Oceanic,Papua New Guinea
Binandere [bhg],-8.167,147.917,#775959,Trans New Guinea,Oro-Wharton,Papua New Guinea
Binbinga [wmb-2],-16.17,135,#F28D8F,Mirndi,Ngurlun,Australia
Bine [bon],-9.05,142.884,#9B6277,Eastern Trans Fly,,Papua New Guinea
Bini_Edo [bin],6.42,5.83,#375E8B,Niger-Kongo,Atlantic-Congo,Nigeria
Bini-2 [bin-2],6.41,5.7,#50658F,Niger-Kongo,Atlantic-Congo,Nigeria
Binigura [pnv],-22.488,116.506,#FA8C98,Pama-Nyungan,Kanyara-Mantharta,Australia
Bininj Gun-Wok [gup],-12.5,133.75,#E38899,Macro-Gunwinygu,Gunwingyuan proper,Australia
Bintan Orang Laut [zlm-14],1.077,104.5,#896797,Malayo-Polynesian,Malayo-Sumbawan,Indonesia-Sumatra
Bintauna [bne],0.75,123.49,#756974,Malayo-Polynesian,Philippines,Indonesia-Sulawesi
Bintulu [bny],3.83,113.67,#9C7784,Malayo-Polynesian,North Borneo,Malaysia-Borneo
Binukid [bkd],8.3,125,#AE785A,Malayo-Polynesian,Philippines,Philippines
Binumarien [bjr],-6.25,146.08,#6A4F65,Trans New Guinea,Morobe-Eastern Highlands,Papua New Guinea
Binyang [cmn-47],23.22,108.82,#4964B9,Tibeto-Burman,Sinitic,China
Bipi [biq],-2.109,146.4,#8B7286,Oceanic,Admiralties,Papua New Guinea
Bira [brf-2],1.6,30.13,#2A65B8,Niger-Kongo,Atlantic-Congo,Democratic Republic of the Congo
Bira [brf],1.5,30.03,#496FA1,Niger-Kongo,Atlantic-Congo,Democratic Republic of the Congo
Birao [brr],-9.746,160.515,#916D67,Oceanic,Southeast Solomonic,Solomons
Birgid [btf],13,27,#5869A0,Afro-Asiatic,Chadic,Sudan
Biri [bvi],7.55,6.233,#4F77C4,Ubangian,Sere-Mba,Nigeria
Biri [bzr],-20.5,146.5,#EE8384,Pama-Nyungan,Greater Maric,Australia
Birifor [biv],9.29,-2.73,#4A77B4,Niger-Kongo,Atlantic-Congo,Ghana
Biritai [bqq],-3,137.6,#46334C,Lakes Plains,Tariku,Indonesia-Papua
Birom [bom],9.67,8.83,#385E87,Niger-Kongo,Atlantic-Congo,Nigeria
Birriya [xpa-2],-24.5,143.5,#F98B97,Pama-Nyungan,Pirriya,Australia
Bisa [bib],11.783,0.366,#6D5C9F,Mande,Eastern Mande,Burkina Faso
Bisayah_Sarawak [bsb],5.33,115.5,#926489,Malayo-Polynesian,North Borneo,Malaysia-Borneo
Bishnupriya [bpy],25.08,92.92,#AB7A5B,Indo-European,Indo-Iranian,India
Bisiacco [vec-2],45.95,12.45,#6B7298,Indo-European,Romance,Italy
Bissa [bib-2],10.43,-1.67,#8A5998,Mande,Eastern Mande,Burkina Faso
Bisu [bii],19.75,100,#6683C9,Tibeto-Burman,Lolo-Burmese,Thailand
Bitur [mcc],-8.52,142.71,#8B664B,Anim,Tirio,Papua New Guinea
Biya [mij-6],6.615,10.18,#3565C7,Niger-Kongo,Atlantic-Congo,Cameroon
Biyo [byo],22.51,101.65,#3866A6,Tibeto-Burman,Lolo-Burmese,Thailand
Bizkaian [eus-7],43.25,-2.98,#AF8D70,Basque,,Spain
Bjokapakha [tsj-3],26.965,91.05,#7785CE,Tibeto-Burman,Bodic,Bhutan
Bjokapakha-2 [tsj-4],26.965,91.045,#6A76B4,Tibeto-Burman,Bodic,Bhutan
Blablanga [blp],-8.17,159.42,#8493AA,Oceanic,Western Oceanic,Solomons
Blablanga_Ghove [blp-2],-8.33,159.5,#7498AE,Oceanic,Western Oceanic,Solomons
Black Lahu [lhu-2],20.355,99.77,#326CBD,Tibeto-Burman,Lolo-Burmese,Myanmar
Black_Tai [blt-2],19.75,105,#3166AC,Tai-Kadai,Kam-Tai,Vietnam
Blackfoot [bla],50,-112.67,#8C773A,Algic,Algonquian,Canada
Blagar [beu],-8.33,124.25,#886566,Timor-Alor-Pantar,Alor-Pantar,Indonesia-NTT
Blang [blr],23.3,100,#5B66BF,Austroasiatic,Khasi-Palaung,China
Boano [bzl],0.51,120.99,#AA7064,Malayo-Polynesian,Celebic,Indonesia-Sulawesi
Boano [bzn],-2.96,127.95,#855B2F,Malayo-Polynesian,Central Maluku,Indonesia-Maluku-north
Boazi [kvg],-7,141.25,#3F6766,Anim,Boazi,Papua New Guinea
Boazi_Kuni [kvg-2],-6.913,141.326,#3A626E,Anim,Boazi,Papua New Guinea
Bobangi [bni],0,17.8,#3C6581,Niger-Kongo,Atlantic-Congo,Democratic Republic of the Congo
Bobo_Madare_North [bbo-2],12.42,-4.48,#7B60AC,Mande,Western Mande,Burkina Faso
Bobo_Madare_South [bwq],11.54,-4.26,#6E5299,Mande,Western Mande,Burkina Faso
Bobo-Fing [bbo],11.83,-4.42,#5259BA,Mande,Western Mande,Burkina Faso
Bobongko [bgb],-0.5,121.75,#AE6F71,Malayo-Polynesian,Celebic,Indonesia-Sulawesi
Bobot [bty],-3.33,130.17,#806646,Malayo-Polynesian,Central Maluku,Indonesia-Maluku-north
Bocota [sab],9.34,-82.24,#864C73,Chibchan,Core Chibchan,Panama
Bogaya [boq],-5.621,142.231,#6B6654,Trans New Guinea,Duna-Bogaya,Papua New Guinea
Bohemian [ces-3],50,13,#58A075,Indo-European,Balto-Slavic,Czech Republic
Boholano [ceb-2],9.9,124.2,#B98566,Malayo-Polynesian,Philippines,Philippines
Bohutu [bxh],-10.5,150.33,#569A5D,Oceanic,Western Oceanic,Papua New Guinea
Boiken [bzf],-3.525,143.415,#716860,Ndu,Boiken,Papua New Guinea
Bokala [gix],4.57,19.02,#415CAD,Ubangian,Sere-Mba,Democratic Republic of the Congo
Bokar [adi-2],29,94.35,#8B629D,Tibeto-Burman,Macro-Tani,India
Boko [bkp],10.52,3.72,#3C5E78,Mande,Eastern Mande,Benin
Bokyi [bky],6.1,9.06,#4967B3,Niger-Kongo,Atlantic-Congo,Nigeria
Bola [bnp],-5.5,150,#A7675D,Oceanic,Western Oceanic,Papua New Guinea-Bismarcks
Bola [bxd-3],24.45,98.6,#3C68B4,Tibeto-Burman,Lolo-Burmese,China
Bolaang-Mongondow [mog],0.55,124,#AF7372,Malayo-Polynesian,Philippines,Indonesia-Sulawesi
Bolano [bzl-2],0.52,121,#B37370,Malayo-Polynesian,Celebic,Indonesia-Sulawesi
Bole [bol],11.007,10.747,#3E72A2,Afro-Asiatic,Chadic,Nigeria
Bolgo [bvo-2],10.9,18.81,#67599A,Niger-Kongo,Atlantic-Congo,Chad
Bolgo_Dugag [bvo],10.79,18.61,#7355A2,Niger-Kongo,Atlantic-Congo,Chad
Bolinao [smk],16.341,119.893,#AD6A60,Malayo-Polynesian,Philippines,Philippines
Bologna [ita-4],44.51,11.35,#6D6FA1,Indo-European,Romance,Italy
Bolyu [ply],24.78,105.35,#3B73C7,Austroasiatic,Mangic,China
Bom [bmf],9.28,-11.6,#596FA0,Niger-Kongo,Atlantic-Congo,Sierra Leone
Boma [boh],2.5,15.6,#3D6FB1,Niger-Kongo,Atlantic-Congo,Cameroon
Bomitaba [zmx],1.701,17.371,#3C6697,Niger-Kongo,Atlantic-Congo,Congo
Bomitaba-2 [zmx-2],1.7,17.37,#485763,Niger-Kongo,Atlantic-Congo,Congo
Bonan [peh-6],35.7,103,#5492A7,Mongolic,Core Mongolic,China
Bonda [bfw-2],19,82.75,#C6868F,Austroasiatic,Munda,India
Bondei [bou],-5.082,38.432,#617062,Niger-Kongo,Atlantic-Congo,Tanzania
Bonerate [bna],-7.38,121.79,#65656B,Malayo-Polynesian,Celebic,Indonesia-Sulawesi
Bongaigaon [asm-4],26.48,90.56,#685D95,Indo-European,Indo-Iranian,India
Bonggi [bdg],7.3,117.2,#995C6A,Malayo-Polynesian,North Borneo,Philippines
Bonggo [bpg],-2.28,139.6,#926351,Oceanic,Western Oceanic,Indonesia-Papua
Bongili [bui],0.37,16.61,#52607B,Niger-Kongo,Atlantic-Congo,Congo
Bongo [bot],7.5,28,#5C68B5,Nilo-Saharan,Central Sudanic,South Sudan
Boni [bob],0.5,43,#6C9187,Afro-Asiatic,Cushitic,Somalia
Bonifacino [lij-3],41.39,9.16,#5280A0,Indo-European,Romance,France
Bontoc_Guinaang [bnc-2],17.08,120.9,#AB7059,Malayo-Polynesian,Philippines,Philippines
Bontok [bnc],17.083,120.917,#AB6D57,Malayo-Polynesian,Philippines,Philippines
Bor [bvf],5.605,27.472,#B279AD,Afro-Asiatic,Chadic,South Sudan
Bora [boa],-2.25,-71.75,#638157,Boran,Bora,Peru
Bori [adi-5],28.2,94.6,#885B94,Tibeto-Burman,Macro-Tani,India
Bormiese [ita-16],46.47,10.375,#4F709D,Indo-European,Romance,Italy
Bornholmsk [scy],55,15,#41678E,Indo-European,Germanic,Denmark
Boro [brx],26.75,92,#6C528B,Tibeto-Burman,Bodo-Garo,India
Boro [bwo],10.66,35.34,#695481,Afro-Asiatic,Omotic,Ethiopia
Borong Kosorong [ksr],-6.534,147.502,#9D646E,Trans New Guinea,Morobe-Eastern Highlands,Papua New Guinea
Boróro [bor],-15,-52,#9C6452,Macro-Je,Bororo,Brazil
Bororo-2 [bor-2],-16.6,-55.2,#9E6454,Macro-Je,Bororo,Brazil
Boruca [brn],9.001,-83.325,#5A6D89,Chibchan,Core Chibchan,Costa Rica
Bosavi [bco-2],-6.425,142.765,#706151,Trans New Guinea,Bosavi,Papua New Guinea
Bosnian [bos],44,18,#6C9F81,Indo-European,Balto-Slavic,Bosnia
Botin_Samban [kbx-2],-4.33,144.17,#9A695E,Ap Ma,,Papua New Guinea
Botlikh [bph],42.66,46.22,#43A56C,Nakh-Daghestanian,Avar-Andi,Russia
Bourbonnais [fra-11],46.57,3.33,#655D94,Indo-European,Romance,France
Bouyei [pcc-5],25.817,107.55,#4877CD,Tai-Kadai,Kam-Tai,China
Bouyei_Changshun Duncao [pcc-9],25.9,106.5,#4475D4,Tai-Kadai,Kam-Tai,China
Bouyei_Dushan Huanghou [pcc-11],25.4,107.6,#476FD8,Tai-Kadai,Kam-Tai,China
Bouyei_Guiding Houchang [pcc-13],26.4,107,#426CD8,Tai-Kadai,Kam-Tai,China
Bouyei_Huishui Yashui [pcc-12],26,106.9,#476DD7,Tai-Kadai,Kam-Tai,China
Bouyei_Libo Fucun [pcc-10],25.3,108,#486AD0,Tai-Kadai,Kam-Tai,China
Bouyei_Luodian Bamao [pcc-8],25.3,106.95,#4572D9,Tai-Kadai,Kam-Tai,China
Bouyei_Luodian Luokun [pcc-7],25.25,106.7,#446FCE,Tai-Kadai,Kam-Tai,China
Bouyei_Pingtang Sizhai [pcc-14],25.65,107.4,#496CDB,Tai-Kadai,Kam-Tai,China
Bouyei_Sandu Zhouqin [pcc-15],25.7,107.9,#3F76D4,Tai-Kadai,Kam-Tai,China
Bouyei_west [pcc-2],25.75,107.333,#5674D5,Tai-Kadai,Kam-Tai,China
Boze [jer],10.2,8.96,#4161C9,Niger-Kongo,Atlantic-Congo,Nigeria
Brabants [nld-3],50.75,4.65,#515D87,Indo-European,Germanic,Belgium
Brag-g.yab [khg-2],30.65,97.55,#7485C9,Tibeto-Burman,Bodic,China
Brahui (Jahlawān) [brh-4],25.81,66.49,#678F5D,Dravidian,North Dravidian,Pakistan
Brahui [brh],29,67,#9DA680,Dravidian,North Dravidian,Pakistan
Brahui_Jahlawan [brh-3],25.79,66.51,#60915E,Dravidian,North Dravidian,Pakistan
Brahui_Sarawan [brh-2],29,66.6,#5D8E5E,Dravidian,North Dravidian,Pakistan
Brajbhasha [bra],27.49,77.67,#7E91BB,Indo-European,Indo-Iranian,India
Brao [brb],14,107.001,#6988C8,Austroasiatic,Bahnaric,Cambodia
Brao_Krung [brb-2],13.8,107,#818DB6,Austroasiatic,Bahnaric,Cambodia
Breton [bre],47.65,-2.75,#3C859D,Indo-European,Celtic,France
Breton_Grand Lorient [bre-6],47.75,-3.36,#5490BF,Indo-European,Celtic,France
Breton_Kerneveg [bre-2],48,-4.1,#3A879A,Indo-European,Celtic,France
Breton_Leoneg [bre-3],48.6,-4.3,#3B899B,Indo-European,Celtic,France
Breton_Plozevet [bre-5],47.99,-4.42,#6583B3,Indo-European,Celtic,France
Breton_Tregiereg [bre-4],48.5,-3.125,#3A879A,Indo-European,Celtic,France
Bribri [bzd],9.5,-83,#4768A0,Chibchan,Core Chibchan,Costa Rica
Brinken [zmd],-14.05,130.08,#EE8587,Western Daly,Bringen,Australia
Brokpa [sgt],27.33,92,#5B79B3,Tibeto-Burman,Bodic,Bhutan
Bru_Western [brv],16.75,104.75,#6870AC,Austroasiatic,Katuic,Laos
Brugge [vls-3],51.22,3.23,#4F6789,Indo-European,Germanic,Netherlands
Bruu [bru],17.167,104.333,#4962BE,Austroasiatic,Katuic,Thailand
Bu [jid],9.05,8.66,#41629E,Niger-Kongo,Atlantic-Congo,Nigeria
Buamu [box],11.17,-3.5,#855073,Niger-Kongo,Atlantic-Congo,Burkina Faso
Buang_Central [bzh],-6.855,146.774,#77939C,Oceanic,Western Oceanic,Papua New Guinea
Bube [bvb],3.5,8.7,#4069AB,Niger-Kongo,Atlantic-Congo,Equatorial Guinea
Bubia [bbx-2],4.02,9.22,#5264A9,Niger-Kongo,Atlantic-Congo,Cameroon
Budong-bundong [bdx],-2.171,119.328,#9E695A,Malayo-Polynesian,Greater South Sulawesi,Indonesia-Sulawesi
Budu [buu-3],2.011,27.949,#2B65AE,Niger-Kongo,Atlantic-Congo,Democratic Republic of the Congo
Budu [buu],2.01,27.95,#296EBA,Niger-Kongo,Atlantic-Congo,Democratic Republic of the Congo
Buduma [bdm],13.6,14,#53628E,Afro-Asiatic,Chadic,Chad
Budux [bdk],41.19,48.37,#31A482,Nakh-Daghestanian,Lezgic,Russia
Bugan [bbh],23.75,105,#2D75D3,Austroasiatic,Mangic,China
Bugan_Nala [bbh-2],23.487,105.15,#2D75D3,Austroasiatic,Mangic,China
Bughotu [bgt],-8.478,159.808,#897262,Oceanic,Southeast Solomonic,Solomons
Bugis [bug],-4,120,#A86D7F,Malayo-Polynesian,Greater South Sulawesi,Indonesia-Sulawesi
Bugun [bgn],27.3,92.35,#4F76AD,Tibeto-Burman,Kho-Bwa,India
Buhid [bku],12.574,121.25,#AB6B61,Malayo-Polynesian,Philippines,Philippines
Buin [buo],-6.75,155.833,#9C4F5C,South Bougainville,Buin,Papua New Guinea-Bougainville
Bukar_Sadong [sdo],0.97,110.66,#7B6E9B,Malayo-Polynesian,Land Dayak,Malaysia-Borneo
Bukat [bvk],1.29,113.25,#B67971,Malayo-Polynesian,Land Dayak,Malaysia-Borneo
Bukawa [buk],-6.732,147.359,#525D6A,Oceanic,Western Oceanic,Papua New Guinea
Buket [bvk-2],0.8,112.6,#996360,Malayo-Polynesian,Land Dayak,Malaysia-Borneo
Bukhari [bhh],39.79,64.45,#528757,Indo-European,Indo-Iranian,Tajikistan
Bukit [bvu],-2.75,115.64,#CA7C7A,Malayo-Polynesian,Malayo-Sumbawan,Indonesia-Kalimantan
Bukitan [bkn],2.35,114.89,#B27373,Malayo-Polynesian,Malayo-Sumbawan,Malaysia-Borneo
Bukiyip_Arapesh [ape],-3.667,142.5,#786384,Torricelli,Kombio-Arapesh,Papua New Guinea
Bukusu [bxk],1.02,35,#9E6A61,Niger-Kongo,Atlantic-Congo,Kenya
Bularnu [yil],-21.5,137.5,#F08FA2,Pama-Nyungan,Warluwaric,Australia
Bulgarian [bul],43,25,#468C70,Indo-European,Balto-Slavic,Bulgaria
Bulgarian_Banat [bul-6],45.7,20.9,#488389,Indo-European,Balto-Slavic,Bulgaria
Bulgarian_Boboshevo [bul-4],42.15,23,#539265,Indo-European,Balto-Slavic,Bulgaria
Bulgarian_Erkech [bul-5],42.84,27.58,#4F8E67,Indo-European,Balto-Slavic,Bulgaria
Bulgarian_Gabare [bul-8],43.316,21.92,#52906B,Indo-European,Balto-Slavic,Bulgaria
Bulgarian_Lovec [bul-9],43.14,24.71,#4D8C70,Indo-European,Balto-Slavic,Bulgaria
Bulgarian_Moesian [bul-3],42.7,27.75,#5C89A3,Indo-European,Balto-Slavic,Bulgaria
Bulgarian_Momchilovci [bul-10],41.66,24.77,#49896A,Indo-European,Balto-Slavic,Bulgaria
Bulgarian_North-west [bul-7],43.6,23.18,#448A71,Indo-European,Balto-Slavic,Bulgaria
Bulgarian_Nova Nadezda [bul-11],42.02,25.72,#599167,Indo-European,Balto-Slavic,Bulgaria
Buli [bzq],0.833,128.5,#9E6F6F,Malayo-Polynesian,Eastern Malayo-Polynesian,Indonesia-Maluku-north
Bulu [bum],2.917,11.15,#376A9B,Niger-Kongo,Atlantic-Congo,Cameroon
Bulungan [bdb-2],0.89,117.58,#B06D78,Malayo-Polynesian,Basap,Indonesia-Kalimantan
Bulusu [bqr],3,116,#AE6C6D,Malayo-Polynesian,Bulusu,Indonesia-Kalimantan
Bum [bmv],6.49,10.42,#3B6790,Niger-Kongo,Atlantic-Congo,Cameroon
Buma [tkw],-11.615,166.966,#B17E8F,Oceanic,Te Motu,Solomons_East
Buma [yns-2],-3.33,17.5,#4674BA,Niger-Kongo,Atlantic-Congo,Democratic Republic of the Congo
Bumang [bvp],22.5,96.5,#3465C9,Austroasiatic,Khasi-Palaung,Laos
Bumbita_Arapesh [aon],-3.667,142.833,#8D7062,Torricelli,Kombio-Arapesh,Papua New Guinea
Bumthang [kjz],27.802,90.8,#6F7ACB,Tibeto-Burman,Bodic,Bhutan
Bumthang_Ura [kjz-2],27.48,90.905,#4262EA,Tibeto-Burman,Bodic,Bhutan
Bunama [bdd],-10.064,151.075,#818755,Oceanic,Western Oceanic,Papua New Guinea
Bunan [bfu],32.61,76.91,#547CC1,Tibeto-Burman,Western Himalayan,India
Bunaq [bfn],-9.1,125.15,#4F646B,Timor-Alor-Pantar,Mainland Timor-Alor-Pantar,Indonesia-NTT
Bunaq_Lolotoen [bfn-2],-9.161,125.26,#506564,Timor-Alor-Pantar,Mainland Timor-Alor-Pantar,Timor leste
Bunaq_South [bfn-3],-9.227,125.393,#576765,Timor-Alor-Pantar,Mainland Timor-Alor-Pantar,Timor leste
Bundeli [bns],23.18,79.95,#9E95C2,Indo-European,Indo-Iranian,India
Bunganditj [xbg],-36.5,141,#F98D99,Pama-Nyungan,Kulinic,Australia
Bungku [bkz],-3,122.33,#616574,Malayo-Polynesian,Celebic,Indonesia-Sulawesi
Bungku_Tulambatu [bkz-2],-3.17,122.12,#616573,Malayo-Polynesian,Celebic,Indonesia-Sulawesi
Bungu [wun],-8.33,32.88,#3361C2,Niger-Kongo,Atlantic-Congo,Tanzania
Bunong [cmo],12.63,107.3,#6A80BE,Austroasiatic,Bahnaric,Cambodia
Bunu [buh],25.5,108.7,#377AF0,Hmong-Mien,Hmongic,China
Bunu_Dongnu [bwx],23.88,108.08,#207DFF,Hmong-Mien,Hmongic,China
Bunu_Nunu [bwx-2],23.799,110.178,#2E73DB,Hmong-Mien,Hmongic,China
Bunuba [bck],-17.75,125.75,#F78B99,Bunuban,,Australia
Bunun [bnn],23.5,121,#897549,Austronesian,Bunun,Taiwan
Bunun_Isbukun [bnn-2],23.459,121.056,#788F58,Austronesian,Bunun,Taiwan
Buol [blf],1,121.5,#91655C,Malayo-Polynesian,Philippines,Indonesia-Sulawesi
Bura [bwr],10.611,12.195,#348EA6,Afro-Asiatic,Chadic,Nigeria
Burarra [bvr],-12.25,134.667,#E6849C,Macro-Gunwinygu,Maningrida,Australia
Burji [bji],5.5,37.9,#5A8A64,Afro-Asiatic,Cushitic,Ethiopia
Burmbar [vrt],-16.372,167.749,#75596A,Oceanic,Southern Oceanic,Vanuatu
Burmese [mya],20,96,#497AD4,Tibeto-Burman,Lolo-Burmese,Myanmar
Burmese_Arakan [mya-4],20.14,92.9,#4C7DDC,Tibeto-Burman,Lolo-Burmese,Myanmar
Burmese_Intha [mya-3],20.55,96.92,#5077CE,Tibeto-Burman,Lolo-Burmese,Myanmar
Burmese_Myeik [mya-2],12.43,98.6,#3A71C1,Tibeto-Burman,Lolo-Burmese,Myanmar
Burmese_Palaw [mya-6],13.12,98.68,#446DC2,Tibeto-Burman,Lolo-Burmese,Myanmar
Burmese_Tavoyan [mya-5],14.08,98.2,#4278D9,Tibeto-Burman,Lolo-Burmese,Myanmar
Burmeso [bzu],-2.447,138.209,#737045,Burmeso,,Indonesia-Papua
Buru [mhs],-3.7,126.4,#A06F67,Malayo-Polynesian,Central Maluku,Indonesia-Maluku-north
Burum [bmu],-6.484,147.311,#AC816E,Trans New Guinea,Morobe-Eastern Highlands,Papua New Guinea
Burum_Mindik [bmu-3],-6.47,147.44,#738D61,Trans New Guinea,Morobe-Eastern Highlands,Papua New Guinea
Burun [bdi-2],10.8,33.8,#B769AA,Nilo-Saharan,Eastern Sudanic,Sudan
Burushaski [bsk],36.5,74.5,#5C9BB0,Burushaski,,Pakistan
Burushaski_eastern [bsk-2],36.32,74.65,#508DC0,Burushaski,,Pakistan
Burushaski_Jammu-Kashmir [bsk-3],34.11,74.82,#6A94BE,Burushaski,,India
Buruwai [asi-2],-3.55,133.33,#88644A,Trans New Guinea,Asmat-Kamoro,Indonesia-Papua
Buryat [bxm],52,108,#6B695B,Mongolic,Core Mongolic,Russia
Busa [bqp],9.67,4,#276985,Mande,Eastern Mande,Nigeria
Busa-2 [bqp-2],9.91,4.4,#43536B,Mande,Eastern Mande,Nigeria
Busami [bsm],-1.8,135.95,#8F6249,Malayo-Polynesian,Eastern Malayo-Polynesian,Indonesia-Papua
Bushong [buf],-4.67,21.3,#535DB8,Niger-Kongo,Atlantic-Congo,Democratic Republic of the Congo
Busoa [bup],-5.62,122.616,#3E7687,Malayo-Polynesian,Celebic,Indonesia-Sulawesi
Butmas_Tur [bnr],-15.376,167.028,#A6656B,Oceanic,Southern Oceanic,Vanuatu
Buwal [bhs],10.5,13.86,#3EA89F,Afro-Asiatic,Chadic,Cameroon
Buxing [bgk-2],21.48,101.57,#4877B5,Austroasiatic,Khasi-Palaung,China
Buyang [yha],24,104.8,#3E82E1,Tai-Kadai,Kadaic,China
Buyi_Hezhang [pcc-3],27.12,104.73,#3374D4,Tai-Kadai,Kam-Tai,China
Buyuan_Jino [jiy],22.05,101,#415FC8,Tibeto-Burman,Lolo-Burmese,China
Bwaidoka [bwd],-9.479,150.311,#6F8052,Oceanic,Western Oceanic,Papua New Guinea
Bwala [xxx-115],-4.45,16.2,#3274B0,Niger-Kongo,Atlantic-Congo,Democratic Republic of the Congo
Byansi [bee],30.17,80.5,#737FCB,Tibeto-Burman,Western Himalayan,India
C'lela [dri],11.47,5.27,#31ACA6,Niger-Kongo,Atlantic-Congo,Nigeria
Caac [msq],-20.42,164.42,#9A8EC5,Oceanic,Southern Oceanic,New Caledonia
Cabecar [cjp],9.91,-83.68,#5862B2,Chibchan,Core Chibchan,Costa Rica
Cabiyarí [cbb],-0.1302,-70.6927,#9F7047,Arawak,Northern Maipuran,Colombia
Cacaopera [ccr],13.74,-88.11,#9F7245,Misumalpan,Sumalpan,Nicaragua
Caddo [cad],33.33,-93.5,#457A5A,Caddoan,Caddo,USA
Cadorino [ita-21],46.445,12.39,#61678F,Indo-European,Romance,Italy
Cagayano [cgc-2],10.47,119.87,#A57857,Malayo-Polynesian,Philippines,Philippines
Cagliaritano [ita-55],39.225,9.15,#557495,Indo-European,Romance,Italy
Cahita [opt-2],27.9,-109,#616B5E,Uto-Aztecan,Cahitan,Mexico
Cahuilla [chl],33.75,-117.75,#7DA86C,Uto-Aztecan,North Uto-Aztecan,USA
Caijia_Niujiaojing [xxx-51],27.067,104.297,#367CD4,Tibeto-Burman,Macro-Bai,China
Caijia_Xingfa [xxx-45],26.934,104.863,#3A72C7,Tibeto-Burman,Macro-Bai,China
Cak [ckh],21.41,92.6,#5072B3,Tibeto-Burman,Jingpho,Bangladesh
Cakchiquel [ckf],14.5,-91,#599C62,Mayan,Core Mayan,Guatemala
Calabrian [scn-4],38.148,16.18,#4E8AAD,Indo-European,Romance,Italy
Calabrian-2 [scn-3],38.92,16.6,#668BA7,Indo-European,Romance,Italy
Callahuaya [caw],-15,-69,#8EA676,Puquina,,Bolivia
Calusa [xxx-100],27.76,-82.55,#A17062,Tunica,,USA
Camling [rab],27.3,86.8,#6A88B5,Tibeto-Burman,Kiranti,Nepal
Campa [cni],-12,-74,#8C7F4D,Arawak,Southern Maipuran,Peru
Campalagian [cml],-4.02,119.62,#B67381,Malayo-Polynesian,Greater South Sulawesi,Indonesia-Sulawesi
Campobassano [ita-45],41.6,14.66,#6A76A0,Indo-European,Romance,Italy
Camsá [kbh],1,-77,#41797C,Camsá,,Colombia
Camuno [lmo-7],45.943,10.28,#66639A,Indo-European,Romance,Italy
Canamari [knm-2],-6.46,-68.78,#AF6B5C,Katukinan,,Brazil
Candoshi [cbu],-4.17,-77,#698A52,Candoshi,,Peru
Canela-Krahô [ram],-6.5,-45,#89577B,Macro-Je,Je,Brazil
Canichana [caz],-14.31,-64.94,#7A794A,Canichana-Tequiraca,,Bolivia
Cantabrian_East [spa-7],43.3,-4.1,#956678,Indo-European,Romance,Spain
Cantabrian_West [spa-8],43.3,-3.9,#956278,Indo-European,Romance,Spain
Cantonese [yue],22.333,114,#4868BC,Tibeto-Burman,Sinitic,Hong Kong
Cantonese_Nanning [yue-10],22.817,108.317,#3B69B8,Tibeto-Burman,Sinitic,China
Canzés [lmo-6],45.85,9.27,#5D70AA,Indo-European,Romance,Italy
Cao Bang [zyg-2],23.18,105.41,#4167D3,Tai-Kadai,Kam-Tai,China
Caodeng_rGyalrong [jya-4],32.2,101.8,#3883C4,Tibeto-Burman,Na-Qiangic,China
Capanahua [kaq],-7,-74,#50725C,Panoan,Southern Panoan,Peru
Cappadocian [cpg],38.66,34.85,#6196AC,Indo-European,Graeco-Phrygian,Turkey
Caquinte [cot],-11.7092,-73.9252,#9E8164,Arawak,Southern Maipuran,Peru
Car [caq],9.167,92.75,#966594,Austroasiatic,Nicobar,India_Andaman-Nicobars
Cara [cfd],10.13,8.75,#4F6EAD,Niger-Kongo,Atlantic-Congo,Nigeria
Carapana [cbc],0.45,-71,#5E5543,Tucanoan,East Tucanoan,Colombia
Carib [car],7.85,-59,#795E60,Cariban,Guianan Carib,Guyana
Carib_Suriname [crb],5.7,-55.932,#9A604B,Arawak,Northern Maipuran,Suriname
Carib_Venezuela [crb-2],7.969,-65.67,#9E6248,Arawak,Northern Maipuran,Venezuela
Carijona [cbd],0.148,-70.708,#826352,Cariban,Guianan Carib,Colombia
Carolinian [cal],15,146,#6F88A4,Oceanic,Micronesian,USA Northern Mariana Islands
Carrarese [ita-29],44.08,10.1,#7073A5,Indo-European,Romance,Italy
Cashibo-Cacataibo [cbr],-9.1,-75.5,#586C58,Panoan,Southern Panoan,Peru
Cashinahua [cbs],-10.5,-71.75,#446D57,Panoan,Southern Panoan,Peru
Castagniers [frp-4],43.79,7.23,#5F678F,Indo-European,Romance,France
Castellanese [sdn-6],40.913,8.71,#7A80AB,Indo-European,Romance,Italy-Sardinia
Catalan [cat],41.4,2.02,#7C7CB2,Indo-European,Romance,Spain
Catalan_Northern [cat-5],42.7,2.9,#8B82AE,Indo-European,Romance,France
Catalan_Northwestern [cat-6],42.5,1.5,#8982AF,Indo-European,Romance,Andorra
Catanese [ita-52],37.5,15.1,#72849F,Indo-European,Romance,Italy
Catanzarese [ita-51],38.9,16.6,#8684A4,Indo-European,Romance,Italy
Catawba [chc],34,-81,#727249,Siouan,Eastern Siouan,USA
Cauho [pho-7],21.4,102,#4769D2,Tibeto-Burman,Lolo-Burmese,Laos
Cavineña [cav],-12.25,-67.5,#8E8A5E,Tacanan,Cavineña,Bolivia
Cayapa [cbi],1.2,-78.75,#979386,Barbacoan,Southern Barbacoan,Ecuador
Cayapo [txu-2],-7.77,-51.67,#A2578C,Macro-Je,Je,Brazil
Cayuga [cay],42.75,-76.75,#706040,Iroquoian,Northern Iroquoian,USA
Cayuse [xcy],46.11,-117.94,#669258,Cayuse,,USA
Cayuvava [cyb],-12.5,-67,#5C645E,Cayuvava,,Bolivia
Ce [ruk],10,8.67,#636BC7,Niger-Kongo,Atlantic-Congo,Nigeria
Cebuano [ceb],10,124,#BD8669,Malayo-Polynesian,Philippines,Philippines
Cemuhi [cam],-20.833,165,#646BAC,Oceanic,Southern Oceanic,New Caledonia
Central !Kung [nmn-3],-19.57,18.12,#3E8DD2,Tuu,Hua,Botswana
Central Banda [tor],6.64,22.76,#2D68B2,Ubangian,Bandaic,Central African Republic
Central-Eastern Niger Fulfulde [fuq],15.09,8.43,#6C78BA,Niger-Kongo,Atlantic-Congo,Niger
Cerma [cme],10.249,-4.85,#A07393,Niger-Kongo,Atlantic-Congo,Burkina Faso
Ch'ol [cti],17.49,-92.47,#627E57,Mayan,Core Mayan,Mexico
Cha'palaachi [cbi-2],0.838,-78.877,#69A379,Barbacoan,Southern Barbacoan,Ecuador
Chachapuya [xxx-109],-6.42,-77.92,#748262,Chachapoya,,Peru
Chacobo [cao],-12.25,-65,#708143,Panoan,Southern Panoan,Bolivia
Chadong [cdy],25.2,110.2,#3F7EE2,Tai-Kadai,Kam-Tai,China
Chaha [sgw],8.2,38,#3F7C61,Afro-Asiatic,Semitic,Ethiopia
Chakali [cli],9.83,-1.9,#4D59CA,Niger-Kongo,Atlantic-Congo,Ghana
Chakavian [hrv-2],45.17,14.85,#466BA2,Indo-European,Balto-Slavic,Croatia
Chakhar [mon-5],44.94,115.38,#756368,Mongolic,Core Mongolic,Mongolia
Chakhar-2 [mon-6],43,115,#808D62,Mongolic,Core Mongolic,China
Chakma [ccp],22.9,92.23,#5A6C9E,Indo-European,Indo-Iranian,Bangladesh
Chakosi [cko-2],10.36,0.48,#6161AF,Niger-Kongo,Atlantic-Congo,Ghana
Chali [tgf],27.3,91.26,#6C82C7,Tibeto-Burman,Bodic,Bhutan
Chaling [gan-20],28.81,113.64,#3369C8,Tibeto-Burman,Sinitic,China
Cham_Eastern [cjm],10.93,108.1,#6C6EBF,Malayo-Polynesian,Malayo-Sumbawan,Vietnam
Cham_Western [cja],12,105.5,#7D71A6,Malayo-Polynesian,Malayo-Sumbawan,Cambodia
Chama [ese-5],-11.33,-66.25,#698647,Tacanan,Takanik-Chamik,Bolivia
Chamacoco [ceg],-22.3578,-59.7197,#55775D,Zamucoan,,Paraguay
Chamalal_Gigatil [cji],42.54,46.06,#35AB6E,Nakh-Daghestanian,Avar-Andi,Russia
Chamalal_Nizhnee_Gakvari [cji-2],42.53,46.05,#32AC6F,Nakh-Daghestanian,Avar-Andi,Russia
Chamba [ndi-2],8.19,11.74,#5960B7,Niger-Kongo,Atlantic-Congo,Cameroon
Chambri [can],-4.167,143.083,#804F80,Lower Sepik-Ramu,Lower Sepik,Papua New Guinea
Chamicuro [ccc],-5.114,-75.736,#8A9386,Arawak,Western Maipuran,Peru
Chamorro [cha],13.583,145,#73607F,Malayo-Polynesian,Chamorro,Guam
Chaná [qsi],-34,-55,#766F68,Charruan,,Uruguay
Chang Naga [nbc],26.23,94.817,#637C83,Tibeto-Burman,Konyak,India
Changana [tso-2],-24.516,31.504,#1990D1,Niger-Kongo,Atlantic-Congo,South Africa
Changchow [nan-25],24.75,117.833,#376AC6,Tibeto-Burman,Sinitic,China
Changchun [cmn-21],43.88,125.32,#3C6ECD,Tibeto-Burman,Sinitic,China
Changle [cmn-48],25.92,119.55,#386CC0,Tibeto-Burman,Sinitic,China
Changpaoyao [bmt-2],25.417,107.88,#3579F5,Hmong-Mien,Mienic,China
Changsha [hsn],28,113,#3668C6,Tibeto-Burman,Sinitic,China
Changting [hak-14],25.83,116.35,#4166C2,Tibeto-Burman,Sinitic,China
Changzhi [cjy-4],36.167,113,#3B629B,Tibeto-Burman,Sinitic,China
Changzhou [wuu-32],31.783,119.967,#3E69D7,Tibeto-Burman,Sinitic,China
Channel_English [eng-8],49.44,-2.367,#447694,Indo-European,Germanic,Britain
Chantyal [chx],28.75,83.5,#8672AD,Tibeto-Burman,Bodic,Nepal
Chaoyang [nan-42],23.32,116.48,#3A5DB9,Tibeto-Burman,Sinitic,China
Chaozhou [nan-26],23.667,116.667,#445EC1,Tibeto-Burman,Sinitic,China
Chaplino [ess-2],65,-173,#7F9757,Eskimo-Aleut,Eskimo,Russia
Chaplino_Alaska [ess-3],63.5,-170.5,#6CC275,Eskimo-Aleut,Eskimo,USA-Alaska
Chara [cra],6.64,36.42,#509474,Afro-Asiatic,Omotic,Ethiopia
Chara-2 [cra-2],6.617,36.238,#45845E,Afro-Asiatic,Omotic,Ethiopia
Charleroi [wln-2],50.41,4.45,#6D6587,Indo-European,Romance,Belgium
Chatino [ctp],16.5,-97.25,#3F59A5,Otomanguean,Eastern Otomanguean,Mexico
Chatino_Tataltepec [cta],16.3,-97.55,#3B7EBA,Otomanguean,Eastern Otomanguean,Mexico
Chatino_Yaitepec [ctp-2],16.225,-97.27,#3B53AA,Otomanguean,Eastern Otomanguean,Mexico
Chatino_Zenzontepec [czn],17.34,-92.34,#538969,Otomanguean,Eastern Otomanguean,Mexico
Chattisgarhi [hne],21.25,81.25,#8680AE,Indo-European,Indo-Iranian,India
Chaudangsi [cdn],29.7,80.48,#838DD8,Tibeto-Burman,Western Himalayan,India
Che [ruk-2],10.03,8.65,#5B6FC0,Niger-Kongo,Atlantic-Congo,Nigeria
Che'_Wong [cwg],3.833,102,#9C7DA3,Austroasiatic,Aslian,Malaysia
Chechen [che],43.13,45.54,#2CA585,Nakh-Daghestanian,Nakh,Russia
Chechen_Pẋarçxoy Äqqiy [che-4],43.12,46.48,#23957B,Nakh-Daghestanian,Nakh,Russia
Chechen_Şaroy [che-3],42.63,45.8,#35A373,Nakh-Daghestanian,Nakh,Russia
Chechen_Ҫ̇äberloy [che-2],42.6,46,#35A373,Nakh-Daghestanian,Nakh,Russia
Cheke_Holo_Maringe [mrn],-8.5,159.67,#7495B5,Oceanic,Western Oceanic,Solomons
Chemakum [xch],48.08,-122.93,#52BA52,Chimakuan,,USA
Chemehuevi [ute-2],34.33,-115.17,#6DAB6B,Uto-Aztecan,Numic,USA
Chemnitz [nds-5],50.83,12.92,#408784,Indo-European,Germanic,Germany
Chenapian [cjn],-4.25,142.33,#66587F,Sepik,Iwam-Wogamus,Papua New Guinea
Chenchu [cde],15.88,79.25,#C1746B,Dravidian,South-Central Dravidian,India
Cheng [jeg],15,107.167,#755D91,Austroasiatic,Bahnaric,Laos
Chengdu [cmn-14],30.6,104.1,#3E62BB,Tibeto-Burman,Sinitic,China
Chengfeng [xxx-87],29.685,113.49,#3D87D2,Hmong-Mien,Hmongic,China
Chengqiao [wuu-6],31.63,121.4,#2660D4,Tibeto-Burman,Sinitic,China
Chenxian [hsn-18],26.34,113.285,#455DC5,Tibeto-Burman,Sinitic,China
Chenzhou [hsn-8],25.77,113.01,#465BC5,Tibeto-Burman,Sinitic,China
Chepang [cdm],28.05,83.92,#6399CF,Tibeto-Burman,Chepang,Nepal
Cheremis [mrj],55.624,55.484,#5B7284,Uralic,Mari,Russia
Cherepon [cpn],6.05,-0.11,#6C6FA2,Niger-Kongo,Atlantic-Congo,Ghana
Cherokee [chr],35.5,-83.5,#72674A,Iroquoian,Southern Iroquoian,USA
Cherokee_lower [chr-3],37.48,-82.53,#676444,Iroquoian,Southern Iroquoian,USA
Cherokee_Qualla [chr-2],35.5,-83.26,#826643,Iroquoian,Southern Iroquoian,USA
Cheyenne [chy],43.5,-104,#69643D,Algic,Algonquian,USA
Chiapanec [cip],16.66,-91.94,#796660,Otomanguean,Western Otomanguean,Mexico
Chibcha [chb-2],9.2,-74.5,#6C7150,Chibchan,Core Chibchan,Colombia
Chichewa [nya-2],-14.8,32.81,#2F7DBD,Niger-Kongo,Atlantic-Congo,Malawi
Chichimec [pei],24.87,-103.7,#398588,Otomanguean,Western Otomanguean,Mexico
Chickasaw [cic],34,-88,#466F6C,Muskogean,Western Muskogean,USA
Chietino [ita-44],42.35,14.17,#667793,Indo-European,Romance,Italy
Chifundi [swh-13],-4.57,39.43,#538E98,Niger-Kongo,Atlantic-Congo,Tanzania
Chiguano_Izoceño [gui-2],-20,-63,#595E37,Tupian,Tupi-Guarani,Bolivia
ChiKunda [kdn],-15.73,30.28,#2F6FA8,Niger-Kongo,Atlantic-Congo,Mozambique
Chilcotin [clc],52,-125,#23C369,Dene-Yeniseic,Na-Dene,Canada
Chimane [cas-4],-14.64,-67.84,#5B735F,Moseten,Chimane,Bolivia
Chimariko [cid],41,-123,#63B676,Chimariko,,USA
Chimila [cbg],10.75,-73,#588DB9,Chibchan,Core Chibchan,Colombia
Chimwiini [swh-4],1.1,43,#5C82A4,Niger-Kongo,Atlantic-Congo,Somalia
Chin_Daai [dao],21.1,93.65,#4576B7,Tibeto-Burman,Kuki-Chin-Naga,Myanmar
Chin_Daai_Mkuui [dao-2],21.25,93.5,#5175C6,Tibeto-Burman,Kuki-Chin-Naga,Myanmar
Chin_Falam [cfm],22.9,93.67,#6286C6,Tibeto-Burman,Kuki-Chin-Naga,Myanmar
Chin_Tiddim [ctd],23.333,93.667,#685DA7,Tibeto-Burman,Kuki-Chin-Naga,Myanmar
Chinali [cih],32.5,77.83,#7C90B0,Indo-European,Indo-Iranian,India
Chinantec_Chiltepec [csa],17.93,-96.17,#5F5F99,Otomanguean,Western Otomanguean,Mexico
Chinantec_Comaltepec [cco],17.57,-96.55,#4852B0,Otomanguean,Western Otomanguean,Mexico
Chinantec_La-Alicia [xxx-96],17.64,-96.02,#5C60B3,Otomanguean,Western Otomanguean,Mexico
Chinantec_Lacova [xxx-80],17.46,-95.94,#5462B3,Otomanguean,Western Otomanguean,Mexico
Chinantec_Lalana [cnl],17.475,-95.875,#455AC5,Otomanguean,Western Otomanguean,Mexico
Chinantec_Latani [tpx-2],17.38,-95.91,#555FA3,Otomanguean,Western Otomanguean,Mexico
Chinantec_Lealao [cle],17.32,-95.93,#4A64B6,Otomanguean,Western Otomanguean,Mexico
Chinantec_Mayultianguis [xxx-99],17.92,-96.57,#555FA3,Otomanguean,Western Otomanguean,Mexico
Chinantec_Ojitlan [chj],18.05,-96.4,#5A5DC1,Otomanguean,Western Otomanguean,Mexico
Chinantec_Ozumacin [chz],17.68,-96.23,#4C5EBF,Otomanguean,Western Otomanguean,Mexico
Chinantec_Palantla [cpa],17.83,-96.39,#425BAD,Otomanguean,Western Otomanguean,Mexico
Chinantec_Petlapa [xxx-105],17.48,-96.025,#5462B3,Otomanguean,Western Otomanguean,Mexico
Chinantec_Quetzalapa [xxx-93],17.34,-95.88,#4D5DB4,Otomanguean,Western Otomanguean,Mexico
Chinantec_Quiotepec [chq],17.6,-96.58,#3E65C6,Otomanguean,Western Otomanguean,Mexico
Chinantec_Rio-Chiquito [xxx-95],17.6,-95.97,#5A60AE,Otomanguean,Western Otomanguean,Mexico
Chinantec_Sochiapam [cso],17.825,-96.67,#3957AD,Otomanguean,Western Otomanguean,Mexico
Chinantec_Temextitlan [cco-2],17.59,-96.55,#5A4A69,Otomanguean,Western Otomanguean,Mexico
Chinantec_Teotalcingo [xxx-94],17.42,-95.95,#5462B3,Otomanguean,Western Otomanguean,Mexico
Chinantec_Tepetotutla [cnt],17.26,-96.11,#465CC1,Otomanguean,Western Otomanguean,Mexico
Chinantec_Tlacoatzintepec [ctl],17.86,-96.6,#485DB2,Otomanguean,Western Otomanguean,Mexico
Chinantec_Usila [cuc],17.89,-96.52,#4A59BE,Otomanguean,Western Otomanguean,Mexico
Chinantec_Valle_Nacional [cvn],17.77,-96.3,#585A93,Otomanguean,Western Otomanguean,Mexico
Chinantec_Yolox [xty],17.61,-96.57,#505FA2,Otomanguean,Western Otomanguean,Mexico
Chindamba [ndj],-8.4,36.03,#54628F,Niger-Kongo,Atlantic-Congo,Tanzania
Chinook [chh],46,-124,#62A653,Chinook,Lower Chinook,USA
Chinsenga [nse],-11.63,29.02,#4A74AA,Niger-Kongo,Atlantic-Congo,Mozambique
ChiNyanja [nya],-15,35,#3673AE,Niger-Kongo,Atlantic-Congo,Malawi
Chioggiotto [ita-23],44.22,12.28,#73608C,Indo-European,Romance,Italy
Chipaya [cap],-19,-68,#55C48C,Uru-Chipaya,,Bolivia
Chiquimulilla [xin-2],14.08,-90.38,#5BB387,Xinca,,Guatemala
Chiquitano [cax],-17.5,-62,#6A7D4F,Chiquitano,,Bolivia
Chiquitano_Migueleño [cax-2],-17,-60.97,#7B7851,Chiquitano,,Bolivia
Chiricahua [apm],33.5,-108,#169276,Dene-Yeniseic,Na-Dene,USA
Chiriguano_Chané [gui-3],-17.793,-63.18,#82664C,Tupian,Tupi-Guarani,Bolivia
Chiru [cdf],24.99,93.5,#5B63A4,Tibeto-Burman,Kuki-Chin-Naga,India
Chitimacha [ctm],29.67,-91,#417561,Totozoquean-Chitimacha,Chitimacha,USA
Chitoniya_Tharu [the],27.58,84.41,#8B93BF,Indo-European,Indo-Iranian,Nepal
Chittagong [ben-2],22.37,91.8,#4C7A90,Indo-European,Indo-Iranian,Bangladesh
Chiwere [iow-2],40.05,-95.52,#777E59,Siouan,Western Siouan,USA
Chöcangacakha [cgk],27.53,91.14,#5A78CD,Tibeto-Burman,Bodic,Bhutan
Chöcangacakha-2 [cgk-2],27.55,90.92,#536CBD,Tibeto-Burman,Bodic,Bhutan
Chochenyo [cst],37.65,-121.91,#8A8955,Yok-Utian,Utian,USA
Chocho [coz],17.67,-97.33,#2A74B6,Otomanguean,Eastern Otomanguean,Mexico
Choctaw [cho],32.25,-88.5,#5F7750,Muskogean,Western Muskogean,USA
Chokobo [cbo],10.35,8.85,#5271B1,Niger-Kongo,Atlantic-Congo,Nigeria
Chokri [nri],26.67,93.75,#547ED5,Tibeto-Burman,Kuki-Chin-Naga,India
Chokri-2 [nri-2],25.7,94.3,#407ACB,Tibeto-Burman,Kuki-Chin-Naga,India
Chokwe [cjk],-9.702,22.876,#2F72BA,Niger-Kongo,Atlantic-Congo,Democratic Republic of the Congo
Cholon [cht],-8,-77.5,#898756,Cholon,,Peru
Chomo [cfg],8.87,10.82,#3C5C57,Niger-Kongo,Atlantic-Congo,Nigeria
Chong [cog-2],12.91,102.01,#6D75BB,Austroasiatic,Pearic,Thailand
Chongming [wuu-35],31.67,121.5,#3D81D4,Tibeto-Burman,Sinitic,China
Chongqing [cmn-61],29.55,106.6,#3761C1,Tibeto-Burman,Sinitic,China
Chongyang [gan-3],29.55,114.17,#3860C1,Tibeto-Burman,Sinitic,China
Chono [xxx-70],-46,-75,#997E75,Chonan,Chonan Proper,Chile
Chontal [chd],18.17,-92.58,#4D816F,Mayan,Core Mayan,Mexico
Chontal [clo],16.3,-95.5,#6A8959,Tequistlatecan,,Mexico
Chonyi [coh],-3.8,39.76,#4B81B9,Niger-Kongo,Atlantic-Congo,Kenya
Chopi [cce],-24.718,34.744,#2E70B1,Niger-Kongo,Atlantic-Congo,Mozambique
Chori [cry],9.59,8.06,#4291BC,Niger-Kongo,Atlantic-Congo,Nigeria
Chorote [crq],-22,-63,#7D9472,Matacoan,Mataguayo II,Argentina
Chorti [caa],14.8,-89.3,#5D8F5B,Mayan,Core Mayan,Guatemala
Chrau [crw],10.667,107.5,#7D6C9C,Austroasiatic,Bahnaric,Vietnam
Chru [cje],11.774,108.575,#A86D8F,Malayo-Polynesian,Malayo-Sumbawan,Vietnam
Chuave [cjv],-6.168,145.119,#604C6B,Trans New Guinea,Chimbu-Wahgi,Papua New Guinea
Chuj [cac],16,-91.5,#76935F,Mayan,Core Mayan,Mexico
Chuj_Ixtatán [cnm],15.833,-91.483,#769E6C,Mayan,Core Mayan,Guatemala
Chukchansi [yok-4],36.99,-119.64,#59B78B,Yok-Utian,Yokuts,USA
Chukchi [ckt],67,-173,#BE7A61,Chukotko-Kamchatkan,Main Chukotko-Kamchatkan,Russia
Chulym [clw],54.32,89.55,#4C94A3,Turkic,Common Turkic,Russia
Chumash [boi],34.5,-120.25,#39B296,Chumashan,South Chumashan,USA
Chumash_Barbareño [boi-2],34.46,-119.7,#35B691,Chumashan,South Chumashan,USA
Chumash_Cruzeño [veo-4],34.05,-119.86,#36B592,Chumashan,South Chumashan,USA
Chumash_Ineseño [inz],34.61,-120.09,#34B492,Chumashan,South Chumashan,USA
Chumash_Obispeño [veo-5],35.29,-120.67,#35B789,Chumashan,North Chumashan,USA
Chumash_Purisimeño [veo-2],34.69,-120.43,#33B88C,Chumashan,South Chumashan,USA
Chumash_Ventureño [veo],34.22,-118.72,#34AD8C,Chumashan,South Chumashan,USA
Chumash_Ventureño-Mitsqanaqan [veo-3],34.28,-119.23,#33AC8D,Chumashan,South Chumashan,USA
Chumburung [ncu],8.15,-0.28,#5E66AA,Niger-Kongo,Atlantic-Congo,Ghana
Chung [scq],14.004,99.55,#6F7CBA,Austroasiatic,Pearic,Laos
Chungcheong_Korean [kor-6],35.83,127.15,#4B608C,Korean,,Korea
Chuukese [chk],7.333,151.75,#9F5B7A,Oceanic,Micronesian,USA Federated States of Micronesia
Chuvash [chv],55.5,47.5,#916B73,Turkic,Oghur,Russia
Chuwabu [chw],-17.36,37.1,#6B79BB,Niger-Kongo,Atlantic-Congo,Mozambique
Chuxnabán_Mixe [pxm],17,-96,#55666A,Totozoquean-Chitimacha,Totozoquean,Mexico
Ciacia [cia],-5.75,122.75,#7C6275,Malayo-Polynesian,Celebic,Indonesia-Sulawesi
Cicipu [awc],10.911,5.703,#21828E,Niger-Kongo,Atlantic-Congo,Nigeria
Cijomvu [swh-11],-3.98,39.62,#6B93AE,Niger-Kongo,Atlantic-Congo,Tanzania
CiLuba [lua],-6,22,#486490,Niger-Kongo,Atlantic-Congo,Democratic Republic of the Congo
Cimbrian [cim],45.62,11.13,#468AB5,Indo-European,Germanic,Italy
Cisuundi [sdj],-5.56,12.19,#37748B,Niger-Kongo,Atlantic-Congo,Angola
Citak [tml],-5.509,139.218,#A66350,Trans New Guinea,Asmat-Kamoro,Indonesia-Papua
Citumbuka [tum],-11,33.5,#5677A8,Niger-Kongo,Atlantic-Congo,Malawi
Coahuilteco [xcw],28,-100,#3D9F6A,Coahuilteco,,USA
Cocama-Cocamilla [cod],-5,-74.3,#B47457,Tupian,Tupi-Guarani,Peru
Cochimi [coj],27.28,-112.89,#699D60,Yuman-Cochimi,Cochimi,Mexico
Coconucan [cca],2.55,-76.65,#AD8063,Barbacoan,Northern Barbacoan,Colombia
Cocopa [coc],32.5,-115,#8BAC66,Yuman-Cochimi,Yuman,USA
Coeur d'Alene [crd],47.33,-117,#42D774,Salish,Interior Salish,USA
Cofan [con],0.25,-77,#337680,Kofan,,Ecuador
Cog-rtse_rGyalrong-2 [jya-5],31.5,102,#5191AE,Tibeto-Burman,Na-Qiangic,China
Cognino [ita-12],45.61,7.36,#5975AA,Indo-European,Romance,Italy
Cogtse Gyarong [jya],32.1,100.6,#6195B7,Tibeto-Burman,Na-Qiangic,China
Col [liw],-3.3,102.86,#AD767E,Malayo-Polynesian,Malayo-Sumbawan,Indonesia-Sumatra
Colac [xxx-42],-38.33,143.5,#F4899E,Pama-Nyungan,Kulinic,Australia
Colloquial_Tamil [tam-7],9.23,78.12,#B3839E,Dravidian,South Dravidian,India
Columbian [col-2],48.22,-118.45,#4DDD6C,Salish,Interior Salish,USA
Comacchiese [ita-31],44.7,12.18,#606FA4,Indo-European,Romance,Italy
Comanche [com],33.5,-101.5,#766E42,Uto-Aztecan,Numic,USA
Comecrudo [xcm],26.09,-98.28,#908642,Coahuiltecan,,Mexico
Comorian [wlc-2],-12.17,44.25,#3F8E8B,Niger-Kongo,Atlantic-Congo,Comoros
Comox [coo],49.75,-125,#49D56E,Salish,Central Salish,Canada
Cone [adx-4],34.58,103.5,#397ACE,Tibeto-Burman,Bodic,China
Congjiang [kmc-2],25.752,108.91,#4285DD,Tai-Kadai,Kam-Tai,China
Coos [csz],43.5,-124.17,#34B36D,Coos,,USA
Cora [crn],23.333,-99,#579274,Uto-Aztecan,Corachol,Mexico
Cora_Ixcatan [crn-2],20.88,-103.35,#859562,Uto-Aztecan,Corachol,Mexico
Cornish [cor],50.5,-4.5,#397785,Indo-European,Celtic,Britain
Corsican [cos],42.1,9.5,#89A492,Indo-European,Romance,France
Cosao [xxx-25],21.62,101.567,#3373D7,Tibeto-Burman,Lolo-Burmese,China
Cotabato_Manobo_Kalamansig [mta-2],6.421,124.29,#856655,Malayo-Polynesian,Philippines,Philippines
Cowlitz [cow],46.5,-123.17,#59BE55,Salish,Tsamosan,USA
Cree_East [crl],50.42,-73.87,#75773E,Algic,Algonquian,Canada
Cree_Moose [crm],51.33,-80.5,#817844,Algic,Algonquian,Canada
Cree_Plains [crk],54,-116,#886D3D,Algic,Algonquian,Canada
Cree_Swampy [csw],54.5,-84,#8B7343,Algic,Algonquian,Canada
Cree_Woods [cwd],57.5,-100.5,#7E703D,Algic,Algonquian,Canada
Creek [mus],30.41,-85.2,#5C6065,Muskogean,Creek,USA
Cremonese [lmo-8],45.13,10.03,#5C71A0,Indo-European,Romance,Italy
Crimean Tatar [crh],45.58,34.1,#49847A,Turkic,Common Turkic,Ukraine
Crimean Tatar_northern [crh-4],46.38,35.19,#588877,Turkic,Common Turkic,Ukraine
Crimean Tatar_south central [crh-3],45.06,34.6,#468379,Turkic,Common Turkic,Ukraine
Crimean Tatar_southern [crh-2],44.5,34.16,#4C7A76,Turkic,Common Turkic,Ukraine
Croatian [hrv],45.5,17.3,#729F82,Indo-European,Balto-Slavic,Croatia
Cross_River_Mbembe [mfn],6.17,8.24,#4C6FAD,Niger-Kongo,Atlantic-Congo,Nigeria
Crow [cro],45.5,-108,#565A4E,Siouan,Western Siouan,USA
Cua [cua],15.167,108.667,#636BB9,Austroasiatic,Bahnaric,Vietnam
Cubeo [cub],1.33,-70.5,#5C5341,Tucanoan,Central Tucanoan,Colombia
Cuiba [cui],6.5,-70.5,#62685A,Guahiban,Central Guahiban,Colombia
Cuicatec [xtu],17.98,-96.72,#4F6151,Otomanguean,Eastern Otomanguean,Mexico
Cuitlatec [qpb],18.1,-100.34,#607E54,Cuitlatec,,Mexico
Cup'ik [esu-2],61.525,-165.65,#87A66B,Eskimo-Aleut,Eskimo,USA-Alaska
Cupeño [cup],33.17,-116.5,#8DAF6C,Uto-Aztecan,North Uto-Aztecan,USA
Cuquila Mixtec [mie],17.2,-97.755,#3C686E,Otomanguean,Eastern Otomanguean,Mexico
Cuvok [cuv],10.7,14,#559C66,Afro-Asiatic,Chadic,Cameroon
Cuwabo [chw-2],-17.32,37.14,#947FAD,Niger-Kongo,Atlantic-Congo,Mozambique
Czech [ces],50,14.5,#57A076,Indo-European,Balto-Slavic,Czech Republic
Da'a [kzf],-1.356,119.549,#726778,Malayo-Polynesian,Celebic,Indonesia-Sulawesi
Daakaka [bpa],-16.269,167.964,#885A8E,Oceanic,Southern Oceanic,Vanuatu
Daakie [ptv],-16.32,168.04,#7A689D,Oceanic,Southern Oceanic,Vanuatu
Daats'íin [dtn],12.6,35.8,#3483A5,Nilo-Saharan,Gumuz,Ethiopia
Daba [dbq],10.1,13.8,#4BA39F,Afro-Asiatic,Chadic,Cameroon
Dabu [hak-29],24.35,116.7,#3569C8,Tibeto-Burman,Sinitic,China
