name,latitude,longitude,color,family,subgroup,country
!Xoon [nmn],-24,21.5,#E4D7BD,Tuu,Tuu,S Africa
’Weenhayek [mtp],-21.99,-63.6,#69A4C1,Matacoan,Mataguayo II,SE South America
||Ana [gnk],-22.2,22.4,#E7DDC7,Khoe,Khoe,S Africa
||Ani [hnh],-19.3,22.5,#E8DECA,Khoe,Khoe,S Africa
||Gana [gnk-2],-19,22.5,#C9B07B,Khoe,Khoe,S Africa
||Xekwi [xeg],-23,22,#A1C5D8,Tuu,Tuu,S Africa
|Gwi [gwj],-22.435,21.654,#E2D4B9,Khoe,Khoe,S Africa
|Xam [xam],-30.34,21.82,#DECEAE,Tuu,Tuu,S Africa
A-Hmao [hmd],25.75,106.08,#D4BF95,Hmong-Mien,Hmongic,Southeast Asia-mainland
A'iwa [ash],-2,-74.5,#80B2CA,A'iwa,A'iwa,NE South America
A'jië [aji],-21.342,165.459,#E8DECA,Austronesian,Southern Oceanic,Oceania
Aari [aiw],6,36.6,#EDECE5,Afro-Asiatic,South Omotic,Greater Abyssinia
Aashing [adi-10],28.99,94.9,#E7DDC6,Tibeto-Burman,Macro-Tani,Indic
Abanyom [abm],6.499,8.647,#A07420,Niger-Kongo,Ekoid,African Savannah
Abar [mij-3],6.59,10.26,#C0A265,Niger-Kongo,Beboid,African Savannah
Abau [aau],-4,141.167,#C3A76E,Sepik,Abau,N Coast New Guinea
Abawiri [flh],-3.05,139.21,#BD9D5C,Lakes Plains,Eastern Lakes Plains,Interior New Guinea
Abaza [abq],44.34,41.67,#01206A,Northwest Caucasus,Abaza-Abkhaz,Greater Mesopotamia
Abduyi [pes-5],29.7,52.07,#B6D3E1,Indo-European,Indo-Iranian,Greater Mesopotamia
Abé [aba],5.6,-4.38,#C2A56A,Niger-Kongo,Kwa,African Savannah
Abelam [abt-2],-3.83,143.17,#E6ECEC,Ndu,Nuclear Ndu,N Coast New Guinea
Abellen [abp],15.41,120.2,#EDECE5,Austronesian,Philippines,Southeast Asia-Island
Abenaki_Western [abe],44,-72.25,#E5EBED,Algic,Algonquian,E North America
Aberdeenshire_English [sco-4],57.3,-2,#E7EDEB,Indo-European,Germanic,Europe
Abidji [abi],5.66,-4.58,#BFA062,Niger-Kongo,Kwa,African Savannah
Abinomn [bsa],-3,138.8,#E8EDEB,Abinomn,Abinomn,Interior New Guinea
Abipon [axb],-26,-61,#B0CFDE,Guaicuruan,Southern Guaicuruan,SE South America
Abkhaz [abk],43,41.03,#013678,Northwest Caucasus,Abaza-Abkhaz,Greater Mesopotamia
Abkhaz_Bzyp [ady-14],43.32,40.41,#013074,Northwest Caucasus,Abaza-Abkhaz,Greater Mesopotamia
Abkhaz_Sadz [ady-13],43.33,40.22,#022C71,Northwest Caucasus,Abaza-Abkhaz,Greater Mesopotamia
Abron [abr],8.03,-2.8,#A77E2D,Niger-Kongo,Kwa,African Savannah
Abruzzo [nap],42.66,13.7,#EAE1CE,Indo-European,Romance,Europe
Abua [abn],4.8,6.654167,#B6934C,Niger-Kongo,Cross River,African Savannah
Abuan [abn-2],4.83,6.61,#BA9A59,Niger-Kongo,Cross River,African Savannah
Abui [abz],-8.417,124.6,#CFB98B,Timor-Alor-Pantar,Alor,Southeast Asia-Island
Abujh_Maria [mrr-2],18.75,80.68,#C5DBE6,Dravidian,South-Central Dravidian,Indic
Abun [kgr],-0.833,132,#B89753,West Papuan,Birds Head,N Coast New Guinea
Abure [abu],5.22,-3.64,#AD873B,Niger-Kongo,Kwa,African Savannah
Acatec [agu-2],15.7,-91.617,#3B86AC,Mayan,Core Mayan,Mesoamerica
Acatepec Me'paa [tpx],17.1,-99.06,#C0A366,Otomanguean,Tlapanec-Manguean,Mesoamerica
Aceh_Lhokseumawe [ace-7],5.19,97.14,#CDB585,Austronesian,Aceh,Southeast Asia-Island
Aceh_Pidie [ace-2],5.38,95.96,#CCB482,Austronesian,Aceh,Southeast Asia-Island
Acehnese [ace],5.333,96.167,#CDB583,Austronesian,Aceh,Southeast Asia-Island
Acehnese_Northeast [ace-6],4.62,97.62,#CCB481,Austronesian,Aceh,Southeast Asia-Island
Acehnese_South [ace-4],4.1,96.23,#C9B07D,Austronesian,Aceh,Southeast Asia-Island
Acehnese_Southwest [ace-3],5.05,95.34,#C9B07D,Austronesian,Aceh,Southeast Asia-Island
Acehnese_West [ace-5],5.47,95.26,#C8AE79,Austronesian,Aceh,Southeast Asia-Island
Achagua [aca],4.002,-72.814,#A5C9D9,Arawak,Northern Maipuran,Andean
Achang_Liangchong [acn ],29.46,103.7,#B38F46,Tibeto-Burman,Burmish,Southeast Asia-mainland
Achang_Lianghe [acn-2],24.8,98.3,#C5AA71,Tibeto-Burman,Burmish,Southeast Asia-mainland
Achang_Longchuan [can-2],24.25,97.833,#D2BD92,Tibeto-Burman,Burmish,Southeast Asia-mainland
Achang_Luxi [can-3],24.527,103.764,#B99854,Tibeto-Burman,Burmish,Southeast Asia-mainland
Aćharêtâʹ [phl-2],35.4,71.75,#DECFAF,Indo-European,Indo-Iranian,Indic
Aché [guq],-25.25,-55.17,#E6DAC3,Tupian,Tupi-Guarani,SE South America
Achi [acr],15.25,-90.5,#68A3C0,Mayan,Core Mayan,Mesoamerica
Achuar [acu],-3,-76,#B9D5E2,Jivaroan,Shuaric,Andean
Achumawi [acv],41.5,-121,#67A3C0,Palaihnihan,Palaihnihan,Basin and Plains
Acipa [acp],10.71,6.01,#E8DEC8,Niger-Kongo,Kainji,African Savannah
Acoma [kjq-2],34.92,-107.58,#D2E3EB,Keresan,Western Keresan,Basin and Plains
Acooli [ach],3.293,32.871,#C5A970,Nilo-Saharan,Luo-Burun,S Africa
Adamawa Fulfulde [fub],8.9,15.84,#C9B07B,Niger-Kongo,North-Central Atlantic,African Savannah
Adang [adn],-8.163,124.456,#EAE2D0,Timor-Alor-Pantar,Alor,Southeast Asia-Island
Adangme [ada],5.8,0.33,#B39048,Niger-Kongo,Kwa,African Savannah
Adim [yay],5.81,8.03,#E5D9C1,Niger-Kongo,Cross River,African Savannah
Adun [mfn-2],6.16,8.23,#C9B07B,Niger-Kongo,Cross River,African Savannah
Adyghe [ady],44.1,39.08,#013678,Northwest Caucasus,Circassian,Greater Mesopotamia
Adyghe_Abzakh [ady-12],44.7,38.9,#023879,Northwest Caucasus,Circassian,Greater Mesopotamia
Adyghe_Besleney [ady-6],44.7,40.75,#022F73,Northwest Caucasus,Circassian,Greater Mesopotamia
Adyghe_Black Sea Shapsugh [ady-2],44.375,38.4,#01246C,Northwest Caucasus,Circassian,Greater Mesopotamia
Adyghe_Bzhedug [ady-7],45,39.3,#013376,Northwest Caucasus,Circassian,Greater Mesopotamia
Adyghe_Cherkess [ady-10],44.25,42.05,#013074,Northwest Caucasus,Circassian,Greater Mesopotamia
Adyghe_Hakuchi [ady-9],44.88,38,#013074,Northwest Caucasus,Circassian,Greater Mesopotamia
Adyghe_Natukai [ady-4],44.4,38.35,#01246C,Northwest Caucasus,Circassian,Greater Mesopotamia
Adyghe_Shapsugh [ady-3],44.3,39,#012A70,Northwest Caucasus,Circassian,Greater Mesopotamia
Adyghe_Temirgoy [ady-11],45.125,39.83,#013376,Northwest Caucasus,Circassian,Greater Mesopotamia
Adyghe_Uzunyayla [ady-5],44.25,38.77,#023175,Northwest Caucasus,Circassian,Greater Mesopotamia
Adynyamathanha [adt],-31,139.5,#DBE8ED,Pama-Nyungan,Thura-Yura,S Australia
Adyukru [adj],5.38,-4.53,#A17521,Niger-Kongo,Kwa,African Savannah
Adzera [azr],-6.417,146.25,#EAE1CE,Austronesian,North New Guinea,N Coast New Guinea
Aeka [aez],-8.601,147.994,#CDB584,Trans New Guinea,Binanderean,S New Guinea
Afar [aar],11.85,42,#D6E5EB,Afro-Asiatic,East Cushitic,Greater Abyssinia
Afitti [aft-2],12.44,31,#B4914A,Nilo-Saharan,Nyimang,African Savannah
Afrikaans [afr],-33.9,18.5,#CEB687,Indo-European,Germanic,S Africa
Afshar [azj-2],37.475,57.33,#CFE1EA,Turkic,Common Turkic,Greater Mesopotamia
Aftari_Komisenian [sqo-2],35.6,53.11,#B0CFDE,Indo-European,Indo-Iranian,Greater Mesopotamia
Agabag [mvv-3],3.965,117.095,#E2D4B8,Austronesian,North Borneo,Southeast Asia-Island
Agarabi [agd],-6.25,145.917,#BE9F61,Trans New Guinea,Kainantu,N Coast New Guinea
Agatu [agc],7.98,7.72,#CCB482,Niger-Kongo,Idomoid,African Savannah
Aghem [agq],6.39,10.12,#AD873B,Niger-Kongo,Grassfields,African Savannah
Aghu [ahh],-6.333,140,#D6C39B,Trans New Guinea,Awyu-Dumut,S New Guinea
Aghu-Tharrnggala [gtu],-13.73,142.43,#E6DAC3,Pama-Nyungan,Paman,N Australia
Aghul_Huppuq’ [agx-6],41.836,47.6602,#5698B8,Nakh-Daghestanian,Lezgic,Greater Mesopotamia
Aglla [idu-3],6.8,7.95,#DDCDAB,Niger-Kongo,Idomoid,African Savannah
Agöb [kit],-9.09,142.53,#D6C29B,South New Guinea,East Morehead,S New Guinea
Agta [agt],17.967,121.833,#ECE5D5,Austronesian,Philippines,Southeast Asia-Island
Aguaruna [agr],-5.25,-78,#B0CFDE,Jivaroan,Aguaruna,Andean
Aguatec [agu],15.4,-91.4,#5D9CBB,Mayan,Core Mayan,Mesoamerica
Agul [agx],41.78,47.59,#4F92B5,Nakh-Daghestanian,Lezgic,Greater Mesopotamia
Agul_Burkixan [agx-2],41.78,47.6,#3682A9,Nakh-Daghestanian,Lezgic,Greater Mesopotamia
Agul_Burshag [agx-3],41.86,47.62,#2676A1,Nakh-Daghestanian,Lezgic,Greater Mesopotamia
Agul_Fite [agx-4],41.79,47.59,#3883AA,Nakh-Daghestanian,Lezgic,Greater Mesopotamia
Agul_Richa [agx-5],41.78,47.61,#1C6E9C,Nakh-Daghestanian,Lezgic,Greater Mesopotamia
Agusan [mbb-2],8.68,125.79,#EDE9DE,Austronesian,Philippines,Southeast Asia-Island
Agusan_Manobo [msm],8.63,125.74,#EDE6D7,Austronesian,Philippines,Southeast Asia-Island
Agutaynen [agn],11.15,120.95,#D8E6EC,Austronesian,Philippines,Southeast Asia-Island
Agwamin [wmi],-16.986,143.001,#E4D8BE,Pama-Nyungan,Paman,N Australia
Ahamb [ahb],-16.507,167.703,#CEB686,Austronesian,Southern Oceanic,Oceania
Ahan [ahn],7.44,6.01,#C3A76E,Niger-Kongo,Ayere-Ahan,African Savannah
Ahanta [aha],4.85,-1.95,#CBB27F,Niger-Kongo,Kwa,African Savannah
Ahi [yix],24.4,103.4,#CAB17E,Tibeto-Burman,Central Loloish,Southeast Asia-mainland
Ahom [aho],25,95,#A77D2B,Tai-Kadai,Southwestern Tai P,Indic
Ahtna [aht],62,-145,#B0CFDE,Dene-Yeniseic,Athapaskan,Alaska-Oregon
Ai-cham_Diwo [aih],25.8,107,#B6934C,Tai-Kadai,Mak-Ai-Cham,Southeast Asia-mainland
Aidian_Mian [mji],24.48,109.74,#B18D42,Hmong-Mien,Hmongic,Southeast Asia-mainland
Aikaná [tba],-12.1,-60.6,#EDE6D6,Aikaná,Aikaná,NE South America
Aikaná_Masacá [tba-2],-12.7,-60.8,#CEB686,Aikaná,Aikaná,NE South America
Aimaq [aiq],35.28,59.18,#8EBBD0,Indo-European,Indo-Iranian,Greater Mesopotamia
Ainu [ain],42.4,142.5,#E4D8BE,Ainu,Ainu,N Coast Asia
Ainu_Kuril [ain-2],46.5,151.5,#E5EBED,Ainu,Ainu,N Coast Asia
Ainu_Sakhalin [ain-3],47.975,142.2,#E4D7BD,Ainu,Ainu,N Coast Asia
Ainu_Saru [ain-4],42.88,142.4,#E5EBED,Ainu,Ainu,N Coast Asia
Air Tamajeq_Tayart [thz],16.92,7.67,#5C9BBA,Afro-Asiatic,Berber,African Savannah
Airoran [air],-1.7,138.15,#DBE8ED,Tor-Kwerba,Nuclear Kwerba,N Coast New Guinea
Aisi [mmq],-5.35,145.15,#E1D2B4,Trans New Guinea,Madang,N Coast New Guinea
Ait_Seghrouchen [tzm-3],33,-5,#085C90,Afro-Asiatic,Berber,N Africa
Aita_Rotokas [roo-2],-6,155.08,#E0D1B3,North Bougainville,Rotokas,Oceania
Aiton [aio-2],24,94,#9A6B15,Tai-Kadai,Shan Tai,Indic
Aitutaki [rar-2],-18.872,-159.782,#E8DECA,Austronesian,Central Pacific,Oceania
Aiwoo [nfl],-10.5,166.5,#EDE9DE,Austronesian,Te Motu,Oceania
Aizi [ahp],5.25,-4.5,#BA9A57,Niger-Kongo,Kru,African Savannah
Aja [ajg],7.06,1.66,#E1D2B5,Niger-Kongo,Gbe,African Savannah
Ajagbe [ajg-2],7.08,1.64,#EBECE8,Niger-Kongo,Gbe,African Savannah
Ajami [pes-8],29.44,48.33,#6DA6C2,Indo-European,Indo-Iranian,Greater Mesopotamia
Ajumbu [muc-2],6.55,10.27,#B38F46,Niger-Kongo,Beboid,African Savannah
Aka [axk],3.46,15.73,#B18D43,Ubangian,Ubangian,African Savannah
Aka [hru-2],27.2,92.9,#E0EAED,Tibeto-Burman,Hrusish,Indic
Akabea [abj-2],12.38,92.78,#E6DAC2,Andaman,Andaman,Southeast Asia-mainland
Akan [aka],6.5,-1.25,#DAC8A4,Niger-Kongo,Kwa,African Savannah
Akaselem [aks],8.89,1.37,#A57B29,Niger-Kongo,Gur,African Savannah
Akawaio [ake],6,-59.5,#ECE4D3,Cariban,Venezuelan,NE South America
Ake [aik],8.6,8.76,#B08A3E,Niger-Kongo,Plateau,African Savannah
Akei [tsr],-15.49,166.75,#E9ECEA,Austronesian,Southern Oceanic,Oceania
Akha [ahk],20.3,99.6,#BD9E5D,Tibeto-Burman,Hani-Jino,Southeast Asia-mainland
Akha_Akhe [ahk-8],21.916,100.465,#BA9A58,Tibeto-Burman,Hani-Jino,Southeast Asia-mainland
Akha_Buli [ahk-4],21.2,101.15,#B79550,Tibeto-Burman,Hani-Jino,Southeast Asia-mainland
Akha_Chicho [ahk-2],20.92,101.4,#B38F46,Tibeto-Burman,Hani-Jino,Southeast Asia-mainland
Akha_Senchai [ahk-3],26.9,99,#C0A265,Tibeto-Burman,Hani-Jino,Southeast Asia-mainland
Akhvakh [akv],42.379,46.384,#012A70,Nakh-Daghestanian,Avar-Andi,Greater Mesopotamia
Akie [oki],-5.43,37.19,#A17521,Nilo-Saharan,Kalenjin,S Africa
Aklanon [akl],11.58,122.33,#E2EBEC,Austronesian,Philippines,Southeast Asia-Island
Akosse [bss],5.05,9.8,#B7954F,Niger-Kongo,Zone A10,African Savannah
Akoye [miw-2],-7.645,145.65,#B6934D,Trans New Guinea,Angan,S New Guinea
Akpes [ibe],7.5,5.96,#C7AD77,Niger-Kongo,Akpes,African Savannah
Akuntsu [aqz],-12.74,-60.8,#EDE7D9,Tupian,Tupari,NE South America
Akurio [ako],3.0132,-55.6434,#EDE9DE,Cariban,Guianan Carib,NE South America
Akwa [akw],-0.005,15.612,#A67C2A,Niger-Kongo,Zone C20,S Africa
Akweya [akf],7.33,8.02,#DECEAE,Niger-Kongo,Idomoid,African Savannah
Akye-Gnan [ati-2],5.48,-4.09,#A67C2A,Niger-Kongo,Kwa,African Savannah
Alaaba [alw],7.31,38.09,#C4DBE6,Afro-Asiatic,East Cushitic,Greater Abyssinia
Alaala [nrz],-9,146.667,#DCCCAA,Austronesian,Papuan Tip,S New Guinea
Alaba-K'abeena [alw-2],7.39,38.17,#E8EDEB,Afro-Asiatic,East Cushitic,Greater Abyssinia
Alabama [akz],32.7,-86.1,#EBECE8,Muskogean,Muskogean,E North America
Alacalufe_Central [alc-2],-53.528,-70.9573,#A3C7D9,Alaculufan,Alaculufan,SE South America
Alacalufe_Southern [alc-3],-55.2,-69.4,#99C1D5,Alaculufan,Alaculufan,SE South America
Alagwa [wbj],-4.64,35.72,#2273A0,Afro-Asiatic,South Cushitic,S Africa
Alamblak [amp],-4.667,143.25,#E6ECEC,Sepik,Sepik Hill,N Coast New Guinea
Alangan-Mangyan [alj],13.1,121.02,#ECEDE6,Austronesian,Philippines,Southeast Asia-Island
Alas_Batak [btz],2.64,98,#DBC9A6,Austronesian,Batak-Barrier Islands,Southeast Asia-Island
Alawa [alh],-15.75,134.333,#EEEBE2,Macro-Gunwinygu,Alawa,N Australia
Albanian_Cham [als-4],39.6,20.8,#E5EBED,Indo-European,Albanian,Europe
Albanian_Gheg [aln-2],42.43,20.73,#EAE2D0,Indo-European,Albanian,Europe
Albanian_Gheg_Kosovo [aln],42.58,21,#B2D0DE,Indo-European,Albanian,Europe
Albanian_Lab [als-5],40.17,19.83,#EDE9DF,Indo-European,Albanian,Europe
Albanian_Mandritsa [aln-5],41.38,26.13,#ECE6D8,Indo-European,Albanian,Europe
Albanian_Tosk [als],40.5,20,#EDEAE1,Indo-European,Albanian,Europe
Albanian_Upper_Reka [aln-4],41.72,20.57,#D7E6EC,Indo-European,Albanian,Europe
Albanian_Vaccarizzo [als-6],39.58,16.43,#C4DBE6,Indo-European,Albanian,Europe
Albese [ita-14],44.7,8.04,#C1A467,Indo-European,Romance,Europe
Ale [gwd],5.38,37.27,#6EA6C2,Afro-Asiatic,East Cushitic,Greater Abyssinia
Alekano [gah-2],-6,145.4,#DAC8A4,Trans New Guinea,Goroka,Interior New Guinea
Aleut [ale],54,-166,#5D9CBB,Eskimo-Aleut,Aleut,Alaska-Oregon
Aleut_Atkan [ale-2],52,-174,#3B86AC,Eskimo-Aleut,Aleut,Alaska-Oregon
Aleut_Attuan [ale-3],52.85,172.9,#428AAF,Eskimo-Aleut,Aleut,Alaska-Oregon
Aleut_Eastern [ale-4],54.75,-164,#3B86AC,Eskimo-Aleut,Aleut,Alaska-Oregon
Aleut_Unangas [ale-5],55.3,166,#5D9CBB,Eskimo-Aleut,Aleut,Alaska-Oregon
Algherese [cat-3],40.55,8.32,#E8DEC9,Indo-European,Romance,Europe
Algonquin [alq],46,-82,#D8E6EC,Algic,Algonquian,E North America
Ali [ykm],-3.17,142.25,#EDE9DE,Austronesian,North New Guinea,N Coast New Guinea
Alladian [ald],5.17,-4.33,#CCB380,Niger-Kongo,Kwa,African Savannah
Allentiac [qbt],-32,-66,#A9CBDC,Huarpe,Huarpe,SE South America
Alngith [aid],-12.5,142.17,#EAEDE9,Pama-Nyungan,Paman,N Australia
Alo-Teqel [tql-2],-13.8,167.47,#EEEBE3,Austronesian,Southern Oceanic,Oceania
Alor [aol],-8.245,124.412,#EDEAE0,Austronesian,Bima-Lembata,Southeast Asia-Island
Alsatian [gsw-2],48.32,7.44,#E5D9C0,Indo-European,Germanic,Europe
Alsea [aes],44.67,-123.93,#075A8F,Alsean,Alsean,Alaska-Oregon
Altai [alt],51,87,#B7D4E1,Turkic,Common Turkic,Inner Asia
Altai_Kumandy [atv],51.3,87.7,#DFD0B1,Turkic,Common Turkic,Inner Asia
Alto Perené [prq-2],-10.945,-75.255,#BDD6E3,Arawak,Southern Maipuran,NE South America
Alumbis_Murut [mvv],4.799,115.496,#EDE9DF,Austronesian,North Borneo,Southeast Asia-Island
Alune [alp],-3.167,128.333,#E9ECEA,Austronesian,Central Maluku,Southeast Asia-Island
Alur [alz],2.5,31.25,#BE9F61,Nilo-Saharan,Luo-Burun,S Africa
Alutiiq [ems],58.015,-152.765,#20729F,Eskimo-Aleut,Eskimo,Alaska-Oregon
Alyawarr [aly],-24.6,134.5,#D7E6EC,Pama-Nyungan,Arandic,S Australia
Alyutor [alr],61,165,#83B4CC,Chukotko-Kamchatkan,Chukotian,N Coast Asia
Ama [amm],-4.168,141.671,#C2A66C,Left May,Left May,N Coast New Guinea
Amahai_Soahuku [amq],-3.332,128.949,#ECEDE7,Austronesian,Central Maluku,Southeast Asia-Island
Amahuaca [amc],-10.8,-73.5,#D7E6EC,Panoan,Pano Nawa,NE South America
Amaimon [ali],-5.193,145.325,#EEE8DD,Trans New Guinea,Madang,N Coast New Guinea
Amam [wer],-7.85,146.95,#E8DEC9,Trans New Guinea,Goilala,S New Guinea
Amami_Ryukyu [ams],28,129,#D3BE92,Japonic,Ryukyuan,N Coast Asia
Amanab [amn],-3.5,141.167,#D6C39C,Trans New Guinea,Border,N Coast New Guinea
Amanuban [aoz-2],-9.82,124.47,#EEEBE3,Austronesian,Southeast Maluku,Southeast Asia-Island
Amanutun [aoz-4],-9.69,124.83,#E6ECEC,Austronesian,Southeast Maluku,Southeast Asia-Island
Amara [aie],-5.533,148.667,#D7C59F,Austronesian,North New Guinea,N Coast New Guinea
Amarakaeri [amr-2],-12.6938,-70.3235,#EDE7D9,Harakmbet,Harakmbet,NE South America
Amarasi [aaz],-10.08,124.33,#E4EBED,Austronesian,Southeast Maluku,Southeast Asia-Island
Amba_Nembao [utp-2],-11.27,166.48,#EDE6D6,Austronesian,Te Motu,Oceania
Ambae_West [omb],-15.5,167.75,#ECEDE7,Austronesian,Southern Oceanic,Oceania
Ambai [amk],-1.917,136.533,#EDE9DE,Austronesian,South Halmahera-West New Guinea,N Coast New Guinea
Ambel [xmt-2],-0.05,130.7,#D0BA8D,Austronesian,South Halmahera-West New Guinea,N Coast New Guinea
Ambelau [mhs-4],-3.89,127.205,#CAB17E,Austronesian,Central Maluku,Southeast Asia-Island
Ambele [ael],5.94,9.62,#B18C41,Niger-Kongo,Grassfields,African Savannah
Amblong [alm],-15.497,166.926,#EDE9DE,Austronesian,Southern Oceanic,Oceania
Ambonese Malay [abs],-3.7,128.2,#EEE8DB,Austronesian,Malayic,Southeast Asia-Island
Ambrym_Southeast [tvk-2],-16.33,168.08,#EDE7DA,Austronesian,Southern Oceanic,Oceania
Ambulas [abt],-3.75,143.083,#DAC8A4,Ndu,Nuclear Ndu,N Coast New Guinea
Amdo [adx],36,94,#E0EAED,Tibeto-Burman,Tibetan,Inner Asia
Ameland [frs-3],53.45,5.77,#D7C49D,Indo-European,Germanic,Europe
Amele_Haija [aey],-5.25,145.75,#EBECE8,Trans New Guinea,Madang,N Coast New Guinea
Amele_Huar [aey-3],-5.287,145.718,#EEEBE2,Trans New Guinea,Madang,N Coast New Guinea
Amele_Jagahala [aey-2],-5.264,145.642,#EDECE5,Trans New Guinea,Madang,N Coast New Guinea
Amfo'an [aoz-3],-9.45,123.9,#D5E4EB,Austronesian,Southeast Maluku,Southeast Asia-Island
Amharic [amh],10,38,#AFCEDD,Afro-Asiatic,Ethiopian,Greater Abyssinia
Ami [amy],-14,130,#ECE6D7,Western Daly,Western Daly,N Australia
Amis [ami],23.333,121.333,#86B6CD,Austronesian,East Formosan,Southeast Asia-Island
Amo [amo],10.33,8.67,#C4A86F,Niger-Kongo,Kainji,African Savannah
Amonap / Apalakiri / Matipu [mzo],-12.05,-53.4,#E9ECEA,Cariban,Nahukwa,NE South America
Amoy [nan],24.5,118,#AD873A,Tibeto-Burman,Min,Southeast Asia-mainland
Ampale [apz],-6.753,146.107,#BA9A58,Trans New Guinea,Angan,Interior New Guinea
Ampibabo [law-2],-0.46,120.06,#EDE7DA,Austronesian,Celebic,Southeast Asia-Island
Amu [swh-9],-2.27,40.9,#CFE1EA,Niger-Kongo,Zone G40,S Africa
Amuesha [ame],-10,-73,#609EBD,Arawak,Western Maipuran,NE South America
Amundava [adw],-10.9942,-63.0642,#ECE4D3,Tupian,Tupi-Guarani,NE South America
Amurdak [amg],-12.022,132.892,#E6ECEC,Iwaidjan,Amurdak,N Australia
Amuzgo [amu],16.83,-98,#B79550,Otomanguean,Amuzgoan,Mesoamerica
Amuzgo_Huixtepec [amu-2],16.5,-98.1,#E0D1B3,Otomanguean,Amuzgoan,Mesoamerica
Amuzgo_San_Pedro [azg],16.85,-98,#C8AF7A,Otomanguean,Amuzgoan,Mesoamerica
Amuzgo_Xochistlahuaca [amu-3],16.79,-98.24,#C6AB73,Otomanguean,Amuzgoan,Mesoamerica
Amwi [aml],25.209,92.068,#B79550,Austroasiatic,Khasian,Indic
Anaguta [nar],9.964,8.731,#CFB98B,Niger-Kongo,Kainji,African Savannah
Anakalang [akg],-9.67,119.67,#E2D4B7,Austronesian,Bima-Lembata,Southeast Asia-Island
Anal [anm],24.33,93.99,#D7C49D,Tibeto-Burman,Kuki-Chin,Indic
Anamuxra [imi],-4.667,145,#CEE0E9,Trans New Guinea,Madang,N Coast New Guinea
Andalusian [spa-4],37.5,-3.6,#E8DEC9,Indo-European,Romance,Europe
Andi [ani],42.79,46.27,#6FA7C2,Nakh-Daghestanian,Avar-Andi,Greater Mesopotamia
Andi_Tad-Magitil [ani-2],42.75,46.25,#75ABC5,Nakh-Daghestanian,Avar-Andi,Greater Mesopotamia
Andoa [anb],-2.9,-76.4051,#468CB0,Zaparoan,Zaparoan,Andean
Andoké [ano],0,-72,#D4C095,Andoké,Andoké,NE South America
Anejom [aty],-20.25,169.833,#DEE9EC,Austronesian,Southern Oceanic,Oceania
Anem [anz],-5.667,149,#CCB482,Anem,Anem,N Coast New Guinea
Aneme_Wake [aby],-9.733,148.52,#E6DBC4,Southeast Papuan,Mailu-Yareban,S New Guinea
Anfillo [myo],8.57,34.65,#B0CFDE,Afro-Asiatic,North Omotic,Greater Abyssinia
Anfu [gan-22],27.38,114.62,#9A6B15,Tibeto-Burman,Gan,Southeast Asia-mainland
Angaatiha [agm],-7.22,146.25,#D7C49E,Trans New Guinea,Angan,Interior New Guinea
Angal [age],-6,143.6,#E9DFCB,Trans New Guinea,Engan,Interior New Guinea
Angal_Heneng [akh],-6.13,143.42,#DCCCAA,Trans New Guinea,Engan,Interior New Guinea
Angali [pes-2],29.75,50.96,#78ADC7,Indo-European,Indo-Iranian,Greater Mesopotamia
Angami [njm],25.667,94.5,#EDE6D6,Tibeto-Burman,Angami-Ao,Indic
Angami_Khonoma [njm-4],25.65,94.03,#EAE2D0,Tibeto-Burman,Angami-Ao,Indic
Angami_Khonoma-Tongime [njm-2],25.63,93.99,#E4D8BE,Tibeto-Burman,Angami-Ao,Indic
Angami_Kohima [njm-5],25.67,94.11,#D2BD91,Tibeto-Burman,Angami-Ao,Indic
Angami_Kohima-Tongime [njm-6],26.99,95.51,#CFB889,Tibeto-Burman,Angami-Ao,Indic
Angas [anc],9.75,8.75,#D4C096,Afro-Asiatic,West Chadic,African Savannah
Anggor [agg],-3.667,141.167,#E6DAC3,Trans New Guinea,Border,N Coast New Guinea
Anggreso [kwe-2],-2.17,138.25,#DEE9EC,Tor-Kwerba,Nuclear Kwerba,N Coast New Guinea
Angika [anp],26,85.53,#EDE7D9,Indo-European,Indo-Iranian,Indic
Angkamuthi [avm],-11.5,142.25,#EDECE5,Pama-Nyungan,Paman,N Australia
Angkola_Batak [akb],1.518,99.531,#EBE3D2,Austronesian,Batak-Barrier Islands,Southeast Asia-Island
Anguthimri [awg],-12.333,141.833,#DDCDAD,Pama-Nyungan,Paman,N Australia
Ani_Phowa [ypn],23.6,103.3,#E7DDC7,Tibeto-Burman,Central Loloish,Southeast Asia-mainland
Anib [kni],9.55,8.6,#B38F46,Niger-Kongo,Plateau,African Savannah
Anii [blo],9.003,1.669,#B18D43,Niger-Kongo,Kwa,African Savannah
Anindilyagwa [aoi],-14,136.5,#CBDFE8,Macro-Gunwinygu,East Arnhem,N Australia
Anindilyagwa_East [aoi-2],-13.86,136.81,#E6ECEC,Macro-Gunwinygu,East Arnhem,N Australia
Aniwa [fut-2],-19.256,169.6,#EAE2CF,Austronesian,Central Pacific,Oceania
Anjam [boj],-5.441,145.737,#E6DAC2,Trans New Guinea,Madang,N Coast New Guinea
Anji [wuu-6],30.65,119.69,#AA8232,Tibeto-Burman,Wu,Southeast Asia-mainland
Ankave [aak],-7.137,145.744,#EAE2CF,Trans New Guinea,Angan,Interior New Guinea
Anlong [pcc-6],25.1,105.44,#D0BA8C,Tai-Kadai,Northern Tai,Southeast Asia-mainland
Anmatyerr_East [amx],-22.256,131.5,#EEEBE2,Pama-Nyungan,Arandic,S Australia
Anmatyerr_West [amx-2],-21,135,#CBDFE8,Pama-Nyungan,Arandic,S Australia
Anong [nun],27.2,98.8,#D1BC8F,Tibeto-Burman,Nungish,Southeast Asia-mainland
Ansus [and],-1.73,135.806,#ECE5D5,Austronesian,South Halmahera-West New Guinea,N Coast New Guinea
Anta [tci-3],-8.65,141.52,#EDEAE0,South New Guinea,Tonda,S New Guinea
Antakarinya [ant],-27.11,134.85,#E9ECEA,Pama-Nyungan,Wati,S Australia
Antakirinya [ant-2],-27.13,134.83,#E6ECEC,Pama-Nyungan,Wati,S Australia
Antekerrepenhe [adg],-22.52,137.34,#E8EDEB,Pama-Nyungan,Arandic,S Australia
Antioquian [xxx-114],7,-73,#EEE8DB,Chibchan,Southern Magdalenic Chibchan,Andean
Antwerps [nld-2],51.22,4.4,#E3D5BA,Indo-European,Germanic,Europe
Añú [pbg],11,-71.62,#EDE7D9,Arawak,Northern Maipuran,Andean
Anuak [anu],7.18,34.097,#BA9A59,Nilo-Saharan,Luo-Burun,African Savannah
Anufo [cko],10.218,0.33,#A67C2A,Niger-Kongo,Kwa,African Savannah
Anus [auq],-2.13,139.51,#E2D4B7,Austronesian,North New Guinea,N Coast New Guinea
Anuta [aud],-11.611,169.85,#E5D9C0,Austronesian,Central Pacific,Oceania
Anyi [gan-19],28.84,115.6,#A67C2A,Tibeto-Burman,Gan,Southeast Asia-mainland
Anyin [any],5.9,-2.9,#CFB98A,Niger-Kongo,Kwa,African Savannah
Anywa [anu-2],7.3,33,#B5924B,Nilo-Saharan,Luo-Burun,African Savannah
Aoheng [pni],1.025,114.175,#DBC9A6,Austronesian,North Borneo,Southeast Asia-Island
Aore [aor],-15.577,167.181,#E8DEC8,Austronesian,Southern Oceanic,Oceania
Apache_Western [apw],33.9,-109.55,#95BED3,Dene-Yeniseic,Athapaskan,Basin and Plains
Apalachee [xap],30.04,-84.17,#B1D0DE,Muskogean,Muskogean,E North America
Apalai [apy],0,-54,#E9ECEA,Cariban,Apalai,NE South America
Apali [ena],-5.088,145.017,#E6ECEC,Trans New Guinea,Madang,N Coast New Guinea
Apatani [apt],27.4,93.8,#AC8638,Tibeto-Burman,Macro-Tani,Indic
Apiaká [api],-7.9484,-57.7365,#E6DBC4,Tupian,Tupi-Guarani,NE South America
Apinaye [apn],-6.25,-48,#BD9E5E,Macro-Je,Je,NE South America
Apma [app],-15.775,168.158,#ECE4D3,Austronesian,Southern Oceanic,Oceania
Apma_Suru Kavian [app-2],-15.61,168.14,#EBE3D2,Austronesian,Southern Oceanic,Oceania
Apurinã [apu],-7.26,-64.8,#EAEDE9,Arawak,Southern Maipuran,NE South America
Apurinã-2 [apu-2],-5.63,-63.17,#DDE9EC,Arawak,Southern Maipuran,NE South America
Aputai [apx],-7.888,126.505,#E7EDEB,Austronesian,Southeast Maluku,Southeast Asia-Island
Arabana [ard],-28,137,#E2EBEC,Pama-Nyungan,Karnic,S Australia
Arabela [arl],-2,-75.17,#EAEDE9,Zaparoan,Zaparoan,NE South America
Arabic [arb],29.5,42.5,#04558B,Afro-Asiatic,Arabic,Greater Mesopotamia
Arabic_Abéché [ayl-4],13.83,20.83,#4189AF,Afro-Asiatic,Arabic,African Savannah
Arabic_Abha [acw-2],18.22,42.51,#3883AA,Afro-Asiatic,Arabic,Greater Mesopotamia
Arabic_Afghanistan [acm-3],36.7,67.12,#4F92B5,Afro-Asiatic,Arabic,Inner Asia
Arabic_Algerian [arq],36.7,3.1,#5294B6,Afro-Asiatic,Arabic,N Africa
Arabic_Andalusian [xaa],35.767,-5.8,#0E6294,Afro-Asiatic,Arabic,Europe
Arabic_Attuwair [acw-3],29.9,40.1,#0D6193,Afro-Asiatic,Arabic,Greater Mesopotamia
Arabic_Baghdad [acm-4],33.33,44.38,#196C9B,Afro-Asiatic,Arabic,Greater Mesopotamia
Arabic_Baghdad-Christian [acm-9],33.34,44.37,#106496,Afro-Asiatic,Arabic,Greater Mesopotamia
Arabic_Baghdad-Jewish [acm-8],33.33,44.39,#0E6394,Afro-Asiatic,Arabic,Greater Mesopotamia
Arabic_Baghdad-Muslim [acm-7],33.32,44.4,#126697,Afro-Asiatic,Arabic,Greater Mesopotamia
Arabic_Bareqi [acw-9],18.93,41.94,#0A5E91,Afro-Asiatic,Arabic,Greater Mesopotamia
Arabic_Bareqi-2 [acw-7],19,43,#3C86AC,Afro-Asiatic,Arabic,Greater Mesopotamia
Arabic_Basra [acm],30.5,47.825,#0B5F92,Afro-Asiatic,Arabic,Greater Mesopotamia
Arabic_Bedouin_Sinai_Ǧbāliyyah [avl-2],28.557,33.943,#317EA7,Afro-Asiatic,Arabic,N Africa
Arabic_Bedouin_Sinai_Mzēnah [avl],28.135,34.1,#2979A4,Afro-Asiatic,Arabic,N Africa
Arabic_Bedouin_Sinai_Taṛābīn [avl-3],31,34.2,#3984AB,Afro-Asiatic,Arabic,N Africa
Arabic_Bukhara [auz],39.76,64.42,#3984AB,Afro-Asiatic,Arabic,Inner Asia
Arabic_Chad [shu-3],14,19,#80B2CA,Afro-Asiatic,Arabic,African Savannah
Arabic_Chowa [shu-4],12.5,14.5,#80B2CA,Afro-Asiatic,Arabic,African Savannah
Arabic_Coastal-Dhofari [acx],20.7,58.2,#3E87AD,Afro-Asiatic,Arabic,Greater Mesopotamia
Arabic_Cypriot [acy],34.343,33.011,#7AAEC8,Afro-Asiatic,Arabic,Greater Mesopotamia
Arabic_Egyptian [arz],30,30,#6DA6C2,Afro-Asiatic,Arabic,N Africa
Arabic_Faifa [jye-3],17.25,43.1,#2575A1,Afro-Asiatic,Arabic,Greater Mesopotamia
Arabic_Fezzan [ayl-2],26.33,13.43,#024E87,Afro-Asiatic,Arabic,N Africa
Arabic_Gulf [afb],24,54,#317EA7,Afro-Asiatic,Arabic,Greater Mesopotamia
Arabic_Hadhrami_coast [jye-5],14.95,50.34,#2777A2,Afro-Asiatic,Arabic,Greater Mesopotamia
Arabic_Hadhrami_wadi [jye-6],16.05,49,#1F719E,Afro-Asiatic,Arabic,Greater Mesopotamia
Arabic_Harb [acw],25.81,42.87,#4E91B4,Afro-Asiatic,Arabic,Greater Mesopotamia
Arabic_Hassaniya [mey],16.6,-7.25,#186B9A,Afro-Asiatic,Arabic,African Savannah
Arabic_Hejazi [acw-5],21.543,41.173,#5799B9,Afro-Asiatic,Arabic,Greater Mesopotamia
Arabic_Hejazi_Al'Ula [acw-6],26.627,37.917,#5C9BBA,Afro-Asiatic,Arabic,Greater Mesopotamia
Arabic_Hejazi_Badr [acw-10],23.78,38.79,#5E9DBC,Afro-Asiatic,Arabic,Greater Mesopotamia
Arabic_Ilbahariyya [arz-3],28.35,28.93,#1B6D9C,Afro-Asiatic,Arabic,N Africa
Arabic_Jijel [ary-3],36.821,5.75,#5597B7,Afro-Asiatic,Arabic,N Africa
Arabic_Jordanian [ajp-5],32,36,#468CB0,Afro-Asiatic,Arabic,Greater Mesopotamia
Arabic_Judeo-Tunisian [ajt],33.87,10.85,#2979A4,Afro-Asiatic,Arabic,N Africa
Arabic_Khawetna [arb-3],36.42,41.225,#0C6093,Afro-Asiatic,Arabic,Greater Mesopotamia
Arabic_Khuzestan [acm-2],31.33,48.69,#2777A2,Afro-Asiatic,Arabic,Greater Mesopotamia
Arabic_Kuwaiti [afb-5],29.5,47.75,#3682A9,Afro-Asiatic,Arabic,Greater Mesopotamia
Arabic_Lebanese [apc-2],33.883,35.502,#DBE8ED,Afro-Asiatic,Arabic,Greater Mesopotamia
Arabic_Levantine_al-Karak [ajp-10],31.2,35.7,#609EBD,Afro-Asiatic,Arabic,Greater Mesopotamia
Arabic_Levantine_Amman [ajp-9],31.9,35.9,#609EBD,Afro-Asiatic,Arabic,Greater Mesopotamia
Arabic_Levantine_Homs [ajp-7],34.7,36.7,#609EBD,Afro-Asiatic,Arabic,Greater Mesopotamia
Arabic_Levantine_Jerusalem [ajp-8],31.8,35.2,#7BAFC8,Afro-Asiatic,Arabic,Greater Mesopotamia
Arabic_Levantine_Northern_coast [ajp-11],34.9,35.9,#79AEC8,Afro-Asiatic,Arabic,Greater Mesopotamia
Arabic_Levantine_Northern_inland [ajp-12],33.1,35.7,#6AA4C1,Afro-Asiatic,Arabic,Greater Mesopotamia
Arabic_Levantine_Outer-south [ajp-14],31.3,34.6,#6AA4C1,Afro-Asiatic,Arabic,Greater Mesopotamia
Arabic_Levantine_Southern [ajp-13],31.7,34.9,#3581A9,Afro-Asiatic,Arabic,Greater Mesopotamia
Arabic_Libyan [ayl],32,20.25,#448BB0,Afro-Asiatic,Arabic,N Africa
Arabic_Libyan_Western [ayl-3],32.5,13,#1D6F9D,Afro-Asiatic,Arabic,N Africa
Arabic_Mardin [apc-3],37.363,40.91,#3682A9,Afro-Asiatic,Arabic,Greater Mesopotamia
Arabic_Mauritanian [ary-2],20.92,-11.62,#80B2CA,Afro-Asiatic,Arabic,African Savannah
Arabic_Mesopotamian [acm-5],33,44,#146898,Afro-Asiatic,Arabic,Greater Mesopotamia
Arabic_Moroccan [ary],34,-7,#04538A,Afro-Asiatic,Arabic,N Africa
Arabic_Muscat [acx-2],23.63,58.55,#1E709D,Afro-Asiatic,Arabic,Greater Mesopotamia
Arabic_Najdi [acw-4],23,45.5,#3380A8,Afro-Asiatic,Arabic,Greater Mesopotamia
Arabic_Negev [ajp-15],31.386,34.758,#095D91,Afro-Asiatic,Arabic,Greater Mesopotamia
Arabic_Omani [acx-3],23.589,58.556,#609EBD,Afro-Asiatic,Arabic,Greater Mesopotamia
Arabic_Omani_Shawawi [acx-4],22.92,57.79,#3A85AC,Afro-Asiatic,Arabic,Greater Mesopotamia
Arabic_Oran [arq-2],35.7,-0.63,#156898,Afro-Asiatic,Arabic,N Africa
Arabic_Palestinian_Urban [ajp-3],31.52,34.45,#6CA5C1,Afro-Asiatic,Arabic,Greater Mesopotamia
Arabic_Qatari [afb-3],25.3,51.52,#20729F,Afro-Asiatic,Arabic,Greater Mesopotamia
Arabic_Qifti [arz-2],26,32.82,#4189AF,Afro-Asiatic,Arabic,N Africa
Arabic_Sa'idi [aec],25,32.75,#2273A0,Afro-Asiatic,Arabic,N Africa
Arabic_Sason [arb-2],38.333,41.42,#498EB2,Afro-Asiatic,Arabic,Greater Mesopotamia
Arabic_Saudi [ars],24.48,40,#458BB0,Afro-Asiatic,Arabic,Greater Mesopotamia
Arabic_Shabwani [acw-8],17.48,47.12,#05548B,Afro-Asiatic,Arabic,Greater Mesopotamia
Arabic_Sudanese [apd-2],15.5,32.56,#78ADC7,Afro-Asiatic,Arabic,African Savannah
Arabic_Syrian [apc],33,37,#3581A9,Afro-Asiatic,Arabic,Greater Mesopotamia
Arabic_Ta'izzi_Adeni [acq],11.502,43,#024E87,Afro-Asiatic,Arabic,Greater Abyssinia
Arabic_Tillo [arb-4],37.95,42.013,#20719E,Afro-Asiatic,Arabic,Greater Mesopotamia
Arabic_Traras-Msirda [ary-4],35.18,-1.65,#68A3C0,Afro-Asiatic,Arabic,N Africa
Arabic_Tunisian [aeb],36,10,#2374A0,Afro-Asiatic,Arabic,N Africa
Arabic_Tunisian_Sahel_Female [aeb-2],35.83,10.63,#0B5F92,Afro-Asiatic,Arabic,N Africa
Arabic_Wadi Mousa [ajp-2],30.32,35.48,#66A2BF,Afro-Asiatic,Arabic,Greater Mesopotamia
Arabic_Yemeni [jye-2],14,47,#04538A,Afro-Asiatic,Arabic,Greater Mesopotamia
Arabic_Yemeni_Hadhrami [ayh],16.67,49.5,#1B6D9C,Afro-Asiatic,Arabic,Greater Mesopotamia
Arabic_Yemeni_Tihamiyya [arb-6],13.083,43.833,#05578C,Afro-Asiatic,Arabic,Greater Mesopotamia
Arabic_Yemeni_Zabidi [acq-2],14.2,43.317,#0B5F92,Afro-Asiatic,Arabic,Greater Mesopotamia
Arabic; North Israel Bedouin [ajp-4],32.83,35.33,#2979A4,Afro-Asiatic,Arabic,Greater Mesopotamia
Aragonese [arg],41,-1,#CFE1EA,Indo-European,Romance,Europe
Aragusuku [mvi-3],24.22,123.93,#A37723,Japonic,Ryukyuan,N Coast Asia
Araki [akr],-15.629,166.957,#EEEBE3,Austronesian,Southern Oceanic,Oceania
Arakmbut [hug],-13.27,-71.21,#DDCDAD,Harakmbet,Harakmbet,NE South America
Aralle-Tabulahan [atq],-2.756,119.203,#E8DECA,Austronesian,Greater South Sulawesi,Southeast Asia-Island
Arammba [stk],-8.25,141.5,#CEB687,South New Guinea,Tonda,S New Guinea
Arandai [jbj],-2.17,133,#EBECE8,Trans New Guinea,South Birds Head,N Coast New Guinea
Aranese [oci-4],42.7,0.795,#DFEAED,Indo-European,Romance,Europe
Araona [aro],-12.333,-67.75,#C8DDE7,Tacanan,Tacanan,NE South America
Arapaho [arp],39.565,-105.345,#EAEDE9,Algic,Algonquian,Basin and Plains
Arapesh_Muhiang [aoj],-3.564,142.9,#B3D1DF,Torricelli,Kombio-Arapesh,N Coast New Guinea
Arara_do_Acre [adc],-8.841,-72.315,#D8E6EC,Panoan,Pano Nawa,NE South America
Arara_do_Mato_Grosso [axg],-9.5,-60,#D9C7A2,Arara_do_Mato_Grosso,Arara_do_Mato_Grosso,NE South America
Arara_do_Para [aap-2],-4.24,-53.34,#E5D9C0,Cariban,Pekodian,NE South America
Arára_Pará [aap],-4.2422,-53.3745,#EBE3D1,Cariban,Pekodian,NE South America
Araucanian lg [arn-2],-43,-73.5,#EDECE4,Araucanian,Araucanian,Andean
Arawak [arw],5.64,-56.92,#ECE4D3,Arawak,Northern Maipuran,NE South America
Araweté [awt],-4.142017,-52.416914,#EDECE5,Tupian,Tupi-Guarani,NE South America
Arbanasi [aln-3],44.11,15.23,#E3D5BA,Indo-European,Albanian,Europe
Arbëresh [als-2],37.995,13.283,#A8CADB,Indo-European,Albanian,Europe
Arbëresh Kundisa [als-10],37.73,13.18,#94BED2,Indo-European,Albanian,Europe
Arbëresh_Pianese [als-8],37.8,12.8,#A6C9DA,Indo-European,Albanian,Europe
Arbore [arv],4.92,36.8,#EAE2D0,Afro-Asiatic,East Cushitic,Greater Abyssinia
Archi [aqc],42.07,46.86,#085B90,Nakh-Daghestanian,Lezgic,Greater Mesopotamia
Arctic Bay_Inuit [ikt],73.036,-85.15,#99C1D5,Eskimo-Aleut,Eskimo,E North America
Are [mwc],-9.67,150,#E6ECEC,Austronesian,Papuan Tip,S New Guinea
Are'are [alu],-9.342,161.203,#EEEBE2,Austronesian,Southeast Solomonic,Oceania
Arem [aem],18.15,105.5,#B6944E,Austroasiatic,Vietic,Southeast Asia-mainland
Argobba [agj],10.66,39.76,#A1C5D8,Afro-Asiatic,Ethiopian,Greater Abyssinia
Arguni [agf],-2.667,132.5,#CCB380,Austronesian,South Halmahera-West New Guinea,N Coast New Guinea
Ari [aac],-7.916,142.34,#E6DAC3,Papuan Gulf,Gogodala-Suki,S New Guinea
Aribwatsa [laz],-6.667,146.917,#EBECE8,Austronesian,North New Guinea,N Coast New Guinea
Aribwaungg [ylu],-6.592,146.874,#ECEDE7,Austronesian,North New Guinea,N Coast New Guinea
Arifama-Miniafia [aai],-9.142,149.279,#EDE7DA,Austronesian,Papuan Tip,S New Guinea
Arikapu [ark],-13,-62.5,#E8DEC9,Macro-Je,Jabutí,NE South America
Arikara [ari],40,-97,#CBDFE8,Caddoan,Northern Caddoan,Basin and Plains
Aringa [luc],3,31,#AD8739,Nilo-Saharan,Moru-Madi,S Africa
Aritinngithigh [rrt],-13,141.67,#EDE7D9,Pama-Nyungan,Paman,N Australia
Arizona Tewa [tew],35.8,-110.4,#DDCDAB,Kiowa-Tanoan,Tewa,Basin and Plains
Armenian [hye],40,45,#81B3CB,Indo-European,Armenian,Greater Mesopotamia
Armenian_Agulis [hye-3],38.95,45.98,#83B4CC,Indo-European,Armenian,Greater Mesopotamia
Armenian_Aslanberg [hyw-7],41.2,30.5,#B1CFDE,Indo-European,Armenian,Greater Mesopotamia
Armenian_Karabakh [hye-2],39.76,46.75,#91BDD1,Indo-European,Armenian,Greater Mesopotamia
Armenian_Karin [hye-5],40.79,43.85,#97C0D4,Indo-European,Armenian,Greater Mesopotamia
Armenian_Kharpert [hyw-6],38.67,39.22,#83B4CC,Indo-European,Armenian,Greater Mesopotamia
Armenian_Khodorjur [hyw-3],40.73,41.2,#ADCDDD,Indo-European,Armenian,Greater Mesopotamia
Armenian_Malatya [hyw-5],38.35,38.3,#CDE0E9,Indo-European,Armenian,Greater Mesopotamia
Armenian_Sebastia [hyw-4],39.75,37.02,#A2C6D8,Indo-European,Armenian,Greater Mesopotamia
Armenian_Van [hyw-8],38.49,43.38,#81B3CB,Indo-European,Armenian,Greater Mesopotamia
Armenian_Western [hyw],40,40,#D5E4EB,Indo-European,Armenian,Greater Mesopotamia
Armenian_Yerevan [hye-4],40.18,44.52,#95BED3,Indo-European,Armenian,Greater Mesopotamia
Aromanian [rup],42,23,#A9CBDC,Indo-European,Romance,Europe
Aromanian-2 [rup-2],39.77,21.1,#D6E5EB,Indo-European,Romance,Europe
Arop-Lokep [apr],-5.333,147.083,#DCCCAA,Austronesian,North New Guinea,N Coast New Guinea
Arosi [aia],-10.333,161.5,#EDE9DF,Austronesian,Southeast Solomonic,Oceania
Arpitan [frp-3],45.17,5.72,#E1D3B5,Indo-European,Romance,Europe
Arrernte_Central [are],-22.85,133.7,#C0D8E4,Pama-Nyungan,Arandic,S Australia
Arrernte_Eastern [are-2],-23.292,134.445,#EEEBE3,Pama-Nyungan,Arandic,S Australia
Arrernte_Mparntwe [aer],-24,136,#E1EBEC,Pama-Nyungan,Arandic,S Australia
Arrernte_Pertame [xxx-59],-24.5,132,#ECEDE6,Pama-Nyungan,Arandic,S Australia
Arta [atz],16.42,121.66,#EBECE8,Austronesian,Philippines,Southeast Asia-Island
Arutani [atx],4.06,-62.88,#E2EBEC,Arutani–Sape,Sape,NE South America
Arvanitika [als-3],38.42,23.08,#EAEDE9,Indo-European,Albanian,Europe
As [asz],-0.722,131.787,#ECE4D3,Austronesian,South Halmahera-West New Guinea,N Coast New Guinea
Asaro_Upper [aso],-5.967,145.292,#E7DCC5,Trans New Guinea,Goroka,Interior New Guinea
Asharon [acz],10.8,30.3,#C6AB74,Talodi-Heiban,Talodi,African Savannah
Ashe [ahs],9.37,7.39,#B79550,Niger-Kongo,Plateau,African Savannah
Asheninka_Apurucayali [cpc],-10.018,-74.793,#AFCEDD,Arawak,Southern Maipuran,NE South America
Ashéninka_Perené [prq],-10.8734,-75.245,#B3D1DF,Arawak,Southern Maipuran,NE South America
Ashéninka_Pichis [cpu],-9.9833,-74.9833,#83B4CC,Arawak,Southern Maipuran,NE South America
Ashéninka_Ucayali-Yurúa [cpb],-10.1619,-74.0234,#5496B7,Arawak,Southern Maipuran,NE South America
Ashkun [ask],34.84,70.37,#DBE7ED,Indo-European,Indo-Iranian,Indic
Asho [csh-4],22.91,93.68,#C2A66C,Tibeto-Burman,Kuki-Chin,Indic
Ashuku [nza-2],6.98,10.71,#AB8435,Niger-Kongo,Jukkunoid,African Savannah
Ashuslay [cag-2],-23.5,-60.5,#80B2CA,Matacoan,Mataguayo I,SE South America
Asi [bno-2],12.95,122.08,#E0EAED,Austronesian,Philippines,Southeast Asia-Island
Asienara [asi],-3.75,133.33,#EDECE4,Trans New Guinea,Asmat-Kamoro,N Coast New Guinea
Asilulu [asl],-3.67,127.95,#E6ECEC,Austronesian,Central Maluku,Southeast Asia-Island
Asmat [asc],-5.3,138.3,#EDE7DA,Trans New Guinea,Asmat-Kamoro,S New Guinea
Asmat_North [nks],-5,138.5,#EDEAE1,Trans New Guinea,Asmat-Kamoro,S New Guinea
Assamese [asm],26.5,93,#CEB686,Indo-European,Indo-Iranian,Indic
Assamese_Dudhnoi [asm-10],26,90.8,#DFD0B1,Indo-European,Indo-Iranian,Indic
Assiniboine [asb],49,-100,#92BDD1,Siouan,Mississippi Valley Siouan,Basin and Plains
Asturian [ast],43.33,-6,#CCE0E9,Indo-European,Romance,Europe
Asu [aum],10.08,5.42,#C2A56A,Niger-Kongo,Ebira-Nupoid,African Savannah
Asumboa [aua],-11.296,166.496,#EBECE8,Austronesian,Te Motu,Oceania
Asur [asr-2],21.57,83.46,#E6ECEC,Austroasiatic,Munda,Indic
Asuri [asr],23.04,84.54,#CDE0E9,Austroasiatic,Munda,Indic
Asurini [asu],-3.3,-49.3,#E5EBED,Tupian,Tupi-Guarani,NE South America
Asuriní_Tocantins [asu-2],-3.3,-50,#EEE8DD,Tupian,Tupi-Guarani,NE South America
Asuriní_Xingú [asn],-4.13,-52.32,#E5EBED,Tupian,Tupi-Guarani,NE South America
Ata [ata],-5.667,151,#EEEBE2,Ata,Ata,N Coast New Guinea
Ata_Manobo [atd],7.845,125.506,#ECE6D7,Austronesian,Philippines,Southeast Asia-Island
Atacameño [kuz],-23,-69,#3C86AC,Atacameño,Atacameño,Andean
Atadei [slp-3],-8.46,123.555,#DDCDAB,Austronesian,Bima-Lembata,Southeast Asia-Island
Atakapa [aqp],30,-93,#B5D2E0,Atakapa,Atakapa,E North America
Atamanu [jal],-3.396,129.313,#EAE2CF,Austronesian,Central Maluku,Southeast Asia-Island
Atampaya [amz],-11.33,142.5,#EEEBE3,Pama-Nyungan,Paman,N Australia
Atayal [tay],24.5,121,#67A2BF,Austronesian,Atayalic,Southeast Asia-Island
Atchin [upv],-16,167.333,#E1D2B4,Austronesian,Southern Oceanic,Oceania
Ateso [teo],1.915,33.955,#C3A76D,Nilo-Saharan,Teso,S Africa
Athpare [aph],26.75,87.33,#E4D7BD,Tibeto-Burman,Eastern Kiranti,Indic
Atikamekw [atj],48,-74,#D2E3EB,Algic,Algonquian,E North America
Atong [aot],25.5,90.5,#E8DECA,Tibeto-Burman,Bodo-Garo,Indic
Atsawaka [atc],-14.17,-69.5,#D8E6EC,Panoan,Pano Nawa,NE South America
Atsi [atb-2],28,93.5,#D3BE93,Tibeto-Burman,Central Loloish,Indic
Atsugewi [atw],40.75,-121,#166999,Palaihnihan,Palaihnihan,Basin and Plains
Atta_Pamplona-1 [att-2],18.46,121.341,#E6ECEC,Austronesian,Northern Luzon,Southeast Asia-Island
Atta_Pamplona-2 [att],18.458,121.342,#C9DEE8,Austronesian,Northern Luzon,Southeast Asia-Island
Attie [ati],6,-3.82,#B18D42,Niger-Kongo,Kwa,African Savannah
Au [avt],-3.5,142.083,#E9ECEA,Torricelli,Wapei,N Coast New Guinea
Auhelawa [kud],-10.284,151.02,#B3D1DF,Austronesian,Papuan Tip,S New Guinea
Aujila [auj],29.23,21.18,#2B7AA4,Afro-Asiatic,Berber,N Africa
Aulua [aul],-16.33,167.694,#EDEAE1,Austronesian,Southern Oceanic,Oceania
Aurland [nno-6],60.87,7.23,#C0A265,Indo-European,Germanic,Europe
Ausaimia [css-3],36.37,-121.15,#A9CBDC,Yok-Utian,Costanoan,California
Austral [aut],-23.377,-149.498,#ECE4D3,Austronesian,Central Pacific,Oceania
Auyana [auy],-6.523,145.708,#CEB788,Trans New Guinea,Kainantu,Interior New Guinea
Auye [auu],-3.495,136.002,#C9B07B,Trans New Guinea,Wissel Lakes,Interior New Guinea
Avá-Canoeiro [avv],-13.166403,-47.928611,#E8DECA,Tupian,Tupi-Guarani,NE South America
Avar [ava],42.54,46.7,#2575A1,Nakh-Daghestanian,Avar-Andi,Greater Mesopotamia
Avatime [avn],6.85,0.44,#CDB584,Niger-Kongo,Kwa,African Savannah
Avava [tmb],-16.224,167.523,#EDE9DE,Austronesian,Southern Oceanic,Oceania
Aveteian [dix],-16.443,167.43,#DDCDAC,Austronesian,Southern Oceanic,Oceania
Avikam [avi],5.16,-5.25,#CDB584,Niger-Kongo,Kwa,African Savannah
Avok [xxx-61],-16.53,167.7,#DCCBA7,Austronesian,Southern Oceanic,Oceania
Avok_Maxbaxo [xxx-110],-16.496,167.665,#EEEBE2,Austronesian,Southern Oceanic,Oceania
Avokaya [avu],5,30.2,#AB8333,Nilo-Saharan,Moru-Madi,African Savannah
Awa [awb],-6.75,145.667,#BB9B5A,Trans New Guinea,Kainantu,Interior New Guinea
Awa Pit [kwi],0.75,-78.5,#9EC3D6,Barbacoan,Northern Barbacoan,Andean
Awabakal [awk],-33.05,151.55,#EBECE8,Pama-Nyungan,Yuin-Kuri,S Australia
Awad Bing [bcu],-5.584,146.349,#EDE7D9,Austronesian,North New Guinea,N Coast New Guinea
Awadhi [awa],27.5,81.5,#B6D3E1,Indo-European,Indo-Iranian,Indic
Awajún [agr-2],-4.795,-78.29,#CFE1EA,Jivaroan,Aguaruna,Andean
Awak [awo],9.86,11.33,#A37824,Niger-Kongo,Gur,African Savannah
Awar [aya],-4,144.625,#D1BB8E,Lower Sepik-Ramu,Ramu,N Coast New Guinea
Awara [awx],-6.094,146.441,#E5EBED,Trans New Guinea,Finisterre-Huon,N Coast New Guinea
Awbono [awh],-5.119,139.201,#EDECE4,Bayono-Awbono,Bayono-Awbono,Interior New Guinea
Aweer [orm-4],-1.717,40.967,#E8DECA,Afro-Asiatic,East Cushitic,S Africa
Awera [awr],-2.677,136.242,#E8DECA,Lakes Plains,Western Lakes Plains,N Coast New Guinea
Awetí [awe],-12.926,-54.277,#E6DAC3,Tupian,Aweti,NE South America
Awiakay [afp],-4.672,143.712,#E2D4B9,Arafundi,Arafundi,N Coast New Guinea
Awin [awi],-5.833,142.5,#C8AF7A,Trans New Guinea,Awin-Pa,Interior New Guinea
Awing [azo],5.88,10.24,#CEB687,Niger-Kongo,Grassfields,African Savannah
Awiya [som-2],10.851,36.892,#D1BB8E,Afro-Asiatic,Central Cushitic,Greater Abyssinia
Awngi [awn],10.83,36.67,#E5EBED,Afro-Asiatic,Central Cushitic,Greater Abyssinia
Awngthim [gwm],-12.54,141.98,#EDE6D7,Pama-Nyungan,Paman,N Australia
Awtuw [kmn],-3.5,141.917,#D5C198,Sepik,Ram,N Coast New Guinea
Awu Alaya [typ-2],-14.83,143.32,#E2D4B9,Pama-Nyungan,Paman,N Australia
Awutu [afu],5.42,-0.6,#BD9E5E,Niger-Kongo,Kwa,African Savannah
Awyi [auw],-3,140.75,#E5D9C0,Trans New Guinea,Border,N Coast New Guinea
Axi [yix-2],24.4,103.44,#D5C198,Tibeto-Burman,Central Loloish,Southeast Asia-mainland
Axininca [cpc-2],-9,-75,#5799B9,Arawak,Southern Maipuran,NE South America
Ayapathu [ayd-2],-14.29,143.11,#E8DEC9,Pama-Nyungan,Paman,N Australia
Ayautla Mazatec [vmy],18.1,-96.6,#905C06,Otomanguean,Mazatecan,Mesoamerica
Ayere [aye],7.52,6.02,#C3A76E,Niger-Kongo,Ayere-Ahan,African Savannah
Ayerrerenge [axe],-22.5,137.36,#EBECE8,Pama-Nyungan,Arandic,S Australia
Aymara [ayr],-16,-69.5,#327FA8,Aymaran,Aymaran,Andean
Aymara_Carangas [ayr-3],-18.45,-67.45,#599ABA,Aymaran,Aymaran,Andean
Aymara_Chile [ayc],-19.15,-69.4,#73AAC5,Aymaran,Aymaran,Andean
Aymara_Muylaq' [ayr-2],-16.675,-70.712,#3984AB,Aymaran,Aymaran,Andean
Äynu [aib],38.069,76.227,#B4D2E0,Turkic,Common Turkic,Inner Asia
Ayoré [ayo],-20.5,-59.25,#ECE4D3,Zamucoan,Zamucoan,SE South America
Ayu [ayu],9.26,8.6,#AC8536,Niger-Kongo,Plateau,African Savannah
Azerbaijani [azj],40.5,48.5,#DBE7ED,Turkic,Common Turkic,Greater Mesopotamia
Azerbaijani_Tabriz [azj-3],38.07,46.3,#D5E4EB,Turkic,Common Turkic,Greater Mesopotamia
Azeri [azb],40.67,47.75,#C5DBE6,Turkic,Common Turkic,Greater Mesopotamia
Azha [aza],23.37,104.25,#CBB27F,Tibeto-Burman,Central Loloish,Southeast Asia-mainland
Azhe [yiz],24.2,103.6,#D8C6A1,Tibeto-Burman,Central Loloish,Southeast Asia-mainland
B'lit_Manobo [mta],6.39,124.23,#E8DECA,Austronesian,Philippines,Southeast Asia-Island
Ba:ngingi_Sama [sse],6.133,121.805,#EDE7D9,Austronesian,Barito,Southeast Asia-Island
Baagandji [drl],-32,142.533,#DFEAED,Pama-Nyungan,Yarli-Baagandji,S Australia
Baale [koe],5,36,#C2A56A,Nilo-Saharan,Surmic,African Savannah
Baangi [bqx],10.81,5.73,#E8DECA,Niger-Kongo,Kainji,African Savannah
Baarin [mon-2],43.53,118.67,#E5D9C0,Mongolic,Mongolic,Inner Asia
Baatonum [bba-2],9.63,3,#CCB481,Niger-Kongo,Gur,African Savannah
Baba [bbw],6.11,10.52,#CBB27F,Niger-Kongo,Grassfields,African Savannah
Babale [tmv-2],3.3,20.87,#AC8637,Niger-Kongo,Zone C30,S Africa
Babanki [bbk],6.104,10.311,#C2A66C,Niger-Kongo,Grassfields,African Savannah
Babar_North [bcd],-7.83,129.58,#E8DEC8,Austronesian,Southeast Maluku,Southeast Asia-Island
Babar_Southeast [vbb],-7.92,129.67,#E0EAED,Austronesian,Southeast Maluku,Southeast Asia-Island
Babatana [baa],-7.397,157.37,#E7DCC5,Austronesian,Meso-Melanesian,Oceania
Babine-Witsuwit'en [bcr],55,-127,#599ABA,Dene-Yeniseic,Athapaskan,Alaska-Oregon
Babungo [bav],6.12,10.42,#97660F,Niger-Kongo,Grassfields,African Savannah
Babuza [bzg-2],24,120.58,#E5EBED,Austronesian,Western Plains,Southeast Asia-Island
Baca [baf],4.36,11.03,#A67C2A,Niger-Kongo,Mbam-Bubi-Jarawan,African Savannah
Bacan Malay [btj],-0.62,127.49,#EBE3D2,Austronesian,Malayic,Southeast Asia-Island
Bachamal [wdj-2],-13.17,130.17,#EEEBE2,Wagaydyic,Wagaydyic,N Australia
Bada [bhz],-1.793,120.313,#D8C6A1,Austronesian,Celebic,Southeast Asia-Island
Badaga [bfq],11.31,76.6,#E2EAEC,Dravidian,South Dravidian,Indic
Bade [bde],12.79,10.66,#EDE9DF,Afro-Asiatic,West Chadic,African Savannah
Bade-2 [bde-2],12,12,#82B3CB,Afro-Asiatic,West Chadic,African Savannah
Badeng [xkl-3],3.17,115.22,#E1D3B5,Austronesian,North Borneo,Southeast Asia-Island
Badimaya [bia],-27.667,119,#E5EBED,Pama-Nyungan,Kardu,S Australia
Badjala [xby],-25.084,152.529,#EBE3D2,Pama-Nyungan,Waka-Kabic,S Australia
Badjiri [jbi],-28.79,145.47,#E6ECEC,Pama-Nyungan,Karnic,S Australia
Badyara [pbp],11.633,-13.4,#E0D1B3,Niger-Kongo,North-Central Atlantic,African Savannah
Baelelea [bvc],-8.453,160.66,#E3EAEC,Austronesian,Southeast Solomonic,Oceania
Baenggu [bvd],-8.506,160.706,#ECEDE6,Austronesian,Southeast Solomonic,Oceania
Baetora [btr],-15.258,168.166,#EAEDE9,Austronesian,Southern Oceanic,Oceania
Bafang [cmn-76],35.6,103.217,#BD9E5E,Tibeto-Burman,North Sinitic,Inner Asia
Bafanji [bfj-2],5.84,10.46,#C5A970,Niger-Kongo,Grassfields,African Savannah
Bafia [ksf-2],4.73,11.1,#BFA062,Niger-Kongo,Zone A70,African Savannah
Bafo [bwt],6.351,10.229,#AC8637,Niger-Kongo,Zone A10,African Savannah
Bafut [bfd],6.083,10.0999,#E1D3B6,Niger-Kongo,Grassfields,African Savannah
Baga tshi-Tem [bsp-2],10.65,-14.51,#E5D9C0,Niger-Kongo,Mel,African Savannah
Baga_Koga [bgo],10.13,-13.95,#C0A265,Niger-Kongo,North-Central Atlantic,African Savannah
Baga_Mboteni [bcg],10.83,-14.55,#D6C29B,Niger-Kongo,North-Central Atlantic,African Savannah
Baga_Sitemu [bsp],10.48,-14.48,#D8C6A1,Niger-Kongo,Mel,African Savannah
Bagheli [bfy],24.35,81.43,#E5EBED,Indo-European,Indo-Iranian,Indic
Bagirmi [bmi],10.202,17,#C5A970,Nilo-Saharan,Sara-Bongo-Bagirmi,African Savannah
Bagri [bgq],29.6,74.3,#D7C59F,Indo-European,Indo-Iranian,Indic
Baguiro_Zangba [bmi-2],7.29,18.82,#AB8435,Nilo-Saharan,Sara-Bongo-Bagirmi,African Savannah
Bagulal [kva],42.56,46.17,#3782A9,Nakh-Daghestanian,Avar-Andi,Greater Mesopotamia
Bagusa [bqb],-1.905,137.932,#D3E3EB,Tor-Kwerba,Nuclear Kwerba,N Coast New Guinea
Baharnah [afb-4],26.03,50.55,#3C86AC,Afro-Asiatic,Arabic,Greater Mesopotamia
Bahau [bhv],0.06,115.65,#E9ECEA,Austronesian,North Borneo,Southeast Asia-Island
Bahinemo [bjh],-4.435,142.726,#ECE6D8,Sepik,Sepik Hill,N Coast New Guinea
Bahing [bhj],27.27,86.56,#C5AA71,Tibeto-Burman,Northwestern Kiranti,Indic
Bahnar [bdq],14,108.5,#DEE9EC,Austroasiatic,Bahnaric,Southeast Asia-mainland
Bahonsuai [bsu],-2.23,121.71,#E5D9C0,Austronesian,Celebic,Southeast Asia-Island
Bai [bca],25.61,100.27,#BA9A59,Tibeto-Burman,Bai,Southeast Asia-mainland
Bai_Bijiang [bca-11],26.12,98.87,#C5A970,Tibeto-Burman,Bai,Southeast Asia-mainland
Bai_Dashi [bca-18],26.81,99.89,#B7954F,Tibeto-Burman,Bai,Southeast Asia-mainland
Bai_Ega [bca-15],23.66,101.9,#B89752,Tibeto-Burman,Bai,Southeast Asia-mainland
Bai_Enqi [bca-14],27.475,99.13,#C6AB72,Tibeto-Burman,Bai,Southeast Asia-mainland
Bai_Eryuan [bca-3],26.12,99.95,#AC8536,Tibeto-Burman,Bai,Southeast Asia-mainland
Bai_Gongxing [bca-13],27.09,99.17,#C2A56A,Tibeto-Burman,Bai,Southeast Asia-mainland
Bai_Heqing [bca-4],26.56,100.18,#A98131,Tibeto-Burman,Bai,Southeast Asia-mainland
Bai_Jinman [bca-16],26.42,99.14,#C7AC75,Tibeto-Burman,Bai,Southeast Asia-mainland
Bai_Jinxing [bca-17],25.6,100.24,#A88030,Tibeto-Burman,Bai,Southeast Asia-mainland
Bai_Lanping [bca-5],26.45,99.42,#A47A27,Tibeto-Burman,Bai,Southeast Asia-mainland
Bai_Luobenzhuo [bca-6],26.42,98.89,#BD9E5D,Tibeto-Burman,Bai,Southeast Asia-mainland
Bai_Mazhelong [bca-20],24.17,104.2,#AC8536,Tibeto-Burman,Bai,Southeast Asia-mainland
Bai_Qiliqiao [bca-7],25.65,100.18,#A37723,Tibeto-Burman,Bai,Southeast Asia-mainland
Bai_Tuoluo [bca-12],27.1,99.17,#C8AF7A,Tibeto-Burman,Bai,Southeast Asia-mainland
Bai_Xiangyun [bca-8],25.48,100.55,#A27622,Tibeto-Burman,Bai,Southeast Asia-mainland
Bai_Xishan [bca-2],25.53,100.45,#A47926,Tibeto-Burman,Bai,Southeast Asia-mainland
Bai_Yunlong [bca-9],25.88,99.37,#A37825,Tibeto-Burman,Bai,Southeast Asia-mainland
Bai_Zhoucheng [bca-10],24.48,101.34,#A17521,Tibeto-Burman,Bai,Southeast Asia-mainland
Bai_Zhoucheng [bca-19],26.63,100.54,#A47A27,Tibeto-Burman,Bai,Southeast Asia-mainland
Baikeno [bkx],-9.3,124.32,#DAE7ED,Austronesian,Southeast Maluku,Southeast Asia-Island
Baima [bqh],30.32,107.34,#BA9A59,Tibeto-Burman,Bodic,Southeast Asia-mainland
Bainapi [dby],-7.904,142.715,#E6DBC4,Papuan Gulf,Strickland,S New Guinea
Baining [gcc-2],-4.6,152,#E5D9BF,Baining,Baining,N Coast New Guinea
Baiso [bsw-3],6.45,37.77,#C9DEE8,Afro-Asiatic,East Cushitic,Greater Abyssinia
Baixinghua [csp],23.6,107.1,#AB8334,Tibeto-Burman,Pinghua,Southeast Asia-mainland
Bajau_Semporna [ssb],4.5,118.5,#EBE3D1,Austronesian,Barito,Southeast Asia-Island
Bajau_Sulawesi [bdl-2],-3.75,122.5,#E5D9C0,Austronesian,Barito,Southeast Asia-Island
Bajo_Kangean [bdl],-7.17,115.82,#D9C7A3,Austronesian,Barito,Southeast Asia-Island
Bajuni [swh-2],-1,42.04,#EBECE8,Niger-Kongo,Zone G40,S Africa
Baka [bdh],4.8,31.6,#BE9F5F,Nilo-Saharan,Sara-Bongo-Bagirmi,African Savannah
Baka [bkc],2.16,13.78,#A88030,Ubangian,Ubangian,African Savannah
Bakairí [bkq],-14,-55,#EDEAE0,Cariban,Pekodian,NE South America
Bakairí_East [bkq-2],-14.43,-54.025,#ECEDE7,Cariban,Pekodian,NE South America
Bakairí_West [bkq-3],-14.7302,-56.2479,#ECEDE6,Cariban,Pekodian,NE South America
Bakaka [bqz],4.8,9.8,#BC9C5B,Niger-Kongo,Zone A10,African Savannah
Bakhtiari [ldd],31.92,50.86,#81B3CB,Indo-European,Indo-Iranian,Greater Mesopotamia
Baki [bki],-16.717,168.138,#E9ECEA,Austronesian,Southern Oceanic,Oceania
Bakoko [bkh],4.2,9.67,#A87F2E,Niger-Kongo,Zone A50,African Savannah
Bakole [kme],4.44,8.97,#C5AA71,Niger-Kongo,Zone A20,African Savannah
Bakumpai [bkr],-1.988,114.7,#ECE6D8,Austronesian,Barito,Southeast Asia-Island
Balaesang [bls],-0.06,119.69,#ECE4D3,Austronesian,Celebic,Southeast Asia-Island
Balami [new-4],27.801,85.25,#E5D9BF,Tibeto-Burman,Newaric,Indic
Balangao [blw],17.167,120.333,#EBE3D2,Austronesian,Northern Luzon,Southeast Asia-Island
Balanta [ble],12,-15,#B5924A,Niger-Kongo,North-Central Atlantic,African Savannah
Balantak [blz],-0.82,123.431,#E5D9C0,Austronesian,Celebic,Southeast Asia-Island
Balante_Sofa [bjt],12.54,-15.67,#BD9E5E,Niger-Kongo,North-Central Atlantic,African Savannah
Balawaia [snc-2],-9.98,147.865,#D6E5EB,Austronesian,Papuan Tip,S New Guinea
Balearic [cat-2],39.5,3,#E7DCC5,Indo-European,Romance,Europe
Balendru [led],1.968,30.485,#CEB788,Nilo-Saharan,Lenduic,S Africa
Bali-Vitu [wiv],-4.733,149.283,#ECE4D3,Austronesian,Meso-Melanesian,N Coast New Guinea
Balinese [ban],-8.583,115.25,#CDB584,Austronesian,Malayo-Sumbawan,Southeast Asia-Island
Balingian [mel-6],2.92,112.53,#E5EBED,Austronesian,North Borneo,Southeast Asia-Island
Balochi [bgp-2],27,63.5,#83B4CC,Indo-European,Indo-Iranian,Indic
Balochi_Turkmenistan [bgp-3],37.3,62.4,#C0D9E5,Indo-European,Indo-Iranian,Inner Asia
Balong [bwt-2],4.53,9.52,#A77E2C,Niger-Kongo,Zone A10,African Savannah
Balti [bft],35.2,76,#8FBBD0,Tibeto-Burman,Tibetan,Indic
Baluchi [bgp],27.2,60.68,#63A0BE,Indo-European,Indo-Iranian,Indic
Balui Liko [ree-3],1.92,114.52,#EDE7D9,Austronesian,North Borneo,Southeast Asia-Island
Bam [bmc],-3.61,144.82,#DFD0B1,Austronesian,North New Guinea,N Coast New Guinea
Bamata [lol-22],-0.9,20.95,#A27622,Niger-Kongo,Zone C30,S Africa
Bambalang [bmo],5.86,10.55,#DDCDAB,Niger-Kongo,Grassfields,African Savannah
Bambara [bam],12.5,-7.5,#C3A76E,Mande,Western Mande,African Savannah
Bambara_South-east [bam-2],12.48,-6.18,#BE9F61,Mande,Western Mande,African Savannah
Bamenyam [bce],5.77,10.33,#C2A66C,Niger-Kongo,Grassfields,African Savannah
Bamu [bcf],-8,143.833,#EDE7DA,Kiwaian,Kiwaian,S New Guinea
Bamun [bax],5.726,10.904,#AD8739,Niger-Kongo,Grassfields,African Savannah
Bamunka [bvm],6,10.51,#CBB27F,Niger-Kongo,Grassfields,African Savannah
Bana [bcw],10.42,13.58,#8DBAD0,Afro-Asiatic,Biu-Mandara,African Savannah
Banam Bay [vrt-2],-16.41,167.78,#D7C49D,Austronesian,Southern Oceanic,Oceania
Banda [bnd],-5.25,133.17,#DCCCA9,Austronesian,Central Maluku,Southeast Asia-Island
Banda [bpd],2,22,#BA9A59,Ubangian,Ubangian,African Savannah
Banda_Ndele [bfl],8.03,23.9,#C0A265,Ubangian,Ubangian,African Savannah
Bandi [bza],7.74,-10.17,#B7954F,Mande,Western Mande,African Savannah
Bandiaal [bqj-2],13.02,-15.32,#CEB686,Niger-Kongo,North-Central Atlantic,African Savannah
Bandjalang [bdy],-28.74,153.01,#EBECE8,Pama-Nyungan,Yugambeh-Bundjalung,S Australia
Bandjalang-2 [bdy-4],-28.39,152.61,#ECEDE6,Pama-Nyungan,Yugambeh-Bundjalung,S Australia
Bandjalang-Gidabal [bdy-2],-28.25,152,#EDEAE0,Pama-Nyungan,Yugambeh-Bundjalung,S Australia
Bandjigali [bjd],-30.08,143.28,#E3EAEC,Pama-Nyungan,Yarli-Baagandji,S Australia
Banggai [bgz],-1.42,123.17,#DFD0B1,Austronesian,Celebic,Southeast Asia-Island
Banggime [dbb],14.78,-3.76,#925F08,Banggime,Banggime,African Savannah
Bangla Rahri Upobhasa [ben-11],23.24,87.86,#E1EBEC,Indo-European,Indo-Iranian,Indic
Bangla_Mymensingh [ben-10],24.75,90.4,#EAEDE9,Indo-European,Indo-Iranian,Indic
Bangolan [bgj],6.05,10.45,#CEB686,Niger-Kongo,Grassfields,African Savannah
Bangru [hru-3],27.9,93.35,#BFA063,Tibeto-Burman,Hrusish,Indic
Bangubangu [bnx],-4.689,27.693,#C6AB73,Niger-Kongo,Zone D20,S Africa
Baniwa_Central [bwi],1.4091,-68.1358,#E9ECEA,Arawak,Northern Maipuran,NE South America
Baniwa_do_Içana [bwi-2],2.18,-67.77,#E2EBEC,Arawak,Northern Maipuran,NE South America
Baniwa_Rio_Negro [bwi-3],0.053,-67.43,#EBE3D2,Arawak,Northern Maipuran,NE South America
Baniwa_Siusi [bwi-4],2.19,-67.76,#D3E3EB,Arawak,Northern Maipuran,NE South America
Banjar [bjn],0.75,115.79,#E3EAEC,Austronesian,Malayic,Southeast Asia-Island
Banjari [lmn-2],16.5,77.455,#E9ECEA,Indo-European,Indo-Iranian,Indic
Bankan Tey Dogon [dbw],15.06,-2.92,#A37825,Dogon,Dogon,African Savannah
Bankariya [cdm-2],27.5,85,#EBECE8,Tibeto-Burman,Chepang,Indic
Bankon [abb],4.37,9.64,#C3A76D,Niger-Kongo,Zone A40,African Savannah
Banoni [bcm],-6.417,155.25,#E4EBED,Austronesian,Meso-Melanesian,Oceania
Bantang [pho-5],21.75,102.25,#B89652,Tibeto-Burman,Hani-Jino,Southeast Asia-mainland
Bantawa [bap],27.2,87.1,#E8DEC8,Tibeto-Burman,Central Kiranti,Indic
Banten [sun-2],-6.35,106.1,#E7DDC6,Austronesian,Sundanese,Southeast Asia-Island
Bantik [bnq],1.564,124.859,#EAE2CF,Austronesian,Philippines,Southeast Asia-Island
Bantoanon [bno],12.784,122.049,#DDE9EC,Austronesian,Philippines,Southeast Asia-Island
Banyaduq [byd],0.5,110,#E7DDC7,Austronesian,Land Dayak,Southeast Asia-Island
Banyum [bab],11.497,-16.5,#C6AB72,Niger-Kongo,North-Central Atlantic,African Savannah
Banyun [bcb-2],12.75,-16.3,#C3A76D,Niger-Kongo,North-Central Atlantic,African Savannah
Baoan [peh],35.05,102.1,#A5C8D9,Mongolic,Mongolic,Inner Asia
Baoan [yue-24],22.55,113.9,#A37723,Tibeto-Burman,Yue,Southeast Asia-mainland
Baoan_Dahejia [peh-2],35.72,102.88,#B4D2E0,Mongolic,Mongolic,Inner Asia
Baoan_Dongxiang [peh-5],35.6,103.22,#A8CADB,Mongolic,Mongolic,Inner Asia
Baoan_Kangjia [peh-4],35.04,101.25,#BDD7E3,Mongolic,Mongolic,Inner Asia
Baoan_Ñantoq [peh-3],35.41,102.08,#A6C9DA,Mongolic,Mongolic,Inner Asia
Baojing [hsn-28],28.71,109.65,#B6934D,Tibeto-Burman,Xiang,Southeast Asia-mainland
Bará [bao],0.1,-70.45,#EDE7D9,Tucanoan,East Tucanoan,NE South America
Baraba [tat-3],55.333,78.333,#E5EBED,Turkic,Common Turkic,Inner Asia
Barai [bbb],-9.417,148,#EDE9DE,Southeast Papuan,Koiarian,S New Guinea
Barain_Giliya [bva-2],12.08,18.58,#B89752,Afro-Asiatic,East Chadic,African Savannah
Barain_Jalking [bva-3],12.22,18.8,#B6934D,Afro-Asiatic,East Chadic,African Savannah
Barain_Jalkiya [bva],12.18,18.68,#B4914A,Afro-Asiatic,East Chadic,African Savannah
Barain_Komiya [bva-4],12.17,18.75,#B99956,Afro-Asiatic,East Chadic,African Savannah
Baram [brd],27.95,85,#E2D4B7,Tibeto-Burman,Western Himalayan,Indic
Barang-barang [lji],-6.4,120.5,#E7DDC7,Austronesian,Celebic,Southeast Asia-Island
Barapa Barapa [rbp],-35.95,144.32,#E0D1B2,Pama-Nyungan,Kulinic,S Australia
Barapasi [brp],-2.247,136.995,#D7C49D,Geelvink Bay,Geelvink Bay,N Coast New Guinea
Barasano [bsn],-0.25,-70.75,#E1D2B4,Tucanoan,East Tucanoan,NE South America
Bardi [bcj],-16.58,122.92,#E5EBED,Nyulnyul,Bardic,N Australia
Baré [bae],1.6,-66.8,#69A4C1,Arawak,Northern Maipuran,NE South America
Bareke [mpr],-8.543,158.113,#EBECE8,Austronesian,Meso-Melanesian,Oceania
Barese [ita-47],41.1,16.9,#D8C6A1,Indo-European,Romance,Europe
Bargam [mlp],-4.87,145.76,#E0D1B2,Trans New Guinea,Madang,N Coast New Guinea
Bari [bfa],3.8,31,#E5D9C0,Nilo-Saharan,Barian,African Savannah
Barí [mot],9,-73.5,#D1BC90,Chibchan,Southern Magdalenic Chibchan,Andean
Bariai [bch],-5.497,148.63,#E4D7BD,Austronesian,North New Guinea,N Coast New Guinea
Bariba [bba],10.217,2.667,#A57B29,Niger-Kongo,Savannas,African Savannah
Bariji [bjc],-9.211,148.401,#EDEAE1,Southeast Papuan,Mailu-Yareban,S New Guinea
Barman Thar [xxx-115],25.899,89.899,#E1D2B5,Tibeto-Burman,Bodo-Garo,Indic
Barok [bjk],-3.48,152.19,#EBE3D2,Austronesian,Meso-Melanesian,N Coast New Guinea
Barranbinya [zmu-2],-30.1,145.93,#D2E3EB,Pama-Nyungan,Muruwari,S Australia
Barranquenho [por-3],38.13,-6.975,#E3D5BA,Indo-European,Romance,Europe
Barrow_Point [bpt],-14.373,144.63,#DBE7ED,Pama-Nyungan,Paman,N Australia
Baruga [bjz],-9.328,148.734,#EAEDE9,Trans New Guinea,Binanderean,S New Guinea
Barunggam [xxx-49],-26.25,151.25,#E7DCC5,Pama-Nyungan,Waka-Kabic,S Australia
Barupu [wra],-3.083,142.083,#814500,Skou,Eastern Skou,N Coast New Guinea
Baruya [byr],-6.917,145.833,#B28E44,Trans New Guinea,Angan,Interior New Guinea
Basà [bzw],8.03,7.06,#C4A86E,Niger-Kongo,Kainji,African Savannah
Basaa [bas],5,10.15,#BA9A58,Niger-Kongo,Zone A40,African Savannah
Basap [bdb-2],0.91,117.56,#E9DFCC,Austronesian,Basap,Southeast Asia-Island
Basap [bdb],1.41,117.94,#D5C198,Austronesian,Barito,Southeast Asia-Island
Basari [bsc],12.25,-13,#EDE6D6,Niger-Kongo,North-Central Atlantic,African Savannah
Basay [byq-2],25,121.86,#A7CADB,Austronesian,East Formosan,Southeast Asia-Island
Basay_Trobriawan [byq],25,122,#EAEDE9,Austronesian,East Formosan,Southeast Asia-Island
Basel [gsw-4],47.56,7.59,#E0EAED,Indo-European,Germanic,Europe
Bashkardi [bsg-2],32,53,#BED7E3,Indo-European,Indo-Iranian,Greater Mesopotamia
Bashkarik [gwc-3],35.358,72.137,#C6DCE7,Indo-European,Indo-Iranian,Indic
Bashkir [bak],53,58,#E9ECEA,Turkic,Common Turkic,Inner Asia
Basila [ade],8.17,0.62,#AB8435,Niger-Kongo,Kwa,African Savannah
Basketo [bst],6.384,36.651,#68A3C0,Afro-Asiatic,Omotic,Greater Abyssinia
Basque [eus],42.82,-1.95,#D2E3EB,Basque,Basque,Europe
Basque_Arbizu [eus-4],42.9,-2,#E8DECA,Basque,Basque,Europe
Basque_Baztan [eus-10],43.2,1.47,#E9ECEA,Basque,Basque,Europe
Basque_Baztan [eus-9],43.2,-1.5,#E3D6BB,Basque,Basque,Europe
Basque_Gernika [eus-3],43.3,-2.7,#D6C39C,Basque,Basque,Europe
Basque_Lekeitio [eus-2],43.365,-2.51,#E9ECEA,Basque,Basque,Europe
Basque_Navarro [bqe],43.17,-1.24,#EDE7D9,Basque,Basque,Europe
Basque_Ondarroa [eus-7],43.3,-2.4,#CCB481,Basque,Basque,Europe
Bassa [bsq],7.26,-7.22,#B89752,Niger-Kongo,Kru,African Savannah
Basseri [pes-7],29.61,52.54,#A5C9D9,Indo-European,Indo-Iranian,Greater Mesopotamia
Bassossi [bsi],5.24,9.52,#B18C41,Niger-Kongo,Zone A10,African Savannah
Bata [bta],9.7,12.5,#BFA062,Afro-Asiatic,Biu-Mandara,African Savannah
Batak_Dairi [btd],2.546,98.3,#EDE9DF,Austronesian,Batak-Barrier Islands,Southeast Asia-Island
Batak_Karo [btx],3,98.167,#CDB585,Austronesian,Batak-Barrier Islands,Southeast Asia-Island
Batak_Palawan [bya],10.115,119.214,#E6ECEC,Austronesian,Philippines,Southeast Asia-Island
Batang [khg-8],30.57,98.97,#CCB481,Tibeto-Burman,Tibetan,Inner Asia
Batanga [bnm],2.09,9.75,#A27622,Niger-Kongo,Zone A30,S Africa
Bateg [btq],5,102.5,#E4D7BD,Austroasiatic,Aslian,Southeast Asia-mainland
Bathari [bhm],17.6,56,#6FA7C2,Afro-Asiatic,Modern South Arabian,Greater Mesopotamia
Bati [btc],4.26,11.06,#C0A265,Niger-Kongo,Mbam-Bubi-Jarawan,African Savannah
Batsbi [bbl-2],42.05,45.31,#3581A9,Nakh-Daghestanian,Nakh,Greater Mesopotamia
Batuley [bay],-5.8,134.75,#EEE8DC,Austronesian,Southeast Maluku,Southeast Asia-Island
Bau [bbd],-5.213,145.556,#EEEBE3,Trans New Guinea,Madang,N Coast New Guinea
Baukan_Murut [bnb],5.273,116.519,#EEE8DC,Austronesian,North Borneo,Southeast Asia-Island
Baule [bci],7.5,-5,#AE883C,Niger-Kongo,Kwa,African Savannah
Baure [brg],-15,-64,#CFE1EA,Arawak,Southern Maipuran,NE South America
Bauro [bxa],-10.647,161.858,#EBECE8,Austronesian,Southeast Solomonic,Oceania
Bauzi [bvz],-2.5,137.667,#EDEAE1,Geelvink Bay,Geelvink Bay,Interior New Guinea
Bavarian [bar-2],46.73,12.28,#E8DECA,Indo-European,Germanic,Europe
Bawm [bgr],22.5,92.25,#D3BE93,Tibeto-Burman,Kuki-Chin,Indic
Bayan [duq-2],-0.85,115.39,#E9DFCC,Austronesian,Barito,Southeast Asia-Island
Bayso [bsw],6.28,37.76,#6CA5C1,Afro-Asiatic,East Cushitic,Greater Abyssinia
Bayso-2 [bsw-2],6.456,37.745,#5F9DBC,Afro-Asiatic,East Cushitic,Greater Abyssinia
Bayungu [bxj],-23.3,113.7,#E3EAEC,Pama-Nyungan,Kanyara-Mantharta,S Australia
Bduul [ajp-6],30.33,35.44,#2A79A4,Afro-Asiatic,Arabic,Greater Mesopotamia
Beary [xxx-108],12.605,75.01,#E1D3B5,Dravidian,South Dravidian,Indic
Bebeli [bek],-5.63,150.32,#E7DDC7,Austronesian,North New Guinea,N Coast New Guinea
Bedamini [beo],-6.321,142.489,#E9DFCB,Trans New Guinea,Bosavi,Interior New Guinea
Bedayuh [bth],1.01,110.51,#E4D7BD,Austronesian,Land Dayak,Southeast Asia-Island
Bedik [tnr],12.75,-12.467,#AE883C,Niger-Kongo,North-Central Atlantic,African Savannah
Bediondo [bjv],10.203,17,#BA9A58,Nilo-Saharan,Sara-Bongo-Bagirmi,African Savannah
Befang [bby-2],6.28,10.04,#DDCDAB,Niger-Kongo,Grassfields,African Savannah
Begak [dbj],5.25,118.833,#E8DEC9,Austronesian,North Borneo,Southeast Asia-Island
Beihai [yue-6],21.47,109.1,#AD873B,Tibeto-Burman,Yue,Southeast Asia-mainland
Beihai_Baihua [yue-55],21.48,109.12,#BD9D5C,Tibeto-Burman,Yue,Southeast Asia-mainland
Beihai_Haibian [yue-59],21.52,109.66,#BE9F5F,Tibeto-Burman,Yue,Southeast Asia-mainland
Beihai_Lianzhou [yue-57],21.66,109.2,#C2A66B,Tibeto-Burman,Yue,Southeast Asia-mainland
Beihai_Tieshangang [yue-56],21.6,109.45,#BD9D5C,Tibeto-Burman,Yue,Southeast Asia-mainland
Beihai_Wa [yue-58],21.455,109.32,#C0A265,Tibeto-Burman,Yue,Southeast Asia-mainland
Beja [bej],18,36,#E7DCC5,Afro-Asiatic,North Cushitic,Greater Abyssinia
Bekati [bei],0.975,109.425,#E7DCC5,Austronesian,Land Dayak,Southeast Asia-Island
Beketan [bkn-3],1.3,114.9,#E6ECEC,Austronesian,North Borneo,Southeast Asia-Island
Bekwarra [bkv],6.74,8.86,#C0A265,Niger-Kongo,Bendic,African Savannah
Bekwil [bkw],1.72,14.65,#E5D9C0,Niger-Kongo,Zone A90,African Savannah
Bela [bxd-2],24.33,98.4,#C2A56A,Tibeto-Burman,Burmish,Southeast Asia-mainland
Belait [beg],4.382,114.462,#E9ECEA,Austronesian,North Borneo,Southeast Asia-Island
Belanda Boor [bxb],6.5,28,#A47A28,Nilo-Saharan,Luo-Burun,African Savannah
Belarussian [bel],54,27,#86B6CD,Indo-European,Slavic,Inner Asia
Belep [yly],-19.75,163.67,#DCCBA8,Austronesian,Southern Oceanic,Oceania
Belhare [byw],27,87.25,#ECEDE6,Tibeto-Burman,Eastern Kiranti,Indic
Beli [blm],6.75,29.75,#97660F,Nilo-Saharan,Sara-Bongo-Bagirmi,African Savannah
Bella Coola [blc],52.5,-126.67,#01417F,Salish,Bella Coola,Alaska-Oregon
Bellona [mnv-2],-11.296,159.79,#EDE7DA,Austronesian,Central Pacific,Oceania
Belneng [glb],9.15,9.51,#B18D42,Afro-Asiatic,West Chadic,African Savannah
Bemal [bmh],-5.234,145.475,#EBECE8,Trans New Guinea,Madang,N Coast New Guinea
Bemba [bem],-11,31,#BE9F61,Niger-Kongo,Zone M40,S Africa
Bembe [bmb],-4,14,#C0A366,Niger-Kongo,Zone D50,S Africa
Ben Tey Dogon [dbt],14.78,-2.94,#A47A28,Dogon,Dogon,African Savannah
Bena [bez],-9.27,35.04,#B99956,Niger-Kongo,Zone G60,S Africa
Bena-Bena [bef],-6.114,145.567,#E6ECEC,Trans New Guinea,Goroka,Interior New Guinea
Bena-Yungur [yun],9.75,12.4,#D4C096,Niger-Kongo,Mbum-Day,African Savannah
Bench [bcq],7,35.75,#DCCBA7,Afro-Asiatic,Omotic,Greater Abyssinia
Bende [bdp],-6,30.5,#B08B40,Niger-Kongo,Zone F10,S Africa
Beng [nhb],7.83,-4.25,#A87F2F,Mande,Eastern Mande,African Savannah
Benga [bng],1.2,9.5,#DCE8ED,Niger-Kongo,Zone A30,S Africa
Bengali [ben],22.5,90,#E6ECEC,Indo-European,Indo-Iranian,Indic
Bengali_Barisal [ben-9],22.7,90.37,#E9ECEA,Indo-European,Indo-Iranian,Indic
Bengali_east [ben-6],24.4,90.28,#E8EDEB,Indo-European,Indo-Iranian,Indic
Bengali_west [ben-7],23.4,89.45,#E5EBED,Indo-European,Indo-Iranian,Indic
Bengni [adi-11],28.66,93.37,#B6944E,Tibeto-Burman,Macro-Tani,Indic
Benuaq [lbx-2],-1.6,115.51,#ECE6D8,Austronesian,Barito,Southeast Asia-Island
Benyadu [byd-2],0.595,109.62,#E7DDC6,Austronesian,Land Dayak,Southeast Asia-Island
Beothuk [bue],48,-55,#D2E3EB,Beothuk,Beothuk,E North America
Bergamasco [ita-17],45.7,9.75,#C2A56A,Indo-European,Romance,Europe
Bergensk [nno],60.39,5.33,#9F721D,Indo-European,Germanic,Europe
Berik [bkl],-2.25,138.92,#5B9BBA,Tor-Kwerba,Tor,N Coast New Guinea
Berlinerisch [deu-4],52.5,13.15,#DCCBA8,Indo-European,Germanic,Europe
Bernese [gsw-3],46.83,7.62,#E7DDC6,Indo-European,Germanic,Europe
Berom [bom-2],9.67,8.81,#BB9B5A,Niger-Kongo,Plateau,African Savannah
Berrichon [fra-17],47.08,2.38,#C1A467,Indo-European,Romance,Europe
Berta [wti],10.67,34.5,#DECEAE,Nilo-Saharan,Berta,Greater Abyssinia
Berta_Beleje Gonfoye [wti-7],10.65,35.15,#D8C6A1,Nilo-Saharan,Berta,Greater Abyssinia
Berta_Fadashi [wti-5],9.75,34.73,#E1D2B5,Nilo-Saharan,Berta,Greater Abyssinia
Berta_Maiyu [wti-2],10.56,34.29,#E0D1B2,Nilo-Saharan,Berta,Greater Abyssinia
Berta_Metehara [wti-3],9.14,40,#E1D2B5,Nilo-Saharan,Berta,Greater Abyssinia
Berta_Undulu [wti-4],10.2,34.83,#E1D2B5,Nilo-Saharan,Berta,Greater Abyssinia
Berta_Wabosh [wti-6],8.9,38.65,#D8C6A1,Nilo-Saharan,Berta,Greater Abyssinia
Besemah [pse],-4.2,103,#EDECE5,Austronesian,Malayic,Southeast Asia-Island
Beserrman [udm-2],58.02,52.15,#ECEDE6,Uralic,Permic,Inner Asia
Bésiro [cax-2],-16.6375,-61.9271,#EDECE5,Arawak,Southern Maipuran,NE South America
Besoa [bep],-1.599,120.379,#DBC9A6,Austronesian,Celebic,Southeast Asia-Island
Betawi [bew],-6.21,107.02,#CCB481,Austronesian,Malayic,Southeast Asia-Island
Bete [byf],7.05,9.748,#CFB889,Niger-Kongo,Jukkunoid,African Savannah
Betoi [xxx-121],7.22,-71.42,#DEE9EC,Betoi-Jirara,Betoi-Jirara,Andean
Betta Kurumba [xub],11.58,76.55,#EEEBE3,Dravidian,South Dravidian,Indic
Bewani [pgi],-3.024,141.167,#E4D7BD,Trans New Guinea,Border,N Coast New Guinea
Bezhta [kap],42.133,46.128,#478DB1,Nakh-Daghestanian,Tsezic,Greater Mesopotamia
Bhadarwahi [cih-2],32.99,75.7,#E9ECEA,Indo-European,Indo-Iranian,Indic
Bhaderwahi [bhd-2],32.98,75.71,#ECEDE6,Indo-European,Indo-Iranian,Indic
Bhaṭe-sa zib [xxx-109],34.94,72.88,#8EBBD0,Indo-European,Indo-Iranian,Indic
Bhatibari [ben-4],26.48,89.54,#EAEDE9,Indo-European,Indo-Iranian,Indic
Bhele [bhy-2],0.25,28.67,#BA9A59,Niger-Kongo,Zone S40,S Africa
Bhili [bhb],22,73,#DBE7ED,Indo-European,Indo-Iranian,Indic
Bhili_Ahiri [bhb-7],26.135,77.32,#DAE7ED,Indo-European,Indo-Iranian,Indic
Bhili_Chodri [cdi],20.88,73.53,#D7E6EC,Indo-European,Indo-Iranian,Indic
Bhili_Dang [bhb-2],20.76,73.69,#E5EBED,Indo-European,Indo-Iranian,Indic
Bhili_Dehawali [vas],21.36,73.87,#D7E6EC,Indo-European,Indo-Iranian,Indic
Bhili_Dhar [bhb-6],22.6,75.3,#E8EDEB,Indo-European,Indo-Iranian,Indic
Bhili_Kotra [gra],23.1,77.49,#E0EAED,Indo-European,Indo-Iranian,Indic
Bhili_Magri [bhb-4],23.2,74.45,#EEEBE2,Indo-European,Indo-Iranian,Indic
Bhili_Mahikantha [bhb-3],24.17,72.44,#D8E6EC,Indo-European,Indo-Iranian,Indic
Bhili_Mahikantha [bhb-8],23.83,72.5,#ECEDE7,Indo-European,Indo-Iranian,Indic
Bhili_Mawchi [mke],21.57,74,#DAE7ED,Indo-European,Indo-Iranian,Indic
Bhili_Panchali [bhb-11],20.5,76.15,#E0EAED,Indo-European,Indo-Iranian,Indic
Bhili_Rajpipla [bhb-9],21.87,73.5,#DEE9EC,Indo-European,Indo-Iranian,Indic
Bhili_Rani [bhb-10],25.37,73.3,#D7E6EC,Indo-European,Indo-Iranian,Indic
Bhili_Ratlam [bhb-5],23.33,75.04,#EBECE8,Indo-European,Indo-Iranian,Indic
Bhoi-Khasi [kha-5],25.9,91.88,#EDEAE1,Austroasiatic,Khasian,Indic
Bhojpuri [bho],26.8,85.3,#E0EAED,Indo-European,Indo-Iranian,Indic
Bhojpuri_Nagpuria [bho-3],23.36,85.33,#E5EBED,Indo-European,Indo-Iranian,Indic
Bhojpuri_Northern [bho-2],26.76,83.37,#E5EBED,Indo-European,Indo-Iranian,Indic
Bhojpuri_Western [bho-4],25.32,83.01,#E2EAEC,Indo-European,Indo-Iranian,Indic
Bhumij [muw],21.333,86.5,#ECEDE6,Austroasiatic,Munda,Indic
Biafada [bif],11.47,-15.13,#C6AB72,Niger-Kongo,North-Central Atlantic,African Savannah
Biage [bdf],-9.158,147.664,#ECE6D8,Southeast Papuan,Koiarian,S New Guinea
Biak [bhw],-1.14,136,#ECE5D5,Austronesian,South Halmahera-West New Guinea,N Coast New Guinea
Biak-west [bhw-2],-0.835,135.59,#C5AA71,Austronesian,South Halmahera-West New Guinea,N Coast New Guinea
Biaka [axk-2],3.65,17.27,#C8AF7A,Niger-Kongo,Zone D50,S Africa
Biali [beh-2],11.03,1.09,#C8AF7A,Niger-Kongo,Gur,African Savannah
Bian_Marind [bpv],-7.222,140.548,#E1D2B4,Anim,Marind-Yaqay,S New Guinea
Biangai [big],-7.33,146.75,#EDEAE1,Trans New Guinea,Goilala,Interior New Guinea
Biao [byk-3],23.9,112.2,#A47A27,Tai-Kadai,Biaoic,Southeast Asia-mainland
Biao_Chang'an [byk],29.48,113.46,#94620B,Tai-Kadai,Biaoic,Southeast Asia-mainland
Biao_Dagang [byk-2],23.81,112.135,#A88030,Tai-Kadai,Biaoic,Southeast Asia-mainland
Biao_Yonggu [byk],23.72,112.07,#A88030,Tai-Kadai,Biaoic,Southeast Asia-mainland
Biaomin Yao [bmt],23.6,111.75,#B39048,Hmong-Mien,Mienic,Southeast Asia-mainland
Biatah [bth-2],1.264,110.32,#DCCCA9,Austronesian,Land Dayak,Southeast Asia-Island
Bidiya [bid],11.92,18.81,#D4BF95,Afro-Asiatic,East Chadic,African Savannah
Bidjara [bym],-24.5,146.592,#EBECE8,Pama-Nyungan,Greater Maric,S Australia
Bierebo [bnk],-16.667,168.131,#C2DAE6,Austronesian,Southern Oceanic,Oceania
Bieria [brj],-16.807,168.194,#E4D8BE,Austronesian,Southern Oceanic,Oceania
Bifang [bby-3],6.28,10.03,#EBECE8,Niger-Kongo,Grassfields,African Savannah
Bih [rad],12.48,108.025,#CCB380,Austronesian,Nuclear Chamic,Southeast Asia-mainland
Bijago [bjg],11.28,-15.83,#B6944D,Niger-Kongo,Central Atlantic,African Savannah
Bijago_Orango [bjg-2],11.034,-16.146,#CCB481,Niger-Kongo,Central Atlantic,African Savannah
Bikele [biw-2],3.67,12.85,#B18D42,Niger-Kongo,Zone A90,African Savannah
Bikol [bcl],13.333,123.5,#E7EDEB,Austronesian,Philippines,Southeast Asia-Island
Bikol_Iriga [bcl-3],13.39,123.33,#E9ECEA,Austronesian,Philippines,Southeast Asia-Island
Bikol_Naga [bcl-4],13.62,123.17,#EEEBE2,Austronesian,Philippines,Southeast Asia-Island
Biksi [yet],-4.013,140.494,#D3BE92,Yetfa-Biksi,Yetfa-Biksi,Interior New Guinea
Bila [bip],1.17,28.76,#A37824,Niger-Kongo,Zone D30,S Africa
Bilba [bpz],-10.67,123.34,#E7DDC6,Austronesian,Southeast Maluku,Southeast Asia-Island
Bilbil [brz],-5.26,145.76,#EDE6D7,Austronesian,North New Guinea,N Coast New Guinea
Biliau [bcu-2],-5.65,146.3,#EDE9DE,Austronesian,North New Guinea,N Coast New Guinea
Bilin [byn],15.9,38.3,#EBECE8,Afro-Asiatic,Central Cushitic,Greater Abyssinia
Bilinara [nbj],-16,131.667,#E2EBEC,Pama-Nyungan,Ngumbin-Yapa,N Australia
Biloxi [bll],32.25,-90,#EBE3D1,Siouan,Ohio Valley Siouan,E North America
Bilua [blb],-7.75,156.667,#E4D7BD,Solomons East Papuan,Solomons East Papuan,Oceania
Bima [bhp],-8.545,118.677,#E4D7BD,Austronesian,Bima-Lembata,Southeast Asia-Island
Bima_Kolo [bhp-3],-8.32,118.76,#ECEDE7,Austronesian,Bima-Lembata,Southeast Asia-Island
Bimin [bhl],-5.43,141.942,#D6C29B,Trans New Guinea,Ok,Interior New Guinea
Bimoba [bim],10.46,0.06,#AD873A,Niger-Kongo,Gur,African Savannah
Bina [bmn],-10.249,149.683,#EDEAE1,Austronesian,Papuan Tip,S New Guinea
Binandere [bhg],-8.167,147.917,#DCCCA9,Trans New Guinea,Binanderean,S New Guinea
Binbinga [wmb-2],-16.17,135,#DBE7ED,Mirndi,Ngurlun,N Australia
Bine [bon],-9.05,142.884,#D6C39C,Eastern Trans Fly,Eastern Trans Fly,S New Guinea
Bini_Edo [bin],6.42,5.83,#C3A76D,Niger-Kongo,Edoid,African Savannah
Bini-2 [bin-2],6.41,5.7,#CEB686,Niger-Kongo,Edoid,African Savannah
Binigura [pnv],-22.488,116.506,#E6ECEC,Pama-Nyungan,Kanyara-Mantharta,S Australia
Bininj Gun-Wok [gup],-12.5,133.75,#E5EBED,Macro-Gunwinygu,Gunwingyuan proper,N Australia
Bintan Orang Laut [zlm-14],1.077,104.5,#C3A76D,Austronesian,Malayic,Southeast Asia-Island
Bintauna [bne],0.75,123.49,#EEE8DB,Austronesian,Philippines,Southeast Asia-Island
Bintulu [bny],3.83,113.67,#EDE6D6,Austronesian,North Borneo,Southeast Asia-Island
Binukid [bkd],8.3,125,#E2EBEC,Austronesian,Philippines,Southeast Asia-Island
Binumarien [bjr],-6.25,146.08,#C6AB73,Trans New Guinea,Kainantu,N Coast New Guinea
Binyang [cmn-54],23.22,108.82,#B49149,Tibeto-Burman,North Sinitic,Southeast Asia-mainland
Bipi [biq],-2.109,146.4,#EEEBE3,Austronesian,Admiralties,N Coast New Guinea
Bira [brf-2],1.6,30.13,#B38F46,Niger-Kongo,Zone D30,S Africa
Bira [brf],1.5,30.03,#CDB583,Niger-Kongo,,S Africa
Birao [brr],-9.746,160.515,#EDECE5,Austronesian,Southeast Solomonic,Oceania
Birgid [btf],13,27,#C3A76E,Afro-Asiatic,East Chadic,African Savannah
Biri [bvi],7.55,6.233,#CDB583,Ubangian,Ubangian,African Savannah
Biri [bzr],-20.5,146.5,#E7EDEB,Pama-Nyungan,Greater Maric,S Australia
Birifor [biv],9.29,-2.73,#D5C198,Niger-Kongo,Gur,African Savannah
Biritai [bqq],-3,137.6,#B28E45,Lakes Plains,Tariku,Interior New Guinea
Birom [bom],9.67,8.83,#C1A468,Niger-Kongo,Plateau,African Savannah
Birriya [xpa-2],-24.5,143.5,#E6ECEC,Pama-Nyungan,Pirriya-Kungkari,S Australia
Bisa [bib],11.783,0.366,#AB8435,Mande,Eastern Mande,African Savannah
Bisayah_Sarawak [bsb],5.33,115.5,#D9C7A2,Austronesian,North Borneo,Southeast Asia-Island
Bishnupriya [bpy],24.8,93.12,#DFEAED,Indo-European,Indo-Iranian,Indic
Bisiacco [vec-2],45.95,12.45,#D9C7A2,Indo-European,Romance,Europe
Bissa [bib-2],10.43,-1.67,#AD873A,Mande,Eastern Mande,African Savannah
Bisu [bii],19.75,100,#D7C49E,Tibeto-Burman,Hani-Jino,Southeast Asia-mainland
Bitur [mcc],-8.52,142.71,#EDE9DE,Anim,Tirio,S New Guinea
Biya [mij-6],6.615,10.18,#A98131,Niger-Kongo,Beboid,African Savannah
Biyo [byo],22.51,101.65,#B89651,Tibeto-Burman,Southern Loloish,Southeast Asia-mainland
Bizkaian [eus-6],43.25,-2.98,#8EBAD0,Basque,Basque,Europe
Bjokapakha [tsj-3],26.965,91.05,#E2D4B8,Tibeto-Burman,East Bodish,Indic
Bjokapakha-2 [tsj-4],26.965,91.045,#CEB788,Tibeto-Burman,East Bodish,Indic
Blablanga [blp],-8.17,159.42,#D2E3EB,Austronesian,Meso-Melanesian,Oceania
Blablanga_Ghove [blp-2],-8.33,159.5,#C5DBE6,Austronesian,Meso-Melanesian,Oceania
Black Lahu [lhu-4],20.355,99.77,#B79550,Tibeto-Burman,Central Loloish,Southeast Asia-mainland
Black Lahu_Huey Tat [lhu-6],19.29,99.01,#C1A467,Tibeto-Burman,Central Loloish,Southeast Asia-mainland
Black Lahu_Menglangba [lhu-7],22.56,99.93,#C5AA71,Tibeto-Burman,Central Loloish,Southeast Asia-mainland
Black_Tai [blt-2],19.75,105,#B28E45,Tai-Kadai,Black Tai,Southeast Asia-mainland
Blackfoot [bla],50,-112.67,#C3DAE6,Algic,Algonquian,Basin and Plains
Blagar [beu],-8.33,124.25,#E7DCC5,Timor-Alor-Pantar,Alor,Southeast Asia-Island
Blang [blr],23.3,100,#B4914A,Austroasiatic,Palaungic,Southeast Asia-mainland
Boano [bzl],0.51,120.99,#EEEBE3,Austronesian,Celebic,Southeast Asia-Island
Boano [bzn],-2.96,127.95,#EDE9DF,Austronesian,Central Maluku,Southeast Asia-Island
Boazi [kvg],-7,141.25,#DDCDAD,Anim,Boazi,S New Guinea
Boazi_Kuni [kvg-2],-6.913,141.326,#D5C199,Anim,Boazi,S New Guinea
Bobangi [bni],-0.1,17.7,#CAB17E,Niger-Kongo,Zone C30,S Africa
Bobangi-2 [bni-3],0.05,17.75,#A0731E,Niger-Kongo,Zone C30,S Africa
Bobo_Madare_North [bbo-2],12.42,-4.48,#AD8739,Mande,Western Mande,African Savannah
Bobo_Madare_South [bwq],11.54,-4.26,#A98131,Mande,Western Mande,African Savannah
Bobo_Tansila [bbo-3],12.43,-4.38,#BC9C5B,Mande,Western Mande,African Savannah
Bobo-Fing [bbo],11.83,-4.42,#9C6D17,Mande,Western Mande,African Savannah
Bobongko [bgb],-0.5,121.75,#EDE7DA,Austronesian,Celebic,Southeast Asia-Island
Bobot [bty],-3.33,130.17,#EEEBE2,Austronesian,Central Maluku,Southeast Asia-Island
Bocota [sab],9.34,-82.24,#BA9A57,Chibchan,Isthmic Chibchan,Mesoamerica
Bogaya [boq],-5.621,142.231,#EEE8DC,Trans New Guinea,Duna-Bogaya,Interior New Guinea
Bohemian [ces-3],50,13,#5597B7,Indo-European,Slavic,Europe
Boholano [ceb-2],9.9,124.2,#BAD5E2,Austronesian,Philippines,Southeast Asia-Island
Bohutu [bxh],-10.5,150.33,#4F92B5,Austronesian,Papuan Tip,S New Guinea
Boiken [bzf],-3.525,143.415,#ECE6D7,Ndu,Boiken,N Coast New Guinea
Bokala [lin-2],4.57,19.02,#A47A28,Niger-Kongo,Zone C30,S Africa
Bokar [adi-2],29,94.35,#B6944D,Tibeto-Burman,Macro-Tani,Indic
Boko [bkp],10.52,3.72,#CBB27F,Mande,Eastern Mande,African Savannah
Bokyi [bky],6.1,9.06,#B99956,Niger-Kongo,Bendic,African Savannah
Bola [bnp],-5.5,150,#E9DFCB,Austronesian,Meso-Melanesian,N Coast New Guinea
Bola [bxd-3],24.45,98.6,#BA9A59,Tibeto-Burman,Burmish,Southeast Asia-mainland
Bolaang-Mongondow [mog],0.55,124,#EDE9DF,Austronesian,Philippines,Southeast Asia-Island
Bolano [bzl-2],0.52,121,#EDE7DA,Austronesian,Celebic,Southeast Asia-Island
Bole [bol],11.007,10.747,#D4C095,Afro-Asiatic,West Chadic,African Savannah
Bolgo [bvo-2],10.9,18.81,#A0731E,Niger-Kongo,Mbum-Day,African Savannah
Bolgo_Dugag [bvo],10.79,18.61,#9B6C16,Niger-Kongo,Mbum-Day,African Savannah
Bolinao [smk],16.341,119.893,#ECE5D5,Austronesian,Philippines,Southeast Asia-Island
Bologna [ita-4],44.51,11.35,#D1BC8F,Indo-European,Romance,Europe
Boloki [bkt],0.7,18.3,#A47926,Niger-Kongo,Zone C30,S Africa
Bolongo [lol-24],-2.2,20.7,#A88030,Niger-Kongo,Zone C30,S Africa
Bolyu [ply],24.78,105.35,#C6AB73,Austroasiatic,Mangic,Southeast Asia-mainland
Bom [bmf],9.28,-11.6,#D1BC90,Niger-Kongo,Mel,African Savannah
Boma [boh],2.5,15.6,#C3A76E,Niger-Kongo,Zone B80,African Savannah
Bomitaba [zmx],1.701,17.371,#BFA164,Niger-Kongo,Zone D50,S Africa
Bomitaba-2 [zmx-2],1.7,17.37,#CFB889,Niger-Kongo,Zone D50,S Africa
Bonan [peh-6],35.7,103,#D0E2EA,Mongolic,Mongolic,Inner Asia
Bonda [bfw-2],19,82.75,#E6ECEC,Austroasiatic,Munda,Indic
Bondei [bou],-5.082,38.432,#EDECE5,Niger-Kongo,Zone G20,S Africa
Bonerate [bna],-7.38,121.79,#E9E0CD,Austronesian,Celebic,Southeast Asia-Island
Bongaigaon [asm-4],26.48,90.56,#B39048,Indo-European,Indo-Iranian,Indic
Bonggi [bdg],7.3,117.2,#DECFAF,Austronesian,North Borneo,Southeast Asia-Island
Bonggo [bpg],-2.28,139.6,#E8DECA,Austronesian,North New Guinea,N Coast New Guinea
Bongili [bui-2],0.37,16.61,#C9B07D,Niger-Kongo,Zone D50,S Africa
Bongili [bui],1.61,16.05,#B08B3F,Niger-Kongo,Zone D50,S Africa
Bongo [bot],7.5,28,#B4914A,Nilo-Saharan,Sara-Bongo-Bagirmi,African Savannah
Boni [bob],0.5,43,#AECEDD,Afro-Asiatic,East Cushitic,Greater Abyssinia
Bonifacino [lij-3],41.39,9.16,#ECE6D7,Indo-European,Romance,Europe
Bontoc_Guinaang [bnc-2],17.08,120.9,#EEEBE3,Austronesian,Northern Luzon,Southeast Asia-Island
Bontok [bnc],17.083,120.917,#EDEAE1,Austronesian,Northern Luzon,Southeast Asia-Island
Bor [bvf],5.605,27.472,#D2BD92,Afro-Asiatic,East Chadic,African Savannah
Bora [boa],-2.25,-71.75,#C9DEE8,Boran,Bora,NE South America
Bori [adi-5],28.2,94.6,#B28E44,Tibeto-Burman,Macro-Tani,Indic
Bormiese [ita-16],46.47,10.375,#D7C59F,Indo-European,Romance,Europe
Bornholmsk [scy],55,15,#D7C59F,Indo-European,Germanic,Europe
Boro [brx],26.75,92,#A17521,Tibeto-Burman,Bodo-Garo,Indic
Boro-Shinasha [bwo],10.66,35.34,#B7954F,Afro-Asiatic,North Omotic,Greater Abyssinia
Borong Kosorong [ksr],-6.534,147.502,#E5D9BF,Trans New Guinea,Finisterre-Huon,N Coast New Guinea
Boróro [bor],-15,-52,#EAE1CE,Macro-Je,Bororo,NE South America
Bororo-2 [bor-2],-16.6,-55.2,#E8DECA,Macro-Je,Bororo,NE South America
Boruca [brn],9.001,-83.325,#CDB585,Chibchan,Isthmic Chibchan,Mesoamerica
Bosaka-Nkole [lol-17],-0.8,22.25,#9E701B,Niger-Kongo,Zone C30,S Africa
Bosanga [lol-21],-0.25,20.5,#A17521,Niger-Kongo,Zone C30,S Africa
Bosavi [bco-2],-6.425,142.765,#EBE3D1,Trans New Guinea,Bosavi,Interior New Guinea
Bosnian [bos],44,18,#74AAC5,Indo-European,Slavic,Europe
Botin_Samban [kbx-2],-4.33,144.17,#EDE6D7,ApMa,ApMa,N Coast New Guinea
Botlikh [bph],42.66,46.22,#3380A8,Nakh-Daghestanian,Avar-Andi,Greater Mesopotamia
Bourbonnais [fra-11],46.57,3.33,#BD9E5D,Indo-European,Romance,Europe
Bouyei [pcc-5],25.817,107.55,#C5AA71,Tai-Kadai,Northern Tai,Southeast Asia-mainland
Bouyei_Changshun Duncao [pcc-9],25.9,106.5,#C0A366,Tai-Kadai,Northern Tai,Southeast Asia-mainland
Bouyei_Dushan Huanghou [pcc-11],25.4,107.6,#B6934C,Tai-Kadai,Northern Tai,Southeast Asia-mainland
Bouyei_Guiding Houchang [pcc-13],26.4,107,#B38F46,Tai-Kadai,Northern Tai,Southeast Asia-mainland
Bouyei_Huishui Yashui [pcc-12],26,106.9,#B38F46,Tai-Kadai,Northern Tai,Southeast Asia-mainland
Bouyei_Libo Fucun [pcc-10],25.3,108,#B18C41,Tai-Kadai,Northern Tai,Southeast Asia-mainland
Bouyei_Luodian Bamao [pcc-8],25.3,106.95,#BA9A57,Tai-Kadai,Northern Tai,Southeast Asia-mainland
Bouyei_Luodian Luokun [pcc-7],25.25,106.7,#B99855,Tai-Kadai,Northern Tai,Southeast Asia-mainland
Bouyei_Pingtang Sizhai [pcc-14],25.65,107.4,#B18C41,Tai-Kadai,Northern Tai,Southeast Asia-mainland
Bouyei_Sandu Zhouqin [pcc-15],25.7,107.9,#C1A467,Tai-Kadai,Northern Tai,Southeast Asia-mainland
Bouyei_west [pcc-2],25.75,107.333,#BA9A59,Tai-Kadai,Northern Tai,Southeast Asia-mainland
Boyela [yel],-2.46,22.59,#BFA164,Niger-Kongo,Zone C80,S Africa
Boze [jer-2],10.2,8.96,#A57B29,Niger-Kongo,Kainji,African Savannah
Brabants [nld-3],50.75,4.65,#CDB583,Indo-European,Germanic,Europe
Brag-g.yab [khg-2],30.65,97.55,#E0D1B2,Tibeto-Burman,Tibetan,Inner Asia
Brahui (Jahlawān) [brh-4],25.81,66.49,#5E9CBB,Dravidian,North Dravidian,Indic
Brahui [brh],29,67,#609EBD,Dravidian,North Dravidian,Indic
Brahui_Jahlawan [brh-3],25.79,66.51,#599ABA,Dravidian,North Dravidian,Indic
Brahui_Sarawan [brh-2],29,66.6,#65A1BE,Dravidian,North Dravidian,Indic
Brajbhasha [bra],27.49,77.67,#E0EAED,Indo-European,Indo-Iranian,Indic
Brao [brb],14,107.001,#E4D8BE,Austroasiatic,Bahnaric,Southeast Asia-mainland
Brao_Krung [brb-2],13.8,107,#EDE9DE,Austroasiatic,Bahnaric,Southeast Asia-mainland
Breton [bre],47.65,-2.75,#EEE8DB,Indo-European,Brythonic,Europe
Breton_Grand Lorient [bre-6],47.75,-3.36,#ECE6D8,Indo-European,Brythonic,Europe
Breton_Kerneveg [bre-2],48,-4.1,#EEEBE2,Indo-European,Brythonic,Europe
Breton_Leoneg [bre-3],48.6,-4.3,#EAEDE9,Indo-European,Brythonic,Europe
Breton_Plozevet [bre-5],47.99,-4.42,#EBE3D1,Indo-European,Brythonic,Europe
Breton_Tregiereg [bre-4],48.5,-3.125,#EEEBE2,Indo-European,Brythonic,Europe
Bribri [bzd],9.5,-83,#C4A86E,Chibchan,Isthmic Chibchan,Mesoamerica
Brinken [zmd],-14.05,130.08,#E7EDEB,Western Daly,Western Daly,N Australia
Brokpa [sgt],27.33,92,#D6C29A,Tibeto-Burman,Tibetan,Indic
Brønnøy [nob-8],65.48,12.4,#C6AB73,Indo-European,Germanic,Europe
Bru_Khok Sa-at [brv],17.25,103.75,#C8AE78,Austroasiatic,Katuic,Southeast Asia-mainland
Bru_Western [brv-2],16.75,104.75,#CDB583,Austroasiatic,Katuic,Southeast Asia-mainland
Brugge [vls-3],51.22,3.23,#CFB889,Indo-European,Germanic,Europe
Bruu [bru],17.167,104.333,#AB8435,Austroasiatic,Katuic,Southeast Asia-mainland
Bu [jid],9.05,8.66,#AD873A,Niger-Kongo,Plateau,African Savannah
Buamu [box],11.17,-3.5,#C0A366,Niger-Kongo,Gur,African Savannah
Buang_Central [bzh],-6.855,146.774,#BCD6E3,Austronesian,North New Guinea,Interior New Guinea
Bube [bvb],3.5,8.7,#C8AF7A,Niger-Kongo,Mbam-Bubi-Jarawan,S Africa
Bubia [bbx-2],4.02,9.22,#BD9D5C,Niger-Kongo,Zone A20,African Savannah
Budong-bundong [bdx],-2.171,119.328,#EDE9DF,Austronesian,Greater South Sulawesi,Southeast Asia-Island
Budu [buu],2.01,27.95,#BD9E5E,Niger-Kongo,Zone D30,S Africa
Budu-2 [buu-3],2.011,27.949,#B7954F,Niger-Kongo,Zone D30,S Africa
Buduma [bdm],13.6,14,#C0A366,Afro-Asiatic,Biu-Mandara,African Savannah
Budux [bdk],41.19,48.37,#5E9CBB,Nakh-Daghestanian,Lezgic,Greater Mesopotamia
Bugan [bbh],23.75,105,#C3A76E,Austroasiatic,Mangic,Southeast Asia-mainland
Bugan_Nala [bbh-2],23.487,105.15,#C2A66C,Austroasiatic,Mangic,Southeast Asia-mainland
Bughotu [bgt],-8.478,159.808,#EAEDE9,Austronesian,Southeast Solomonic,Oceania
Bugis [bug],-4,120,#E3D5BA,Austronesian,Greater South Sulawesi,Southeast Asia-Island
Bugun [bgn],27.3,92.35,#D6C29A,Tibeto-Burman,Kho-Bwa,Indic
Buhid [bku],12.574,121.25,#EDE9DE,Austronesian,Philippines,Southeast Asia-Island
Buin [buo],-6.75,155.833,#C7AD77,South Bougainville,Buin,Oceania
Buja-Yambuli [bja-2],2.5,22.5,#B08B40,Niger-Kongo,Zone C30,S Africa
Bukar_Sadong [sdo],0.97,110.66,#D4BF95,Austronesian,Land Dayak,Southeast Asia-Island
Bukat [bvk],1.29,113.25,#EBECE8,Austronesian,North Borneo,Southeast Asia-Island
Bukawa [buk],-6.732,147.359,#D0BA8D,Austronesian,North New Guinea,N Coast New Guinea
Buket [bvk-2],0.8,112.6,#E7DCC5,Austronesian,North Borneo,Southeast Asia-Island
Bukhari [bhh-2],39.79,64.45,#9FC4D7,Indo-European,Indo-Iranian,Inner Asia
Bukit [bvu],-2.75,115.64,#EEEBE2,Austronesian,Malayic,Southeast Asia-Island
Bukitan [bkn],2.35,114.89,#EEE8DC,Austronesian,North Borneo,Southeast Asia-Island
Bukiyip_Arapesh [ape],-3.667,142.5,#D0BA8C,Torricelli,Kombio-Arapesh,N Coast New Guinea
Bukusu [bxk],1.02,35,#EDE7DA,Niger-Kongo,Zone E30,S Africa
Bularnu [yil],-21.5,137.5,#E9ECEA,Pama-Nyungan,Warluwaric,S Australia
Bulgarian [bul],43,25,#8FBBD0,Indo-European,Slavic,Europe
Bulgarian_Banat [bul-6],45.7,20.9,#D6E5EB,Indo-European,Slavic,Europe
Bulgarian_Boboshevo [bul-4],42.15,23,#71A8C3,Indo-European,Slavic,Europe
Bulgarian_Erkech [bul-5],42.84,27.58,#7FB1C9,Indo-European,Slavic,Europe
Bulgarian_Gabare [bul-8],43.316,21.92,#7AAEC8,Indo-European,Slavic,Europe
Bulgarian_Lovec [bul-9],43.14,24.71,#91BDD1,Indo-European,Slavic,Europe
Bulgarian_Moesian [bul-3],42.7,27.75,#E8EDEB,Indo-European,Slavic,Europe
Bulgarian_Momchilovci [bul-10],41.66,24.77,#95BED3,Indo-European,Slavic,Europe
Bulgarian_North-west [bul-7],43.6,23.18,#95BED3,Indo-European,Slavic,Europe
Bulgarian_Nova Nadezda [bul-11],42.02,25.72,#6FA7C2,Indo-European,Slavic,Europe
Buli [bzq],0.833,128.5,#EDE6D6,Austronesian,South Halmahera-West New Guinea,Southeast Asia-Island
Bulu [bjl],-5.06,150.1,#EBE3D2,Austronesian,Meso-Melanesian,N Coast New Guinea
Bulu [bum],2.917,11.15,#C8AF7A,Niger-Kongo,Zone A70,African Savannah
Bulungan [bdb-2],0.89,117.58,#E1D3B5,Austronesian,Basap,Southeast Asia-Island
Bulusu [bqr],3,116,#EAE1CE,Austronesian,North Borneo,Southeast Asia-Island
Bum [bmv],6.49,10.42,#C7AC75,Niger-Kongo,Grassfields,African Savannah
Buma [tkw-2],-11.615,166.966,#EDEAE1,Austronesian,Te Motu,Oceania
Buma [yns-2],-3.33,17.5,#C8AF7A,Niger-Kongo,Zone H30,S Africa
Bumang [bvp],22.5,96.5,#AC8637,Austroasiatic,Palaungic,Southeast Asia-mainland
Bumbita_Arapesh [aon],-3.667,142.833,#ECEDE7,Torricelli,Kombio-Arapesh,N Coast New Guinea
Bumthang [kjz],27.802,90.8,#CFB889,Tibeto-Burman,East Bodish,Indic
Bumthang_Ura [kjz-2],27.48,90.905,#94620B,Tibeto-Burman,East Bodish,Indic
Bunama [bdd],-10.064,151.075,#BDD7E3,Austronesian,Papuan Tip,S New Guinea
Bunan [bfu],32.61,76.91,#D6C39C,Tibeto-Burman,Western Himalayan,Indic
Bunaq [bfn],-9.1,125.15,#DECFAF,Timor-Alor-Pantar,Bunaq,Southeast Asia-Island
Bunaq_Lolotoen [bfn-2],-9.161,125.26,#E0D1B3,Timor-Alor-Pantar,Bunaq,Southeast Asia-Island
Bunaq_South [bfn-3],-9.227,125.393,#E5D9C0,Timor-Alor-Pantar,Bunaq,Southeast Asia-Island
Bundeli [bns],23.18,79.95,#E5EBED,Indo-European,Indo-Iranian,Indic
Bunganditj [xbg],-36.5,141,#E2EAEC,Pama-Nyungan,Kulinic,S Australia
Bungku [bkz],-3,122.33,#E2D4B7,Austronesian,Celebic,Southeast Asia-Island
Bungku_Tulambatu [bkz-2],-3.17,122.12,#E6DAC2,Austronesian,Celebic,Southeast Asia-Island
Bungu [wun],-8.33,32.88,#A77E2D,Niger-Kongo,Zone F20,S Africa
Bunoge Dogon [dgb],14.43,-3.49,#986811,Dogon,Dogon,African Savannah
Bunong [cmo],12.63,107.3,#E1D2B5,Austroasiatic,Bahnaric,Southeast Asia-mainland
Bunu [buh],25.5,108.7,#BC9C5B,Hmong-Mien,Hmongic,Southeast Asia-mainland
Bunu_Dahua [buh-4],23.74,107.99,#B6944D,Hmong-Mien,Hmongic,Southeast Asia-mainland
Bunu_Dongnu [bwx],23.88,108.08,#BA9A59,Hmong-Mien,Hmongic,Southeast Asia-mainland
Bunu_Nunu [bwx-2],23.799,110.178,#B99855,Hmong-Mien,Hmongic,Southeast Asia-mainland
Bunuba [bck],-17.75,125.75,#EBECE8,Bunuban,Bunuban,N Australia
Bunun [bnn],23.5,121,#D7E6EC,Austronesian,Bunun,Southeast Asia-Island
Bunun_Isbukun [bnn-2],23.459,121.056,#85B5CC,Austronesian,Bunun,Southeast Asia-Island
Buol [blf],1,121.5,#EDE7DA,Austronesian,Philippines,Southeast Asia-Island
Bura [bwr],10.611,12.195,#EBECE8,Afro-Asiatic,Biu-Mandara,African Savannah
Burak [bys],9.49,11.07,#AB8435,Niger-Kongo,Mbum-Day,African Savannah
Burarra [bvr],-12.25,134.667,#EEEBE3,Macro-Gunwinygu,Burarra,N Australia
Burji [bji],5.5,37.9,#8FBBD0,Afro-Asiatic,East Cushitic,Greater Abyssinia
Burmbar [vrt],-16.372,167.749,#DCCCA9,Austronesian,Southern Oceanic,Oceania
Burmese [mya],20,96,#BA9A59,Tibeto-Burman,Burmish,Southeast Asia-mainland
Burmese_Arakan [rki],20.14,92.9,#C5AA71,Tibeto-Burman,Burmish,Indic
Burmese_Intha [int],20.55,96.92,#BFA062,Tibeto-Burman,Burmish,Southeast Asia-mainland
Burmese_Myeik [tvn],12.43,98.6,#BC9C5B,Tibeto-Burman,Burmish,Southeast Asia-mainland
Burmese_Palaw [tvn-3],13.12,98.68,#BC9C5B,Tibeto-Burman,Burmish,Southeast Asia-mainland
Burmese_Tavoyan [tvn-2],14.08,98.2,#BA9A59,Tibeto-Burman,Burmish,Southeast Asia-mainland
Burmeso [bzu],-2.447,138.209,#DDE9EC,Burmeso,Burmeso,Interior New Guinea
Buru [mhs],-3.7,126.4,#EDE7DA,Austronesian,Central Maluku,Southeast Asia-Island
Burum [bmu],-6.484,147.311,#D2E3EB,Trans New Guinea,Finisterre-Huon,N Coast New Guinea
Burum_Mindik [bmu-3],-6.47,147.44,#8CB9CF,Trans New Guinea,Finisterre-Huon,N Coast New Guinea
Burun [bdi-2],10.8,33.8,#B18D43,Nilo-Saharan,Luo-Burun,African Savannah
Burushaski [bsk],36.5,74.5,#C0D9E5,Burushaski,Burushaski,Indic
Burushaski_eastern [bsk-2],36.32,74.65,#ECE5D4,Burushaski,Burushaski,Indic
Burushaski_Hunza [bsk-3],36.33,74.64,#A9CBDC,Burushaski,Burushaski,Indic
Burushaski_Jammu-Kashmir [bsk-4],34.11,74.82,#DFEAED,Burushaski,Burushaski,Indic
Buruwai [asi-2],-3.55,133.33,#EDE9DE,Trans New Guinea,Asmat-Kamoro,N Coast New Guinea
Buryat [bxm],52,108,#EDE9DE,Mongolic,Mongolic,Inner Asia
Busa [bqp],9.67,4,#D6C29B,Mande,Eastern Mande,African Savannah
Busa-2 [bqp-2],9.91,4.4,#C5AA71,Mande,Eastern Mande,African Savannah
Busami [bsm],-1.8,135.95,#EAE2CF,Austronesian,South Halmahera-West New Guinea,N Coast New Guinea
Bushong [buf],-4.67,21.3,#A17521,Niger-Kongo,Zone C80,S Africa
Busoa [bup],-5.62,122.616,#E8DEC8,Austronesian,Celebic,Southeast Asia-Island
Bussa [dox-2],5.76,37.19,#B8D4E1,Afro-Asiatic,East Cushitic,Greater Abyssinia
Butmas_Tur [bnr],-15.376,167.028,#E5D9BF,Austronesian,Southern Oceanic,Oceania
Butuanon [btw],8.87,125.42,#CCE0E9,Austronesian,Barito,Southeast Asia-Island
Buwal [bhs],10.5,13.86,#D2E3EB,Afro-Asiatic,Biu-Mandara,African Savannah
Buxing [bgk-2],21.48,101.57,#D6C29A,Austroasiatic,Palaungic,Southeast Asia-mainland
Buyang [yha],24,104.8,#CCB482,Tai-Kadai,Kadaic,Southeast Asia-mainland
Buyi_Hezhang [pcc-3],27.12,104.73,#BD9D5C,Tai-Kadai,Northern Tai,Southeast Asia-mainland
Buyuan_Jino [jiy],22.05,101,#A17521,Tibeto-Burman,Hani-Jino,Southeast Asia-mainland
Bwaidoka [bwd],-9.479,150.311,#D7E6EC,Austronesian,Papuan Tip,S New Guinea
Bwala [xxx-123],-4.45,16.2,#D1BB8E,Niger-Kongo,Zone B70,S Africa
Bwamu Laa [bwj],11.65,-3.18,#C9B07B,Niger-Kongo,Gur,African Savannah
Byali [beh],11.04,1.08,#B38F46,Niger-Kongo,Gur,African Savannah
Byambe [lol-6],-0.27,21.6,#8E5905,Niger-Kongo,Zone C30,S Africa
Byansi [bee],30.17,80.5,#D1BC90,Tibeto-Burman,Western Himalayan,Indic
C'lela [dri],11.47,5.27,#A5C9D9,Niger-Kongo,Kainji,African Savannah
Caac [msq],-20.42,164.42,#EEE8DB,Austronesian,Southern Oceanic,Oceania
Cabecar [cjp],9.91,-83.68,#AD873B,Chibchan,Isthmic Chibchan,Mesoamerica
Cabiyarí [cbb],-0.1302,-70.6927,#E4EBED,Arawak,Northern Maipuran,NE South America
Cacaopera [ccr],13.74,-88.11,#D6E5EB,Misumalpan,Misumalpan,Mesoamerica
Caddo [cad],33.33,-93.5,#EAEDE9,Caddoan,Caddo,Basin and Plains
Cadorino [ita-21],46.445,12.39,#D1BB8E,Indo-European,Romance,Europe
Cagayano [cgc-2],10.47,119.87,#DEE9EC,Austronesian,Philippines,Southeast Asia-Island
Cagliaritano [ita-55],39.225,9.15,#E2D4B7,Indo-European,Romance,Europe
Cahita [opt-2],27.9,-109,#EAE2D0,Uto-Aztecan,Cahitan,Mesoamerica
Cahuilla [chl],33.75,-117.75,#3B86AC,Uto-Aztecan,North Uto-Aztecan,California
Caijia_Niujiaojing [xxx-53],27.067,104.297,#CDB584,Tibeto-Burman,Caijia,Southeast Asia-mainland
Caijia_Xingfa [xxx-47],26.934,104.863,#C1A468,Tibeto-Burman,Caijia,Southeast Asia-mainland
Cak [ckh],21.41,92.6,#D0BA8D,Tibeto-Burman,Jingpho-Luish,Indic
Cakchiquel [ckf],14.5,-91,#5698B8,Mayan,Core Mayan,Mesoamerica
Calabrian [scn-4],38.148,16.18,#EDEAE1,Indo-European,Romance,Europe
Calabrian-2 [scn-3],38.92,16.6,#EBECE8,Indo-European,Romance,Europe
Callahuaya [caw],-15,-69,#5294B6,Puquina,Puquina,Andean
Calusa [xxx-107],27.76,-82.55,#E1EBEC,Tunica,Tunica,E North America
Camling [rab],27.3,86.8,#EEE8DC,Tibeto-Burman,Central Kiranti,Indic
Campa [cni],-12,-74,#B4D2E0,Arawak,Southern Maipuran,Andean
Campalagian [cml],-4.02,119.62,#E7DDC7,Austronesian,Greater South Sulawesi,Southeast Asia-Island
Campobassano [ita-45],41.6,14.66,#DECFB0,Indo-European,Romance,Europe
Camsá [kbh],1,-77,#E8DECA,Camsá,Camsá,Andean
Camuno [lmo-7],45.943,10.28,#C5A970,Indo-European,Romance,Europe
Canamari [knm-2],-6.46,-68.78,#ECE5D4,Katukinan,Katukinan,NE South America
Candoshi [cbu],-4.17,-77,#88B7CD,Candoshi,Candoshi,Andean
Canela-Krahô [ram],-6.5,-45,#CCB482,Macro-Je,Je,NE South America
Canichana [caz],-14.31,-64.94,#CBDFE8,Canichana-Tequiraca,Canichana-Tequiraca,NE South America
Cantabrian_East [spa-7],43.3,-3.9,#E0D1B3,Indo-European,Romance,Europe
Cantabrian_West [spa-8],43.3,-4.1,#DCCBA8,Indo-European,Romance,Europe
Cantonese [yue],22.333,114,#B99855,Tibeto-Burman,Yue,Southeast Asia-mainland
Cantonese_Bin'an_賓安 [yue-67],23.025,113.99,#AB8435,Tibeto-Burman,Yue,Southeast Asia-mainland
Cantonese_Bin'an_賓安沙井_Shajing [yue-7],22.7,113.83,#A77E2D,Tibeto-Burman,Yue,Southeast Asia-mainland
Cantonese_Conghua-city-從化城内 [yue-60],23.55,113.6,#A0741F,Tibeto-Burman,Yue,Southeast Asia-mainland
Cantonese_Conghua-Lütian_從化呂田 [yue-70],23.8,113.95,#A57B29,Tibeto-Burman,Yue,Southeast Asia-mainland
Cantonese_Doumen_1_斗門 [yue-11],22.2,113.3,#9C6E18,Tibeto-Burman,Yue,Southeast Asia-mainland
Cantonese_Foshan_佛山 [yue-62],23.02,113.12,#9D6F19,Tibeto-Burman,Yue,Southeast Asia-mainland
Cantonese_Gaoming_高明 [yue-65],22.9,112.89,#9A6B16,Tibeto-Burman,Yue,Southeast Asia-mainland
Cantonese_Guangzhou_Xinjie_Kam Tim_新界錦田 [yue-71],22.44,114.065,#9C6D17,Tibeto-Burman,Yue,Southeast Asia-mainland
Cantonese_Huaxian_花縣 [yue-74],23.49,113.33,#A0731E,Tibeto-Burman,Yue,Southeast Asia-mainland
Cantonese_Jiangmen_江門 [yue-66],22.58,113.08,#A98131,Tibeto-Burman,Yue,Southeast Asia-mainland
Cantonese_Macau_ 澳門 [yue-72],22.15,113.56,#9F711C,Tibeto-Burman,Yue,Southeast Asia-mainland
Cantonese_Nanning [yue-15],22.817,108.317,#BA9A58,Tibeto-Burman,Yue,Southeast Asia-mainland
Cantonese_Panyu_番禺 [yue-73],22.94,113.38,#9A6B16,Tibeto-Burman,Yue,Southeast Asia-mainland
Cantonese_Sanshui_三水 [yue-64],23.16,112.9,#9F711B,Tibeto-Burman,Yue,Southeast Asia-mainland
Cantonese_Shunde_順德 [yue-63],22.8,113.25,#9D6F19,Tibeto-Burman,Yue,Southeast Asia-mainland
Cantonese_Zengcheng_增城 [yue-61],23.29,113.83,#A37824,Tibeto-Burman,Yue,Southeast Asia-mainland
Cantonese_Zhongshan-Longdu_中山隆都 [yue-26],22.5,113.3,#A67C2A,Tibeto-Burman,Yue,Southeast Asia-mainland
Cantonese_Zhongshan-Nanlang-Heshui中山南良合水 [yue-8],22.4,113.5,#A77E2D,Tibeto-Burman,Yue,Southeast Asia-mainland
Cantonese_Zhuhai_珠海 [yue-12],22.27,113.58,#A47926,Tibeto-Burman,Yue,Southeast Asia-mainland
Cantonese_東萖-清溪_Dongguan-Qingxi [yue-68],22.8,114.13,#AD873B,Tibeto-Burman,Yue,Southeast Asia-mainland
Cantonese_東萖萖城_Dongguan-city [yue-10],23.02,113.75,#996913,Tibeto-Burman,Yue,Southeast Asia-mainland
Cantonese_深圳沙頭角_Shenzhen_Shatoujie [yue-69],22.6,114.2,#AD873B,Tibeto-Burman,Yue,Southeast Asia-mainland
Canzés [lmo-6],45.85,9.27,#D1BB8E,Indo-European,Romance,Europe
Cao Bang [zyg-2],23.18,105.41,#AC8638,Tai-Kadai,Daic,Southeast Asia-mainland
Caodeng_rGyalrong [jya-4],32.2,101.8,#E1D3B5,Tibeto-Burman,Qiangic,Inner Asia
Capanahua [kaq],-7,-74,#EEEBE2,Panoan,Pano Nawa,NE South America
Cappadocian [cpg],38.66,34.85,#D3E3EB,Indo-European,Graeco-Phrygian,Greater Mesopotamia
Caquinte [cot],-11.7092,-73.9252,#AFCEDD,Arawak,Southern Maipuran,Andean
Car [caq],9.167,92.75,#D2BD91,Austroasiatic,Nicobar,Southeast Asia-mainland
Cara [cfd],10.13,8.75,#C5AA71,Niger-Kongo,Plateau,African Savannah
Carapana [cbc],0.45,-71,#DECFB0,Tucanoan,East Tucanoan,NE South America
Carib [car],7.85,-59,#E5D9BF,Cariban,Guianan Carib,NE South America
Carib_Suriname [crb-2],5.7,-55.932,#E8DECA,Arawak,Northern Maipuran,NE South America
Carib_Venezuela [crb-3],7.969,-65.67,#ECE4D3,Arawak,Northern Maipuran,NE South America
Carijona [cbd],0.148,-70.708,#EAE2CF,Cariban,Guianan Carib,NE South America
Carolinian [cal],15,146,#ECEDE7,Austronesian,Micronesian,Oceania
Carrarese [ita-29],44.08,10.1,#D6C29A,Indo-European,Romance,Europe
Cashibo-Cacataibo [cbr],-9.1,-75.5,#EDE9DF,Panoan,Cashibo-Cacataibo,NE South America
Cashinahua [cbs],-10.5,-71.75,#ECE6D8,Panoan,Pano Nawa,NE South America
Castagniers [frp-4],43.79,7.23,#CFB889,Indo-European,Romance,Europe
Castellanese [sdc-2],40.913,8.71,#EAE1CE,Indo-European,Romance,Europe
Catalan [cat],41.4,2.02,#E2D4B7,Indo-European,Romance,Europe
Catalan_Northern [cat-6],42.7,2.9,#EAE2D0,Indo-European,Romance,Europe
Catalan_Northwestern [cat-5],42.5,1.5,#EAE2CF,Indo-European,Romance,Europe
Catanese [ita-52],37.5,15.1,#EDE7DA,Indo-European,Romance,Europe
Catanzarese [ita-51],38.9,16.6,#EEE8DC,Indo-European,Romance,Europe
Catawba [chc],34,-81,#CFE1EA,Siouan,Siouan,E North America
Cauho [pho-6],21.4,102,#AC8536,Tibeto-Burman,Hani-Jino,Southeast Asia-mainland
Cavineña [cav],-12.25,-67.5,#BED7E3,Tacanan,Tacanan,NE South America
Cayapa [cbi],1.2,-78.75,#94BED2,Barbacoan,Southern Barbacoan,Andean
Cayapo [txu-2],-7.77,-51.67,#BD9E5E,Macro-Je,Je,NE South America
Cayuga [cay],42.75,-76.75,#E4D8BE,Iroquoian,Northern Iroquoian,E North America
Cayuse [xcy],46.11,-117.94,#73AAC5,Cayuse,Cayuse,Basin and Plains
Cayuvava [cyb],-12.5,-67,#EAE2D0,Cayuvava,Cayuvava,NE South America
Ce [ruk],10,8.67,#A57B29,Niger-Kongo,Plateau,African Savannah
Cebuano [ceb],10,124,#C1D9E5,Austronesian,Philippines,Southeast Asia-Island
Cemuhi [cam],-20.833,165,#BE9F5F,Austronesian,Southern Oceanic,Oceania
Central !Kung [nmn-3],-19.57,18.12,#E4D8BE,Tuu,Tuu,S Africa
Central Banda [tor],6.64,22.76,#BD9D5C,Ubangian,Ubangian,African Savannah
Central-Eastern Niger Fulfulde [fuq],15.09,8.43,#D1BB8E,Niger-Kongo,North-Central Atlantic,African Savannah
Cerma [cme],10.249,-4.85,#D1BB8E,Niger-Kongo,Gur,African Savannah
Ch'ol [cti],17.49,-92.47,#C1D9E5,Mayan,Core Mayan,Mesoamerica
Cha'palaachi [cbi-2],0.838,-78.877,#468CB0,Barbacoan,Southern Barbacoan,Andean
Chachapuya [xxx-116],-6.42,-77.92,#B1CFDE,Chachapoya,Chachapoya,Andean
Chacobo [cao],-12.25,-65,#A2C6D8,Panoan,Pano Nawa,NE South America
Chadong [cdy],25.2,110.2,#C6AB74,Tai-Kadai,Maonan-Chadong,Southeast Asia-mainland
Chaga-Kiwoso [old],-3.29,37.57,#C0A366,Niger-Kongo,Zone E60,S Africa
Chaga-Ng'uni [jmc-3],-3.18,37.2,#B18C41,Niger-Kongo,Zone E60,S Africa
Chaga-Rombo-North [rof],-3.08,37.54,#BD9D5C,Niger-Kongo,Zone E60,S Africa
Chaga-Rombo-South [rof-2],-3.21,37.54,#C2A56A,Niger-Kongo,Zone E60,S Africa
Chaga-Siha [jmc-2],-3.36,36.92,#B28E45,Niger-Kongo,Zone E60,S Africa
Chaga-Vunjo [wun-2],-3.43,37.58,#D8C6A1,Niger-Kongo,Zone E60,S Africa
Chaha [sgw],8.2,38,#BDD7E3,Afro-Asiatic,Ethiopian,Greater Abyssinia
Chakali [cli],9.83,-1.9,#915E07,Niger-Kongo,Gur,African Savannah
Chakavian [hrv-2],45.17,14.85,#C7AC75,Indo-European,Slavic,Europe
Chakhar [mon-6],44.94,115.38,#EAE2CF,Mongolic,Mongolic,Inner Asia
