name,latitude,longitude,color,family,subgroup,country
!Xoon [nmn],-24,21.5,#C774DF,Tuu ,Hua,Botswana
||Ana [gnk-2],-22.2,22.4,#B57AA8,Khoe ,Khoe,Botswana
||Ani [hnh],-19.3,22.5,#B57DBC,Khoe ,Khoe,Botswana
||Gana [gnk],-19,22.5,#AE7FA2,Khoe ,Khoe,Botswana
||Xekwi [xeg],-23,22,#DF5FBA,Tuu ,!Kwi,Botswana
|Gwi [gwj],-22.435,21.654,#BF91C5,Khoe ,Khoe,Botswana
|Xam [xam],-30.34,21.82,#AF81C7,Tuu ,!Kwi,South Africa
A'iwa [ash],-2,-74.5,#53656E,A'iwa ,,Peru
A'jië [aji],-21.342,165.459,#9472AD,Oceanic,Southern Oceanic,New Caledonia
Aari [aiw],6,36.6,#C08174,Afro-Asiatic ,Omotic,Ethiopia
Abanyom [abm],6.499,8.647,#94AA95,Niger-Kongo ,Atlantic-Congo,Nigeria
Abar [mij-3],6.59,10.26,#9EA375,Niger-Kongo ,Atlantic-Congo,Cameroon
Abau [aau],-4,141.167,#519760,Sepik ,Abau,Papua New Guinea
Abawiri [flh-2],-3.05,139.21,#70BD95,Lakes Plains ,Eastern Lakes Plains,Indonesia-Papua
Abaza [abq],44.34,41.67,#AD0F6D,North-west Caucasus ,Abaza-Abkhaz,Russia
Abduyi [pes-4],29.7,52.07,#8E6B64,Indo-European ,Indo-Iranian,Iran
Abelam [abt-2],-3.83,143.17,#587E76,Ndu ,Nuclear Ndu,Papua New Guinea
Abellen [abp],15.41,120.2,#3F797E,Malayo-Polynesian,Philippines,Philippines
Abenaki_Western [abe],44,-72.25,#417A6D,Algic ,Algonquian,USA
Aberdeenshire_English [sco-3],57.3,-2,#AC795A,Indo-European ,Germanic,Britain-Scotland
Abidji [abi],5.66,-4.58,#848D7C,Niger-Kongo ,Atlantic-Congo,Côte d'Ivoire
Abinomn [bsa],-3,138.8,#5D836B,Abinomn ,,Indonesia-Papua
Abipon [axb],-26,-61,#416B7E,Guaicuruan ,Southern Guaicuruan,Argentina
Abkhaz [abk],43,41.03,#9C1D5B,North-west Caucasus ,Abaza-Abkhaz,Abkhazia
Abkhaz_Bzyp [ady-13],43.32,40.41,#A21656,North-west Caucasus ,Abaza-Abkhaz,Abkhazia
Abkhaz_Sadz [ady-12],43.33,40.22,#9C1856,North-west Caucasus ,Abaza-Abkhaz,Abkhazia
Abron [abr],8.03,-2.8,#99A394,Niger-Kongo ,Atlantic-Congo,Ghana
Abruzzo [nap-3],42.66,13.7,#B38A52,Indo-European ,Romance,Italy
Abua [abn],4.8,6.654167,#BF917D,Niger-Kongo ,Atlantic-Congo,Nigeria
Abui [abz],-8.417,124.6,#6C827C,Timor-Alor-Pantar ,Alor-Pantar,Indonesia-NTT
Abujh_Maria [mrr-2],18.75,80.68,#846F79,Dravidian ,South-central,India
Abun [kgr],-0.833,132,#7C9D68,West Papuan ,Birds Head,Indonesia-Papua
Abure [abu],5.22,-3.64,#88937D,Niger-Kongo ,Atlantic-Congo,Côte d'Ivoire
Acatec [agu-2],15.7,-91.617,#A2617C,Mayan ,Core Mayan,Guatemala
Aceh_Lhokseumawe [ace-6],5.19,97.14,#BD9951,Malayo-Polynesian,Malayo-Sumbawan,Indonesia-Sumatra
Aceh_Pidie [ace-7],5.38,95.96,#BC9953,Malayo-Polynesian,Malayo-Sumbawan,Indonesia-Sumatra
Acehnese [ace],5.333,96.167,#BA9650,Malayo-Polynesian,Malayo-Sumbawan,Indonesia-Sumatra
Acehnese_Northeast [ace-5],4.62,97.62,#BB9444,Malayo-Polynesian,Malayo-Sumbawan,Indonesia-Sumatra
Acehnese_South [ace-3],4.1,96.23,#BA9543,Malayo-Polynesian,Malayo-Sumbawan,Indonesia-Sumatra
Acehnese_Southwest [ace-2],5.05,95.34,#B69448,Malayo-Polynesian,Malayo-Sumbawan,Indonesia-Sumatra
Acehnese_West [ace-4],5.47,95.26,#B89448,Malayo-Polynesian,Malayo-Sumbawan,Indonesia-Sumatra
Achagua [aca],4.002,-72.814,#926C6E,Arawak ,Northern Maipuran,Colombia
Achang_Lianghe [acn ],24.8,98.3,#BFB382,Tibeto-Burman ,Lolo-Burmese,China
Achang_Longchuan [can-2],24.25,97.833,#BAB796,Tibeto-Burman ,Lolo-Burmese,China
Achang_Luxi [can-3],24.527,103.764,#9DBF83,Tibeto-Burman ,Lolo-Burmese,China
Aćharêtâʹ [phl-2],35.4,71.75,#D6AA96,Indo-European ,Indo-Iranian,Afghanistan
Aché [guq],-25.25,-55.17,#3B7980,Tupian ,Tupi-Guarani,Paraguay
Achi [acr],15.25,-90.5,#576378,Mayan ,Core Mayan,Guatemala
Achuar [acu],-3,-76,#637469,Jivaroan ,Shuaric,Peru
Achumawi [acv],41.5,-121,#A56594,Palaihnihan ,,USA
Acipa [acp],10.71,6.01,#C57C83,Niger-Kongo ,Atlantic-Congo,Nigeria
Acoma [kjq-2],34.92,-107.58,#D3729E,Keresan ,Western Keresan,USA
Acooli [ach],3.293,32.871,#A88D76,Nilo-Saharan ,Nilotic,Uganda
Adamawa Fulfulde [fub],8.9,15.84,#BF9F79,Niger-Kongo ,Atlantic-Congo,Cameroon
Adang [adn],-8.163,124.456,#4A7D6D,Timor-Alor-Pantar ,Alor-Pantar,Indonesia-NTT
Adangme [ada],5.8,0.33,#999F85,Niger-Kongo ,Atlantic-Congo,Ghana
Adyghe [ady],44.1,39.08,#AA2592,North-west Caucasus ,Circassian,Russia
Adyghe_Abzakh [ady-11],44.7,38.9,#AF2891,North-west Caucasus ,Circassian,Russia
Adyghe_Besleney [ady-5],44.7,40.75,#B0228E,North-west Caucasus ,Circassian,Russia
Adyghe_Black Sea Shapsugh [ady-14],44.375,38.4,#B4197A,North-west Caucasus ,Circassian,Russia
Adyghe_Bzhedug [ady-6],45,39.3,#B82590,North-west Caucasus ,Circassian,Russia
Adyghe_Cherkess [ady-9],44.25,42.05,#AB2393,North-west Caucasus ,Circassian,Russia
Adyghe_Hakuchi [ady-8],44.88,38,#AB2393,North-west Caucasus ,Circassian,Russia
Adyghe_Kfar Kama [ady-7],32.72,35.44,#AB2591,North-west Caucasus ,Circassian,Israel
Adyghe_Natukai [ady-3],44.4,38.35,#AB177A,North-west Caucasus ,Circassian,Russia
Adyghe_Shapsugh [ady-2],44.3,39,#B5197A,North-west Caucasus ,Circassian,Russia
Adyghe_Temirgoy [ady-10],45.125,39.83,#AA2592,North-west Caucasus ,Circassian,Russia
Adyghe_Uzunyayla [ady-4],44.25,38.77,#AD248C,North-west Caucasus ,Circassian,Russia
Adynyamathanha [adt],-31,139.5,#8C7292,Pama-Nyungan ,Thura-Yura,Australia
Adyukru [adj],5.38,-4.53,#92A9A6,Niger-Kongo ,Atlantic-Congo,Ghana
Adzera [azr],-6.417,146.25,#578072,Oceanic,Western Oceanic,Papua New Guinea
Aeka [aez],-8.601,147.994,#4C8778,Trans New Guinea ,Oro-Wharton,Papua New Guinea
Afar [aar],11.85,42,#55747F,Afro-Asiatic ,Cushitic,Djibouti
Afitti [aft-2],12.44,31,#82946C,Nilo-Saharan ,Nyimang,Sudan
Afrikaans [afr],-33.9,18.5,#A38F46,Indo-European ,Germanic,South Africa
Afshar [azj-2],37.475,57.33,#A9804A,Turkic ,South-west Turkic,Iran
Agabag [mvv-2],3.965,117.095,#6C8763,Malayo-Polynesian,North Borneo,Indonesia-Kalimantan
Agarabi [agd],-6.25,145.917,#419DA1,Trans New Guinea ,Morobe-Eastern Highlands,Papua New Guinea
Agatu [agc],7.98,7.72,#919FA4,Niger-Kongo ,Volta-Niger,Nigeria
Aghem [agq],6.39,10.12,#CAC7A1,Niger-Kongo ,Atlantic-Congo,Cameroon
Aghu [ahh],-6.333,140,#388382,Trans New Guinea ,Awyu-Dumut,Indonesia-Papua
Aghu-Tharrnggala [gtu],-13.73,142.43,#85867F,Pama-Nyungan ,Paman,Australia
Aglla [idu-3],6.8,7.95,#BE9F99,Niger-Kongo ,Volta-Niger,Nigeria
Agöb [kit],-9.09,142.53,#997F67,South New Guinea ,East Morehead River,Papua New Guinea
Agta [agt],17.967,121.833,#7E776C,Malayo-Polynesian,Philippines,Philippines
Aguaruna [agr],-5.25,-78,#3B7378,Jivaroan ,Aguaruna,Peru
Aguatec [agu],15.4,-91.4,#905E7E,Mayan ,Core Mayan,Guatemala
Agul [agx],41.78,47.59,#985A74,Nakh-Daghestanian ,Lezgic,Russia
Agul_Burkixan [agx-2],41.78,47.6,#994F75,Nakh-Daghestanian ,Lezgic,Russia
Agul_Burshag [agx-3],41.86,47.62,#9F4C75,Nakh-Daghestanian ,Lezgic,Russia
Agul_Fite [agx-4],41.79,47.59,#9C4A76,Nakh-Daghestanian ,Lezgic,Russia
Agul_Richa [agx-5],41.78,47.61,#A14075,Nakh-Daghestanian ,Lezgic,Russia
Agusan [mbb-2],8.63,125.74,#46757A,Malayo-Polynesian,Philippines,Philippines
Agutaynen [agn],11.15,120.95,#41767E,Malayo-Polynesian,Philippines,Philippines
Agwamin [wmi],-16.986,143.001,#768175,Pama-Nyungan ,Paman,Australia
Ahan [ahn],7.44,6.01,#A0917A,Niger-Kongo ,Volta-Niger,Nigeria
Ahanta [aha],4.85,-1.95,#90897A,Niger-Kongo ,Atlantic-Congo,Ghana
Ahi [yix],24.4,103.4,#B2B48C,Tibeto-Burman ,Lolo-Burmese,China
Ahom [aho],25,95,#AEB194,Tai-Kadai ,South Tai-Kadai,India
Ahtna [aht],62,-145,#9B608E,Dene-Yeniseic ,Na-Dene,USA-Alaska
Ai-cham_Diwo [aih],25.8,107,#CDC491,Tai-Kadai ,South Tai-Kadai,China
Aikaná [tba],-12.1,-60.6,#6F8750,Aikaná ,,Brazil
Ainu [ain],43.5,142,#6F8273,Ainu ,,Japan
Ainu_Sakhalin [ain-2],49.07,142.03,#52807E,Ainu ,,Japan
Airoran [air],-1.7,138.15,#396E80,Kwerba ,West Kwerba,Indonesia-Papua
Aisi [mmq],-5.35,145.15,#387E73,Trans New Guinea ,Madang,Papua New Guinea
Ait_Seghrouchen [tzm-2],33,-5,#974260,Afro-Asiatic ,Berber,Morocco
Aita_Rotokas [roo-2],-6,155.08,#237E7F,North Bougainville ,Rotokas,Papua New Guinea-Bougainville
Aiton [aio-2],24,94,#B5BA96,Tai-Kadai ,South Tai-Kadai,India
Aitutaki [rar-2],-18.872,-159.782,#2C7C80,Oceanic,Central Pacific,Cook Islands
Aiwoo [nfl],-10.5,166.5,#8076AC,Oceanic,TeMotu,Solomons_East
Aizi [ahp],5.25,-4.5,#828E81,Niger-Kongo ,Atlantic-Congo,Côte d'Ivoire
Aja [ajg],8.58,25.61,#D29979,Niger-Kongo ,Volta-Niger,Benin
Ajumbu [muc-2],6.55,10.27,#BBB68D,Niger-Kongo ,Atlantic-Congo,Cameroon
Aka [axk],3.46,15.73,#A3A994,Ubangian ,,Central African Republic
Aka [hru],27.2,92.9,#B66A7A,Tibeto-Burman ,Hrusish,India
Akan [aka],6.5,-1.25,#7B8076,Niger-Kongo ,Atlantic-Congo,Ghana
Akaselem [aks],8.89,1.37,#AC8F89,Niger-Kongo ,Atlantic-Congo,Togo
Akawaio [ake],6,-59.5,#3C787E,Cariban ,Venezuelan,Guyana
Ake [aik],8.6,8.76,#9DAB94,Niger-Kongo ,Atlantic-Congo,Nigeria
Akei [tsr],-15.49,166.75,#3B7973,Oceanic,Southern Oceanic,Vanuatu
Akha [ahk],20.3,99.6,#7A8B82,Tibeto-Burman ,Lolo-Burmese,Thailand
Akha_Buli [ahk-6],21.2,101.15,#A7AE88,Tibeto-Burman ,Lolo-Burmese,Laos
Akha_Chicho [ahk-7],20.92,101.4,#B7BA8B,Tibeto-Burman ,Lolo-Burmese,Laos
Akha_Senchai [ahk-2],27,96,#B8AE7E,Tibeto-Burman ,Lolo-Burmese,Myanmar
Akie [oki],-5.43,37.19,#B9A88C,Nilo-Saharan ,Nilotic,Kenya
Aklanon [akl],11.58,122.33,#52787B,Malayo-Polynesian,Philippines,Philippines
Akosse [bss],5,9.7,#7EA5A2,Niger-Kongo ,Atlantic-Congo,Cameroon
Akoye [miw-2],-7.645,145.65,#4BAA8D,Trans New Guinea ,Morobe-Eastern Highlands,Papua New Guinea
Akpes [ibe],7.5,5.96,#92917B,Niger-Kongo ,Volta-Niger,Nigeria
Akuntsu [aqz],-12.74,-60.8,#347A80,Tupian ,Tupari,Brazil
Akurio [ako],3.0132,-55.6434,#527974,Cariban ,Guianan Carib,Suriname
Akwa [akw],-0.005,15.612,#8AA89B,Niger-Kongo ,Atlantic-Congo,Congo
Akweya [akf],7.33,8.02,#BEAC93,Niger-Kongo ,Volta-Niger,Nigeria
Akye-Gnan [ati-2],5.48,-4.09,#A5D086,Niger-Kongo ,Atlantic-Congo,Côte d'Ivoire
Alaala [nrz],-9,146.667,#3D807A,Oceanic,Western Oceanic,Papua New Guinea
Alaba-K'abeena [alw],7.39,38.17,#B7787B,Afro-Asiatic ,Cushitic,Ethiopia
Alabama [akz],32.7,-86.1,#607983,Muskogean ,Alabama-Koasati,USA
Alacalufe_Central [alc-2],-53.528,-70.9573,#506A77,Alaculufan ,,Chile
Alacalufe_Southern [alc-3],-55.2,-69.4,#4E6977,Alaculufan ,,Chile
Alagwa [wbj],-4.64,35.72,#B84D96,Afro-Asiatic ,Cushitic,Tanzania
Alamblak [amp],-4.667,143.25,#427478,Sepik ,Sepik Hill,Papua New Guinea
Alas_Batak [btz],2.64,98,#627F5F,Malayo-Polynesian,Batak-Barrier Islands,Indonesia-Sumatra
Alawa [alh],-15.75,134.333,#71769B,Macro-Gunwinygu ,Marran,Australia
Albanian_Cham [als-4],39.6,20.8,#C88060,Indo-European ,Albanian,Greece
Albanian_Gheg [aln],42.43,20.73,#B6785D,Indo-European ,Albanian,Albania
Albanian_Lab [als-5],40.17,19.83,#CD8659,Indo-European ,Albanian,Albania
Albanian_Mandritsa [aln-4],41.38,26.13,#C17B68,Indo-European ,Albanian,Bulgaria
Albanian_Tosk [als],40.5,20,#D08559,Indo-European ,Albanian,Albania
Albanian_Upper_Reka [aln-2],41.72,20.57,#C27D59,Indo-European ,Albanian,Montenegro
Albanian_Vaccarizzo [als-6],39.58,16.43,#D37758,Indo-European ,Albanian,Italy
Alekano [gah-2],-6,145.4,#619A9D,Trans New Guinea ,Morobe-Eastern Highlands,Papua New Guinea
Aleut [ale],54,-166,#A97371,Eskimo-Aleut ,Aleut,USA-Alaska
Aleut_Atkan [ale-4],52,-174,#9C6C70,Eskimo-Aleut ,Aleut,USA-Alaska
Aleut_Attuan [ale-2],52.85,172.9,#A46C70,Eskimo-Aleut ,Aleut,USA-Alaska
Aleut_Eastern [ale-3],54.75,-164,#9B6D6F,Eskimo-Aleut ,Aleut,USA-Alaska
Aleut_Unangas [],55.3,166,#907178,Eskimo-Aleut ,Aleut,USA-Alaska
Algherese [cat-4],40.55,8.32,#96875E,Indo-European ,Romance,Italy-Sardinia
Algonquin [alq],46,-82,#607269,Algic ,Algonquian,Canada
Ali [ykm],-3.17,142.25,#46767A,Oceanic,,Papua New Guinea
Alladian [ald],5.17,-4.33,#897D8B,Niger-Kongo ,Atlantic-Congo,Côte d'Ivoire
Allentiac [qbt],-32,-66,#5D765D,Huarpe ,,Argentina
Alngith [aid],-12.5,142.17,#90838D,Pama-Nyungan ,Paman,Australia
Alo-Teqel [tql-2],-13.8,167.47,#567498,Oceanic,Southern Oceanic,Vanuatu
Alor [aol],-8.245,124.412,#567A70,Malayo-Polynesian,Timoric,Indonesia-NTT
Alsatian [gsw-2],48.32,7.44,#997C66,Indo-European ,Germanic,France
Alsea [aes],44.67,-123.93,#A93DAC,Alsean ,,USA
Altai [alt],51,87,#A57760,Turkic ,North-east Turkic,Russia
Altai_Kumandy [atv],51.3,87.7,#6E885C,Turkic ,North-east Turkic,Russia
Alumbis_Murut [mvv],4.799,115.496,#3E7C73,Malayo-Polynesian,North Borneo,Malaysia-Borneo
Alune [alp],-3.167,128.333,#397383,Malayo-Polynesian,Central Maluku,Indonesia-Maluku-north
Alur [alz],2.5,31.25,#C69076,Nilo-Saharan ,Nilotic,Uganda
Alutiiq [ems],58.015,-152.765,#9E4F91,Eskimo-Aleut ,Eskimo,USA-Alaska
Alyawarr [aly],-24.6,134.5,#917C9C,Pama-Nyungan ,Arandic,Australia
Alyutor [alr],61,165,#5F5E7B,Chukotko-Kamchatkan ,Main Chukotko-Kamchatkan,Russia
Ama [amm],-4.168,141.671,#5B98AC,Left May ,,Papua New Guinea
Amahai_Soahuku [amq],-3.332,128.949,#3D7A75,Malayo-Polynesian,Central Maluku,Indonesia-Maluku-north
Amahuaca [amc],-10.8,-73.5,#79777D,Panoan ,Main Panoan,Peru
Amaimon [ali],-5.193,145.325,#457978,Trans New Guinea ,Madang,Papua New Guinea
Amam [wer-2],-7.85,146.95,#3A7B70,Trans New Guinea ,Oro-Wharton,Papua New Guinea
Amami_Ryukyu [ams],28,129,#AA8989,Japonic ,Ryukyuan,Japan-Ryukyu
Amanab [amn],-3.5,141.167,#598E59,Trans New Guinea ,Border,Papua New Guinea
Amanuban [aoz-3],-9.82,124.47,#3A737F,Malayo-Polynesian,Timoric,Indonesia-NTT
Amanutun [aoz-2],-9.69,124.83,#4A6F7F,Malayo-Polynesian,Timoric,Indonesia-NTT
Amara [aie],-5.533,148.667,#55925A,Oceanic,Western Oceanic,Papua New Guinea-Bismarcks
Amarakaeri [amr],-12.6938,-70.3235,#687974,Harakmbet ,Harakmbut,Peru
Amarasi [aaz],-10.08,124.33,#4A707E,Malayo-Polynesian,Timoric,Indonesia-NTT
Amba_Nembao [utp],-11.27,166.48,#617089,Oceanic,,Solomons_East
Ambae_West [omb],-15.5,167.75,#576F88,Oceanic,Southern Oceanic,Vanuatu
Ambai [amk],-1.917,136.533,#4F7773,Malayo-Polynesian,Eastern Malayo-Polynesian,Indonesia-Papua
Ambel [xmt-2],-0.05,130.7,#638B7E,Malayo-Polynesian,Eastern Malayo-Polynesian,Indonesia-Papua
Ambelau [mhs-4],-3.89,127.205,#679962,Malayo-Polynesian,Central Maluku,Indonesia-Maluku-north
Ambele [ael],5.94,9.62,#A39788,Niger-Kongo ,Atlantic-Congo,Cameroon
Amblong [alm],-15.497,166.926,#467F74,Oceanic,Southern Oceanic,Vanuatu
Ambrym_Southeast [tvk-2],-16.33,168.08,#5B7979,Oceanic,Southern Oceanic,Vanuatu
Ambulas [abt],-3.75,143.083,#63787B,Ndu ,Nuclear Ndu,Papua New Guinea
Amdo [adx],36,94,#AE7E77,Tibeto-Burman ,Bodic,China
Ameland [frs-2],53.45,5.77,#AF815F,Indo-European ,Germanic,Netherlands
Amele_Haija [aey],-5.25,145.75,#52787A,Trans New Guinea ,Madang,Papua New Guinea
Amele_Huar [aey-3],-5.287,145.718,#577B72,Trans New Guinea ,Madang,Papua New Guinea
Amele_Jagahala [aey-2],-5.264,145.642,#507C74,Trans New Guinea ,Madang,Papua New Guinea
Amfo'an [aoz-4],-9.45,123.9,#436F85,Malayo-Polynesian,Timoric,Indonesia-NTT
Amharic [amh],10,38,#946971,Afro-Asiatic ,Semitic,Ethiopia
Ami [amy],-14,130,#437D82,Western Daly ,Maranunggu,Australia
Amis [ami],23.333,121.333,#5D6385,Austronesian ,East Formosan,Taiwan
Amo [amo],10.33,8.67,#888184,Niger-Kongo ,Atlantic-Congo,Nigeria
Amoy [nan],24.5,118,#7AC691,Tibeto-Burman ,Sinitic,China
Ampale [apz],-6.753,146.107,#7E9D8D,Trans New Guinea ,Morobe-Eastern Highlands,Papua New Guinea
Amuesha [ame],-10,-73,#8C606F,Arawak ,Western Maipuan,Peru
Amundava [adw],-10.9942,-63.0642,#3D7778,Tupian ,Tupi-Guarani,Brazil
Amurdak [amg],-12.022,132.892,#77769B,Iwaidjan ,Amurdak,Australia
Amuzgo [amu],16.83,-98,#8C9D94,Otomanguean ,Eastern Otomanguean,Mexico
Amuzgo_Huixtepec [amu-3],16.5,-98.1,#758B81,Otomanguean ,Eastern Otomanguean,Mexico
Amuzgo_San_Pedro [azg],16.85,-98,#688B81,Otomanguean ,Eastern Otomanguean,Mexico
Amuzgo_Xochistlahuaca [amu-2],16.79,-98.24,#ADAB96,Otomanguean ,Eastern Otomanguean,Mexico
Amwi [aml],25.209,92.068,#97A57D,Austroasiatic ,Khasi-Palaung,India
Anaguta [nar],9.964,8.731,#B68577,Niger-Kongo ,Atlantic-Congo,Nigeria
Anakalang [akg],-9.67,119.67,#5F806B,Malayo-Polynesian,Flores-Sawu-Sumba,Indonesia-NTT
Anal [anm],24.33,93.99,#DA9D6D,Tibeto-Burman ,Kuki-Chin-Naga,India
Anamuxra [imi],-4.667,145,#436B7F,Trans New Guinea ,Madang,Papua New Guinea
Andalusian [spa-3],37.5,-3.6,#638F55,Indo-European ,Romance,Spain
Andi [ani],42.79,46.27,#A15A8B,Nakh-Daghestanian ,Avar-Andi,Russia
Andi_Tad-Magitil [ani-2],42.75,46.25,#A36191,Nakh-Daghestanian ,Avar-Andi,Russia
Andoa [anb],-2.9,-76.4051,#785A65,Zaparoan ,Iquito-Arabela,Peru
Andoké [ano],0,-72,#8A886B,Andoké ,,Colombia
Anejom [aty],-20.25,169.833,#B2776E,Oceanic,Southern Oceanic,Vanuatu
Anem [anz],-5.667,149,#618D55,Anem ,,Papua New Guinea-Bismarcks
Aneme_Wake [aby],-9.733,148.52,#237D7A,Southeast Papuan ,Owen Stanley Ranges,Papua New Guinea
Anfillo [myo],8.57,34.65,#956E76,Afro-Asiatic ,Omotic,Ethiopia
Anfu [gan-20],27.38,114.62,#9DD692,Tibeto-Burman ,Sinitic,China
Angaatiha [agm],-7.22,146.25,#408577,Trans New Guinea ,Morobe-Eastern Highlands,Papua New Guinea
Angal [age],-6,143.6,#4B7C7E,Trans New Guinea ,Engan,Papua New Guinea
Angal_Heneng [akh],-6.13,143.42,#3C807F,Trans New Guinea ,Engan,Papua New Guinea
Angami [njm],25.667,94.5,#DAA07B,Tibeto-Burman ,Kuki-Chin-Naga,India
Angas [anc],9.75,8.75,#D09763,Afro-Asiatic ,Chadic,Nigeria
Anggor [agg],-3.667,141.167,#407C7B,Trans New Guinea ,Border,Papua New Guinea
Anggreso [kwe-2],-2.17,138.25,#556B7F,Kwerba ,Nuclear Kwerba,Indonesia-Papua
Angkamuthi [avm],-11.5,142.25,#897A8A,Pama-Nyungan ,Paman,Australia
Angkola_Batak [akb],1.518,99.531,#647B67,Malayo-Polynesian,Batak-Barrier Islands,Indonesia-Sumatra
Anguthimri [xxx-3],-12.333,141.833,#AF8D79,Pama-Nyungan ,Paman,Australia
Ani_Phowa [ypn],23.6,103.3,#CE9693,Tibeto-Burman ,Lolo-Burmese,China
Anib [kni],9.55,8.6,#B0AA8D,Niger-Kongo ,Atlantic-Congo,Nigeria
Anii [blo],9.003,1.669,#B9AB98,Niger-Kongo ,Atlantic-Congo,Benin
Anindilyagwa [aoi],-14,136.5,#8A6FC2,Macro-Gunwinygu ,East Arnhem,Australia
Anindilyagwa_East [aoi-2],-13.86,136.81,#8E6FC2,Macro-Gunwinygu ,East Arnhem,Australia
Aniwa [fut],-19.256,169.6,#2E7A7B,Oceanic,Central Pacific,Vanuatu
Anjam [boj],-5.441,145.737,#53846A,Trans New Guinea ,Madang,Papua New Guinea
Ankave [aak],-7.137,145.744,#327A7B,Trans New Guinea ,Morobe-Eastern Highlands,Papua New Guinea
Anlong [],25.1,105.44,#C1AFA9,Tai-Kadai ,North Tai-Kadai,China
Anmatyerr_East [amx],-22.256,131.5,#877C94,Pama-Nyungan ,Arandic,Australia
Anmatyerr_West [amx-2],-21,135,#6B769F,Pama-Nyungan ,Arandic,Australia
Anong [nun],27.2,98.8,#ECA189,Tibeto-Burman ,Nungish,China
Ansus [and],-1.73,135.806,#487875,Malayo-Polynesian,Eastern Malayo-Polynesian,Indonesia-Papua
Anta [tci-3],-8.65,141.52,#677479,South New Guinea ,West Morehead River,Indonesia-Papua
Antakarinya [ant],-27.12,134.84,#6C7790,Pama-Nyungan ,Wati,Australia
Antioquian [xxx-164],7,-73,#458B6F,Chibchan ,Core Chibchan,Colombia
Anuak [anu],7.18,34.097,#868182,Nilo-Saharan ,Nilotic,South Sudan
Anufo [cko],10.218,0.33,#809882,Niger-Kongo ,Atlantic-Congo,Ghana
Añun [pbg],11,-71.62,#63787A,Arawak ,Northern Maipuran,Venezuela
Anuta [aud],-11.611,169.85,#287E7C,Oceanic,Central Pacific,Solomons_East
Anyi [gan-17],28.84,115.6,#95D198,Tibeto-Burman ,Sinitic,China
Anyin [any],5.9,-2.9,#5E8386,Niger-Kongo ,Atlantic-Congo,Côte d'Ivoire
Anywa [anu-2],7.3,33,#728C84,Nilo-Saharan ,Nilotic,Sudan
Aore [aor],-15.577,167.181,#73806B,Oceanic,Southern Oceanic,Vanuatu
Apache_Western [apw],33.9,-109.55,#B7648C,Dene-Yeniseic ,Na-Dene,USA
Apalachee [xap],30.04,-84.17,#4C7276,Muskogean ,Alabama-Koasati,USA
Apalai [apy],0,-54,#39747A,Cariban ,Apalai,Brazil
Apali [ena],-5.088,145.017,#4C776C,Trans New Guinea ,Madang,Papua New Guinea
Apatani [apt],27.4,93.8,#B7A87D,Tibeto-Burman ,Macro-Tani,India
Apiaká [api],-7.9484,-57.7365,#428270,Tupian ,Tupi-Guarani,Brazil
Apinaye [apn],-6.25,-48,#AB8D59,Macro-Je ,Je,Brazil
Apma [app],-15.775,168.158,#5E7086,Oceanic,Southern Oceanic,Vanuatu
Apma_Suru Kavian [app-2],-15.61,168.14,#76746F,Oceanic,Southern Oceanic,Vanuatu
Apurinã [apu],-9,-67,#597378,Arawak ,Southern Maipuran,Brazil
Aputai [apx],-7.888,126.505,#437A6E,Malayo-Polynesian,Timoric,Indonesia-NTT
Arabana [ard],-28,137,#887492,Pama-Nyungan ,Karnic,Australia
Arabela [arl],-2,-75.17,#526D5E,Zaparoan ,Iquito-Arabela,Peru
Arabic [arb],30,42,#AB4463,Afro-Asiatic ,Semitic,Saudi Arabia
Arabic_Abéché [ayl-4],13.83,20.83,#B2444F,Afro-Asiatic ,Semitic,Libya
Arabic_Abha [acw-4],18.22,42.51,#B65054,Afro-Asiatic ,Semitic,Saudi Arabia
Arabic_Afghanistan [acm-3],36.7,67.12,#995869,Afro-Asiatic ,Semitic,Afghanistan
Arabic_Algerian [arq],36.7,3.1,#7D5157,Afro-Asiatic ,Semitic,Algeria
Arabic_Andalusian [xaa],35.767,-5.8,#A84458,Afro-Asiatic ,Semitic,Spain
Arabic_Baghdad [acm-5],33.33,44.38,#A0485B,Afro-Asiatic ,Semitic,Iran
Arabic_Bareqi [acw-7],18.93,41.94,#AD4759,Afro-Asiatic ,Semitic,Saudi Arabia
Arabic_Basra [acm],30.5,47.825,#A63F4F,Afro-Asiatic ,Semitic,Iraq
Arabic_Bukhara [abh],39.77,64.43,#9D6296,Afro-Asiatic ,Semitic,Uzbekistan
Arabic_Chad [shu-4],14,19,#846162,Afro-Asiatic ,Semitic,Chad
Arabic_Coastal-Dhofari [acx],20.7,58.2,#AA4969,Afro-Asiatic ,Semitic,Oman
Arabic_Cypriot [acy],34.343,33.011,#566B62,Afro-Asiatic ,Semitic,Cyprus
Arabic_Egyptian [arz],30,30,#A04B65,Afro-Asiatic ,Semitic,Egypt
Arabic_Fezzan [ayl-3],26.33,13.43,#A43C4F,Afro-Asiatic ,Semitic,Libya
Arabic_Gulf [afb],24,54,#B7505B,Afro-Asiatic ,Semitic,United Arab Emirates
Arabic_Hadhrami_coast [jye-2],14.95,50.34,#A7485C,Afro-Asiatic ,Semitic,Yemen
Arabic_Hadhrami_wadi [jye-3],16.05,49,#AC4A58,Afro-Asiatic ,Semitic,Yemen
Arabic_Harb [acw-5],25.81,42.87,#BE535A,Afro-Asiatic ,Semitic,Saudi Arabia
Arabic_Hassaniya [mey],16.6,-7.25,#AB4461,Afro-Asiatic ,Semitic,Mauritania
Arabic_Hejazi [acw],21.543,41.173,#B55555,Afro-Asiatic ,Semitic,Saudi Arabia
Arabic_Hejazi_Al'Ula [acw-3],26.627,37.917,#B35555,Afro-Asiatic ,Semitic,Saudi Arabia
Arabic_Hejazi_Badr [acw-6],23.78,38.79,#AD5056,Afro-Asiatic ,Semitic,Saudi Arabia
Arabic_Ilbahariyya [arz],5.18,5.52,#9B3B5E,Afro-Asiatic ,Semitic,Egypt
Arabic_JabalRazih [jye-4],16.92,43.29,#B04A62,Afro-Asiatic ,Semitic,Yemen
Arabic_Jijel [ary-2],36.82,5.75,#865256,Afro-Asiatic ,Semitic,Algeria
Arabic_Jordanian [ajp-2],32,36,#BA5057,Afro-Asiatic ,Semitic,Jordan
Arabic_Judeo-Tunisian [ajt],33.87,10.85,#AC4B48,Afro-Asiatic ,Semitic,Tunisia
Arabic_Khawetna [arb-3],36.42,41.225,#BB4060,Afro-Asiatic ,Semitic,Turkey
Arabic_Khuzestan [acm-2],31.33,48.69,#AD5058,Afro-Asiatic ,Semitic,Iran
Arabic_Lebanese [apc-2],33.883,35.502,#406C73,Afro-Asiatic ,Semitic,Lebanon
Arabic_Levantine_al-Karak [ajp-7],31.2,35.7,#B45458,Afro-Asiatic ,Semitic,Jordan
Arabic_Levantine_Amman [ajp-6],31.9,35.9,#B45458,Afro-Asiatic ,Semitic,Jordan
Arabic_Levantine_Homs [ajp-4],34.7,36.7,#B35359,Afro-Asiatic ,Semitic,Syria
Arabic_Levantine_Jerusalem [ajp-5],31.8,35.2,#AD5559,Afro-Asiatic ,Semitic,Israel
Arabic_Levantine_Northern_coast [ajp-8],34.9,35.9,#9E5254,Afro-Asiatic ,Semitic,Syria
Arabic_Levantine_Northern_inland [ajp-9],33.1,35.7,#AC5552,Afro-Asiatic ,Semitic,Syria
Arabic_Levantine_Outer-south [ajp-11],31.3,34.6,#A1565A,Afro-Asiatic ,Semitic,Israel
Arabic_Levantine_Southern [ajp-10],31.7,34.9,#A2525D,Afro-Asiatic ,Semitic,Israel
Arabic_Libyan [ayl],32,20.25,#98475C,Afro-Asiatic ,Semitic,Libya
Arabic_Libyan_Western [ayl-2],32.5,13,#AC425C,Afro-Asiatic ,Semitic,Libya
Arabic_Mardin [apc-3],37.363,40.91,#B85257,Afro-Asiatic ,Semitic,Turkey
Arabic_Mauritanian [ary-4],18.083,-15.986,#875E6A,Afro-Asiatic ,Semitic,Mauritania
Arabic_Mesopotamian [acm-4],33,44,#A1475D,Afro-Asiatic ,Semitic,Israel
Arabic_Moroccan [ary],34,-7,#A83E5F,Afro-Asiatic ,Semitic,Morocco
Arabic_Muscat [acx-2],23.63,58.55,#B04868,Afro-Asiatic ,Semitic,Oman
Arabic_Najdi [acw-2],23,45.5,#A05556,Afro-Asiatic ,Semitic,Saudi Arabia
Arabic_Omani [acx-3],23.589,58.556,#C45553,Afro-Asiatic ,Semitic,Oman
Arabic_Oran [arq-2],35.7,-0.63,#B44669,Afro-Asiatic ,Semitic,Algeria
Arabic_Palestinian [ajp],31.769,35.6,#8A6861,Afro-Asiatic ,Semitic,Palestine
Arabic_Qatari [afb-4],25.3,51.52,#B74A5C,Afro-Asiatic ,Semitic,United Arab Emirates
Arabic_Sa'idi [aec],25,32.75,#8D4966,Afro-Asiatic ,Semitic,Egypt
Arabic_Saudi [ars],24.48,40,#A2485D,Afro-Asiatic ,Semitic,Saudi Arabia
Arabic_Sudanese [apd],15.5,32.56,#C15260,Afro-Asiatic ,Semitic,Sudan
Arabic_Syrian [apc],33,37,#B1444F,Afro-Asiatic ,Semitic,Syria
Arabic_Traras-Msirda [ary-3],35.18,-1.65,#875555,Afro-Asiatic ,Semitic,Algeria
Arabic_Tunisian [aeb],36,10,#B34949,Afro-Asiatic ,Semitic,Tunisia
Arabic_Yemeni [jye],14,47,#915254,Afro-Asiatic ,Semitic,Yemen
Arabic_Yemeni_Adeni [acq],11.5,43,#8B565E,Afro-Asiatic ,Semitic,Yemen
Arabic_Yemeni_Hadhrami [ayh],16.67,49.5,#9E4659,Afro-Asiatic ,Semitic,Yemen
Arabic_Yemeni_Tihamiyya [arb-6],13.083,43.833,#835159,Afro-Asiatic ,Semitic,Yemen
Arabic_Yemeni_Zabidi [acq-2],14.2,43.317,#A24559,Afro-Asiatic ,Semitic,Yemen
Arabic; North Israel Bedouin [ajp-12],32.83,35.33,#BA4245,Afro-Asiatic ,Semitic,Israel
Aragonese [arg],41,-1,#637168,Indo-European ,Romance,Spain
Araki [akr],-15.629,166.957,#65775D,Oceanic,Southern Oceanic,Vanuatu
Arakmbut [hug],-13.27,-71.21,#488964,Harakmbet ,Harakmbut,Peru
Aralle-Tabulahan [atq],-2.756,119.203,#407C71,Malayo-Polynesian,Greater South Sulawesi,Indonesia-Sulawesi
Arammba [stk],-8.25,141.5,#928C53,South New Guinea ,West Morehead River,Papua New Guinea
Arandai [jbj],-2.17,133,#45797B,Trans New Guinea ,South Birds Head,Indonesia-Papua
Aranese [oci-4],42.7,0.795,#976E5D,Indo-European ,Romance,Spain
Araona [aro],-12.333,-67.75,#477079,Tacanan ,Araona-Tacana,Bolivia
Arapaho [arp],39.565,-105.345,#6A757F,Algic ,Algonquian,USA
Arapesh_Muhiang [aoj],-3.564,142.9,#4C6E7A,Torricelli ,Kombio-Arapesh,Papua New Guinea
Arara_do_Acra [mcd-2],-8.841,-72.315,#3C7772,Panoan ,Main Panoan,Brazil
Arara_do_Mato_Grosso [mcd-3],-9.5,-60,#6A835A,Arara_do_Mato_Grosso ,,Brazil
Arara_do_Para [aap-2],-4.24,-53.34,#367C77,Cariban ,Pekodian,Brazil
Arára_Pará [aap],-4.2422,-53.3745,#3C7285,Cariban ,Pekodian,Brazil
Araucanian lg [arn-2],-43,-73.5,#716E81,Araucanian ,,Chile
Arawak [arw],-8,-37.3,#4F7D6E,Arawak  ,Northern Maipuran,Brazil
Araweté [awt],-4.142017,-52.416914,#397B73,Tupian ,Tupi-Guarani,Brazil
Arbanasi [aln-3],44.11,15.23,#938056,Indo-European ,Albanian,Croatia
Arbëresh [als-3],37.995,13.283,#C47554,Indo-European ,Albanian,Italy
Arbore [arv],4.92,36.8,#A49B74,Afro-Asiatic ,Cushitic,Ethiopia
Archi [aqc],42.07,46.86,#BA2992,Nakh-Daghestanian ,Lezgic,Russia
Arctic Bay_Inuit [ikt-5],73.036,-85.15,#49657D,Eskimo-Aleut ,Eskimo,Canada
Are [mwc],-9.67,150,#37757E,Oceanic,Western Oceanic,Papua New Guinea
Are'are [alu],-9.342,161.203,#4D7878,Oceanic,Southeast Solomonic,Solomons
Arem [aem],18.15,105.5,#F0A884,Austroasiatic ,Vietic,Laos
Argobba [agj],8.9,39.92,#9A6970,Afro-Asiatic ,Semitic,Ethiopia
Arguni [agf],-2.667,132.5,#72809B,Malayo-Polynesian,Eastern Malayo-Polynesian,Indonesia-Papua
Ari [aac],-7.916,142.34,#2F7F79,Papuan Gulf ,Gogodala-Suki,Papua New Guinea
Aribwatsa [laz],-6.667,146.917,#4F777F,Oceanic,Western Oceanic,Papua New Guinea
Aribwaungg [ylu],-6.592,146.874,#827398,Oceanic,Western Oceanic,Papua New Guinea
Arifama-Miniafia [aai],-9.142,149.279,#2E7B78,Oceanic,Western Oceanic,Papua New Guinea
Arikapu [ark],-13,-62.5,#43845C,Macro-Je ,Jabutí,Brazil
Arikara [ari],40,-97,#337478,Caddoan ,Northern Caddoan,USA
Aringa [luc],3,31,#B09B8D,Nilo-Saharan ,Central Sudanic,Uganda
Aritinngithigh [rrt],-13,141.67,#738482,Pama-Nyungan ,Paman,Australia
Arizona Tewa [tew],35.8,-110.4,#8F7C79,Kiowa-Tanoan ,Tewa,USA
Armenian [hye],40,45,#81656D,Indo-European ,Armenian,Armenia
Armenian_Agulis [hye-5],38.95,45.98,#8A607E,Indo-European ,Armenian,Azerbaijan
Armenian_Aslanberg [hye-9],41.2,30.5,#7A6579,Indo-European ,Armenian,Turkey
Armenian_Kharpert [hye-8],38.67,39.22,#8A607E,Indo-European ,Armenian,Armenia
Armenian_Khodorjur [hye-4],40.73,41.2,#80686F,Indo-European ,Armenian,Turkey
Armenian_Malatya [hye-7],38.35,38.3,#7E6579,Indo-European ,Armenian,Turkey
Armenian_Sebastia [hye-6],39.75,37.02,#8D666E,Indo-European ,Armenian,Armenia
Armenian_Van [hye-10],38.49,43.38,#7A5F7F,Indo-European ,Armenian,Turkey
Armenian_Western [hye-2],40,40,#786978,Indo-European ,Armenian,Turkey
Armenian_Yerevan [hye-11],40.18,44.52,#8A5B80,Indo-European ,Armenian,Armenia
Aromanian [rup],42,23,#7B745B,Indo-European ,Romance,Bulgaria
Aromanian-2 [rup-2],39.77,21.1,#AD874A,Indo-European ,Romance,Greece
Arop-Lokep [apr],-5.333,147.083,#3F7A79,Oceanic,Western Oceanic,Papua New Guinea
Arosi [aia],-10.333,161.5,#676585,Oceanic,Southeast Solomonic,Solomons
Arpitan [frp-4],45.17,5.72,#BE7F53,Indo-European ,Romance,France
Arrernte_Central [are],-22.85,133.7,#7B72A4,Pama-Nyungan ,Arandic,Australia
Arrernte_Eastern [are-2],-23.292,134.445,#8B7F96,Pama-Nyungan ,Arandic,Australia
Arrernte_Mparntwe [aer],-24,136,#846FA3,Pama-Nyungan ,Arandic,Australia
Arrernte_Pertame [xxx-82],-24.5,132,#8D7E96,Pama-Nyungan ,Arandic,Australia
Arvanitika [als-2],38.42,23.08,#D08258,Indo-European ,Albanian,Greece
As [asz],-0.722,131.787,#607975,Malayo-Polynesian,Eastern Malayo-Polynesian,Indonesia-Papua
Asaro_Upper [aso],-5.967,145.292,#60808A,Trans New Guinea ,Morobe-Eastern Highlands,Papua New Guinea
Asharon [acz],10.8,30.3,#7A9B99,Talodi-Heiban ,Talodi,Sudan
Ashe [ahs],9.37,7.39,#979388,Niger-Kongo ,Atlantic-Congo,Nigeria
Asheninka_Apurucayali [cpc],-10.018,-74.793,#447280,Arawak ,Southern Maipuran,Peru
Ashéninka_Perené [prq],-10.8734,-75.245,#886F5C,Arawak ,Southern Maipuran,Peru
Ashéninka_Pichis [cpu],-9.9833,-74.9833,#946D61,Arawak ,Southern Maipuran,Peru
Ashéninka_Ucayali-Yurúa [cpb],-10.1619,-74.0234,#9D655C,Arawak ,Southern Maipuran,Brazil
Ashkun [ask],34.84,70.37,#6D718C,Indo-European ,Indo-Iranian,Afghanistan
Ashuku [nza-2],6.98,10.71,#85B460,Niger-Kongo ,Atlantic-Congo,Nigeria
Ashuslay [cag-2],-23.5,-60.5,#816F72,Matacoan ,Mataguayo I,Paraguay
Asi [bno-2],12.95,122.08,#36787D,Malayo-Polynesian,Malayo-Sumbawan,Philippines
Asienara [asi],-3.75,133.33,#32787B,Trans New Guinea ,Asmat-Kamoro,Indonesia-Papua
Asmat [asc],-5.3,138.3,#2F7975,Trans New Guinea ,Asmat-Kamoro,Indonesia-Papua
Asmat_North [nks],-5,138.5,#2B7D75,Trans New Guinea ,Asmat-Kamoro,Indonesia-Papua
Assiniboine [asb],49,-100,#66557B,Siouan ,Western Siouan,Canada
Asturian [ast],43.33,-6,#69746B,Indo-European ,Romance,Spain
Asuri [asr],23.04,84.54,#846E78,Austroasiatic ,Munda,India
Asurini [asu],-3.3,-49.3,#53717E,Tupian ,Tupi-Guarani,Brazil
Asuriní_Tocantins [asu-2],-3.3,-50,#2E7A7A,Tupian ,Tupi-Guarani,Brazil
Asuriní_Xingú [asn-2],-4.13,-52.32,#52727D,Tupian ,Tupi-Guarani,Brazil
Ata [ata],-5.667,151,#587076,Ata ,,Papua New Guinea-Bismarcks
Ata_Manobo [atd],7.845,125.506,#3E7A74,Malayo-Polynesian,Philippines,Philippines
Atacameño [kuz],-23,-69,#97587D,Atacameño  ,,Chile
Atadei [slp-4],-8.46,123.555,#587E78,Malayo-Polynesian,Timoric,Indonesia-NTT
Atakapa [aqp],30,-93,#7B6A72,Atakapa ,,USA
Atamanu [jal],-3.396,129.313,#467D6E,Malayo-Polynesian,Central Maluku,Indonesia-Maluku-north
Atampaya [amz],-11.33,142.5,#877A8B,Pama-Nyungan ,Paman,Australia
Atayal [tay],24.5,121,#7E5F7C,Austronesian ,Atayalic,Taiwan
Atchin [upv],-16,167.333,#867889,Oceanic,Southern Oceanic,Vanuatu
Ateso [teo],1.915,33.955,#999E82,Nilo-Saharan ,Nilotic,Uganda
Athpare [aph],26.75,87.33,#75885E,Tibeto-Burman ,Kiranti,Nepal
Atikamekw [atj],48,-74,#467571,Algic ,Algonquian,Canada
Atong [aot],25.5,90.5,#597F72,Tibeto-Burman ,Bodo-Garo,India
Atsawaka [atc],-14.17,-69.5,#457F6D,Panoan ,Main Panoan,Peru
Atsi [atb-2],28,93.5,#B69FA2,Tibeto-Burman ,Lolo-Burmese,India
Atsugewi [atw],40.75,-121,#905889,Palaihnihan ,,USA
Atta_Pamplona-1 [att-2],18.46,121.341,#437974,Malayo-Polynesian,Philippines,Philippines
Atta_Pamplona-2 [att],18.458,121.342,#417B73,Malayo-Polynesian,Philippines,Philippines
Attie [ati],6,-3.82,#ABC791,Niger-Kongo ,Atlantic-Congo,Côte d'Ivoire
Au [avt],-3.5,142.083,#657C68,Torricelli ,Central,Papua New Guinea
Auhelawa [kud],-10.284,151.02,#4D6AA4,Oceanic,,Papua New Guinea
Aulua [aul],-16.33,167.694,#937BAE,Oceanic,Southern Oceanic,Vanuatu
Aurland [nob-3],60.87,7.23,#BC9D6E,Indo-European ,Germanic,Norway
Austral [aut],-23.377,-149.498,#357873,Oceanic,Central Pacific,French Polynesia
Auyana [auy],-6.523,145.708,#4C9092,Trans New Guinea ,Morobe-Eastern Highlands,Papua New Guinea
Auye [auu],-3.495,136.002,#2D9191,Trans New Guinea ,Western Trans New Guinea,Indonesia-Papua
Avá-Canoeiro [avv],-13.166403,-47.928611,#397973,Tupian ,Tupi-Guarani,Brazil
Avar [ava],42.54,46.7,#974C89,Nakh-Daghestanian ,Avar-Andi,Russia
Avatime [avn],6.85,0.44,#B78996,Niger-Kongo ,Atlantic-Congo,Ghana
Avava [tmb],-16.224,167.523,#A170B5,Oceanic,Southern Oceanic,Vanuatu
Aveteian [xxx-101],-16.443,167.43,#728298,Oceanic,Southern Oceanic,Vanuatu
Avikam [avi],5.16,-5.25,#7EA284,Niger-Kongo ,Atlantic-Congo,Côte d'Ivoire
Avok [xxx-37],-16.53,167.7,#AA77C1,Oceanic,Southern Oceanic,Vanuatu
Avok_Maxbaxo [xxx-172],-16.496,167.665,#9F75BB,Oceanic,Southern Oceanic,Vanuatu
Avokaya [avu],5,30.2,#B2A798,Nilo-Saharan ,Central Sudanic,Sudan
Awa [awb],-6.75,145.667,#449E9E,Trans New Guinea ,Morobe-Eastern Highlands,Papua New Guinea
Awa Pit [kwi],0.75,-78.5,#797371,Barbacoan ,Northern Barbacoan,Ecuador
Awabakal [awk],-33.05,151.55,#4B7A7C,Pama-Nyungan ,Yuin-Kuri,Australia
Awad Bing [bcu],-5.584,146.349,#427978,Oceanic,Western Oceanic,Papua New Guinea
Awadhi [awa],27.5,81.5,#C3854C,Indo-European ,Indo-Iranian,India
Awak [awo],9.86,11.33,#CBB391,Niger-Kongo ,Atlantic-Congo,Nigeria
Awar [aya],-4,144.625,#8F9153,Lower Sepik-Ramu ,Ramu,Papua New Guinea
Awara [awx],-6.094,146.441,#5975A0,Oceanic,Western Oceanic,Papua New Guinea
Awbono [awh],-5.119,139.201,#4D7965,Bayono-Awbono ,,Indonesia-Papua
Aweer [bob-2],-1.717,40.967,#7C727B,Afro-Asiatic ,Cushitic,Kenya
Awera [awr],-2.677,136.242,#227E78,Lakes Plains ,Western Lakes Plains,Indonesia-Papua
Awetí [awe],-12.926,-54.277,#3F7C7F,Tupian ,Aweti,Brazil
Awiakay [afp-2],-4.672,143.712,#5C788C,Arafundi ,,Papua New Guinea
Awin [awi],-5.833,142.5,#488192,Trans New Guinea ,Awin-Pa,Papua New Guinea
Awing [azo],5.88,10.24,#639161,Niger-Kongo ,Atlantic-Congo,Cameroon
Awiya [som-2],10.851,36.892,#B69DA1,Afro-Asiatic ,Cushitic,Ethiopia
Awngi [awn],10.83,36.67,#AD6AB4,Afro-Asiatic ,Cushitic,Ethiopia
Awngthim [gwm],-12.54,141.98,#8B8977,Pama-Nyungan ,Paman,Australia
Awtuw [kmn],-3.5,141.917,#5E8E5F,Sepik ,Ram,Papua New Guinea
Awutu [afu],5.42,-0.6,#9CBB71,Niger-Kongo ,Atlantic-Congo,Ghana
Awyi [auw],-3,140.75,#417C7C,Trans New Guinea ,Border,Papua New Guinea
Axamb [ahb],-16.507,167.703,#9574A1,Oceanic,Southern Oceanic,Vanuatu
Axi [yix-2],24.4,103.44,#AB9D8F,Tibeto-Burman ,Lolo-Burmese,China
Axininca [cpc-2],-9,-75,#756A7C,Arawak ,Southern Maipuran,Peru
Axvax [akv],42.379,46.384,#965A73,Nakh-Daghestanian ,Avar-Andi,Russia
Ayere [aye],7.52,6.02,#A0917A,Niger-Kongo ,Volta-Niger,Nigeria
Aymara [ayr],-16,-69.5,#6C5681,Aymaran ,,Peru
Aymara_Carangas [ayr-3],-18.45,-67.45,#7A5781,Aymaran ,,Bolivia
Aymara_Chile [ayc],-19.15,-69.4,#855171,Aymaran ,,Chile
Aymara_Muylaq' [ayr-2],-16.675,-70.712,#6E5784,Aymaran ,,Peru
Äynu [aib],38.069,76.227,#63686C,Turkic ,South-east Turkic,China
Ayoré [ayo],-20.5,-59.25,#54807D,Zamucoan ,,Paraguay
Ayu [ayu],9.26,8.6,#A2AA92,Niger-Kongo ,Atlantic-Congo,Nigeria
Azerbaijani [azj],40.5,48.5,#8A636B,Turkic ,South-west Turkic,Azerbaijan
Azerbaijani_Tabriz [azj-3],38.07,46.3,#78656C,Turkic ,South-west Turkic,Azerbaijan
Azeri [azb],40.67,47.75,#836872,Turkic ,South-west Turkic,Azerbaijan
Azha [aza],23.37,104.25,#BBA08C,Tibeto-Burman ,Lolo-Burmese,China
Azhe [yiz],24.2,103.6,#C2969A,Tibeto-Burman ,Lolo-Burmese,China
Ba:ngingi_Sama [sse],6.133,121.805,#7E757A,Malayo-Polynesian,Barito,Philippines
Baagandji [drl],-32,142.533,#6F7797,Pama-Nyungan ,Yarli-Baagandji,Australia
Baangi [bqx],10.81,5.73,#D0A375,Niger-Kongo ,Atlantic-Congo,Nigeria
Baarin [mon-4],43.53,118.67,#A3785B,Mongolic ,Core Mongolic,China
Baatonum [bba-2],9.63,3,#668D7B,Niger-Kongo ,Atlantic-Congo,Benin
Baba [bbw],6.11,10.52,#9AA163,Niger-Kongo ,Atlantic-Congo,Cameroon
Babanki [bbk],6.104,10.311,#B1A186,Niger-Kongo ,Atlantic-Congo,Cameroon
Babar_North [bcd],-7.83,129.58,#358072,Malayo-Polynesian,Southeast Maluku,Indonesia-Maluku-south
Babar_Southeast [vbb],-7.92,129.67,#487B6E,Malayo-Polynesian,Southeast Maluku,Indonesia-Maluku-south
Babatana [baa],-7.397,157.37,#5A797C,Oceanic,Western Oceanic,Solomons
Babine-Witsuwit'en [bcr],55,-127,#BF5E88,Dene-Yeniseic ,Na-Dene,Canada
Babungo [bav],6.12,10.42,#B5D09F,Niger-Kongo ,Atlantic-Congo,Cameroon
Babuza [bzg-2],24,120.58,#487C6B,Austronesian ,East Formosan,Taiwan
Bachamal [xxx-72],-13.17,130.17,#768481,Wagaydyic ,Wadjiginy,Australia
Bada [bhz],-1.793,120.313,#6F7B85,Malayo-Polynesian,Celebic,Indonesia-Sulawesi
Bade [bde],12.79,10.66,#D16A96,Afro-Asiatic ,Chadic,Nigeria
Bade-2 [],12,12,#BE6485,Afro-Asiatic ,Chadic,Nigeria
Badimaya [bia],-27.667,119,#877890,Pama-Nyungan ,Kardu,Australia
Badjala [xby],-25.084,152.529,#677E79,Pama-Nyungan ,Waka-Kabic,Australia
Badyara [pbp],11.633,-13.4,#967782,Niger-Kongo ,Atlantic-Congo,Guinea
Baelelea [bvc],-8.453,160.66,#84709E,Oceanic,Southeast Solomonic,Solomons
Baenggu [bvd],-8.506,160.706,#7771A0,Oceanic,Southeast Solomonic,Solomons
Baetora [btr],-15.258,168.166,#4D6494,Oceanic,Southern Oceanic,Vanuatu
Bafang [cmn-76],35.6,103.217,#A8B481,Tibeto-Burman ,Sinitic,China
Bafanji [bfj-2],5.84,10.46,#CE947B,Niger-Kongo ,Atlantic-Congo,Cameroon
Bafo [bwt],6.351,10.229,#A9AC91,Niger-Kongo ,Atlantic-Congo,Cameroon
Bafut [bfd],6.083,10.0999,#DE7E7E,Niger-Kongo ,Atlantic-Congo,Cameroon
Baga_Koga [bgo],10.13,-13.95,#92A387,Niger-Kongo ,Atlantic-Congo,Guinea
Baga_Mboteni [bcg],10.83,-14.55,#607B68,Niger-Kongo ,Atlantic-Congo,Guinea
Baga_Sitemu [bsp],10.48,-14.48,#9E9073,Niger-Kongo ,Atlantic-Congo,Guinea
Bagheli [bfy],24.35,81.43,#C59532,Indo-European ,Indo-Iranian,India
Bagirmi [bmi],10.2,17,#B48B8E,Nilo-Saharan ,Central_Sudanic,Chad
Bagri [bgq],29.6,74.3,#C3A985,Indo-European ,Indo-Iranian,India
Bagulal [kva],42.56,46.17,#865A83,Nakh-Daghestanian ,Avar-Andi,Russia
Bagusa [kwe-3],-1.905,137.932,#5A6A7E,Kwerba ,Nuclear Kwerba,Indonesia-Papua
Baharnah [afb-2],26.03,50.55,#954C5C,Afro-Asiatic ,Semitic,Bahrain
Bahinemo [bjh],-4.435,142.726,#438366,Sepik ,Sepik Hill,Papua New Guinea
Bahing [bhj],27.27,86.56,#B19D43,Tibeto-Burman ,Kiranti,Nepal
Bahnar [bdq],14,108.5,#747983,Austroasiatic ,Bahnaric,Vietnam
Bai [bca],26,100,#A8C38D,Tibeto-Burman ,Bai,China
Bai_Eryuan [bca-2],26.12,99.95,#B2C28E,Tibeto-Burman ,Bai,China
Bai_Heqing [bca-3],26.56,100.18,#ADC78C,Tibeto-Burman ,Bai,China
Bai_Lanping [bca-4],26.45,99.42,#A6C890,Tibeto-Burman ,Bai,China
Bai_Luobenzhuo [bca-5],26.42,98.89,#D1B894,Tibeto-Burman ,Bai,China
Bai_Qiliqiao [bca-6],25.65,100.18,#A5CA8F,Tibeto-Burman ,Bai,China
Bai_Xiangyun [bca-7],25.48,100.55,#A3CB90,Tibeto-Burman ,Bai,China
Bai_Yunlong [bca-8],25.88,99.37,#B1C88B,Tibeto-Burman ,Bai,China
Bai_Zhoucheng [bca-9],24.48,101.34,#A9CA90,Tibeto-Burman ,Bai,China
Baikeno [bkx],-9.3,124.32,#3A7478,Malayo-Polynesian,Timoric,Timor leste
Baima [bqh],30.32,107.34,#C7BE86,Tibeto-Burman ,Bodic,China
Bainapi [dby],-7.904,142.715,#347D73,Papuan Gulf ,Strickland,Papua New Guinea
Baining [gcc-2],-4.6,152,#5F8B5F,Baining ,,Papua New Guinea-Bismarcks
Baiso [bsw-2],6.45,37.77,#9E6D7F,Afro-Asiatic ,Cushitic,Somalia
Bajau_Semporna [ssb],4.5,118.5,#747964,Malayo-Polynesian,Barito,Indonesia-Kalimantan
Bajau_Sulawesi [bdl],-3.75,122.5,#617E6D,Malayo-Polynesian,Barito,Indonesia-Sulawesi
Bajuni [swh-3],-1,42.04,#A88570,Niger-Kongo ,Bantoid,Comoros
Baka [bdh],4.8,31.6,#B3949A,Nilo-Saharan ,Central Sudanic,Sudan
Baka [bkc],2.16,13.78,#AEAF9B,Ubangian ,Sere-Mba,Cameroon
Bakairí [bkq],-14,-55,#437375,Cariban ,Pekodian,Brazil
Bakairí_West [bkq-2],-14.7302,-56.2479,#47786C,Cariban ,Pekodian,Brazil
Bakaka [bqz],4.8,9.8,#A5837A,Niger-Kongo ,Atlantic-Congo,Cameroon
Bakhtiari [ldd],31.92,50.86,#716371,Indo-European ,Indo-Iranian,Iran
Baki [bki],-16.717,168.138,#75749F,Oceanic,Southern Oceanic,Vanuatu
Bakoko [bkh],4.2,9.67,#C8AC8C,Niger-Kongo ,Atlantic-Congo,Cameroon
Bakole [kme],4.44,8.97,#A19BA5,Niger-Kongo ,Atlantic-Congo,Cameroon
Balami [new-3],27.8,85.25,#9A8B4B,Tibeto-Burman ,Newaric,Nepal
Balangao [blw],17.167,120.333,#657771,Malayo-Polynesian,Philippines,Philippines
Balanta [ble],12,-15,#AD9386,Niger-Kongo ,Atlantic-Congo,Guinea-Bissau
Balantak [blz],-0.82,123.431,#5D7B6F,Malayo-Polynesian,Celebic,Indonesia-Sulawesi
Balante_Sofa [bjt],12.54,-15.67,#B79F7F,Niger-Kongo ,Atlantic-Congo,Guinea-Bissau
Balearic [cat-3],39.5,3,#907364,Indo-European ,Romance,Spain
Balendru [led],1.968,30.485,#D0957E,Nilo-Saharan ,Central_Sudanic,Democratic Republic of the Congo
Bali-Vitu [wiv],-4.733,149.283,#427781,Oceanic,Western Oceanic,Papua New Guinea-Bismarcks
Balinese [ban],-8.583,115.25,#819551,Malayo-Polynesian,Malayo-Sumbawan,Indonesia-NTB
Balingian [mel-6],2.92,112.53,#767E69,Malayo-Polynesian,Malayo-Sumbawan,Malaysia-Borneo
Balochi [bgp-2],27,63.5,#8E7763,Indo-European ,Indo-Iranian,Pakistan
Balti [bft],35.2,76,#B56D75,Tibeto-Burman ,Bodic,Pakistan
Baluchi [bgp],28,62,#9E6B6B,Indo-European ,Indo-Iranian,Iran
Bambalang [bmo],5.86,10.54,#DA85AB,Niger-Kongo ,Atlantic-Congo,Cameroon
Bambara [bam],12.5,-7.5,#9B8D71,Mande ,Western Mande,Mali
Bamenyam [bce],5.77,10.33,#9A9C63,Niger-Kongo ,Atlantic-Congo,Cameroon
Bamu [bcf],-8,143.833,#347877,Kiwaian ,Bamu,Papua New Guinea
Bamun [bax],5.726,10.904,#CB9C8C,Niger-Kongo ,Atlantic-Congo,Cameroon
Bamunka [bvm],6,10.51,#96905A,Niger-Kongo ,Atlantic-Congo,Cameroon
Bana [bcw],10.42,13.58,#C169AD,Afro-Asiatic ,Chadic,Cameroon
Banam Bay [vrt-2],-16.41,167.78,#7D76AD,Oceanic,Southern Oceanic,Vanuatu
Banda [bnd],-5.25,133.17,#61836E,Malayo-Polynesian,Central Maluku,Indonesia-Maluku-north
Banda [bpd],2,22,#A99DA2,Ubangian ,Banda,Central African Republic
Banda_Ndele [bfl],8.03,23.9,#B8A697,Ubangian ,Banda,Central African Republic
Bandi [bza],7.74,-10.17,#BA9F8C,Mande ,Western Mande,Liberia
Bandiaal [bqj],13.02,-15.32,#4D7A81,Niger-Kongo ,Atlantic-Congo,Senegal
Bandjalang [bdy],-28.75,153,#547684,Pama-Nyungan ,Yugambeh-Bundjalung,Australia
Bandjalang-2 [bdy-2],-28.39,152.61,#4F7A80,Pama-Nyungan ,Yugambeh-Bundjalung,Australia
Bandjalang-Gidabal [bdy-3],-28.25,152,#4F767D,Pama-Nyungan ,Yugambeh-Bundjalung,Australia
Banggai [bgz],-1.42,123.17,#667B83,Malayo-Polynesian,Celebic,Indonesia-Sulawesi
Banggime [dbb],14.78,-3.76,#ADA389,Banggime ,,Mali
Bangolan [bgj],6.05,10.45,#6D9662,Niger-Kongo ,Atlantic-Congo,Cameroon
Bangru [hru-3],27.9,93.35,#58836A,Tibeto-Burman ,Hrusish,India
Bangubangu [bnx],-4.689,27.693,#607C6B,Niger-Kongo ,Atlantic-Congo,Democratic Republic of the Congo
Baniwa_Central [bwi-2],1.4091,-68.1358,#667B7E,Arawak ,Northern Maipuran,Brazil
Baniwa_do_Içana [bwi],2.18,-67.77,#84886A,Arawak ,Northern Maipuran,Brazil
Baniwa_Rio_Negro [bwi-3],0.053,-67.43,#79727E,Arawak ,Northern Maipuran,Brazil
Banjar [bjn],0.75,115.79,#5C7F68,Malayo-Polynesian,Malayo-Sumbawan,Indonesia-Kalimantan
Banjari [lmn-2],16.5,77.455,#787D74,Indo-European ,Indo-Iranian,India
Bankariya [cdm-2],27.5,85,#AB9A42,Tibeto-Burman ,Chepang,Nepal
Bankon [abb],4.37,9.64,#B097BD,Niger-Kongo ,Atlantic-Congo,Cameroon
Banoni [bcm],-6.417,155.25,#4C7574,Oceanic,Western Oceanic,Papua New Guinea-Bougainville
Bantang [pho-5],21.75,102.25,#B1BA82,Tibeto-Burman ,Lolo-Burmese,Laos
Bantawa [bap],27.2,87.1,#83895E,Tibeto-Burman ,Kiranti,Nepal
Banten [sun-2],-6.35,106.1,#697E71,Malayo-Polynesian,Malayo-Sumbawan,Indonesia-Java
Bantik [bnq],1.564,124.859,#4C7780,Malayo-Polynesian,Celebic,Indonesia-Sulawesi
Bantoanon [bno],12.784,122.049,#407A73,Malayo-Polynesian,Philippines,Philippines
Banyaduq [byd],0.5,110,#70806F,Malayo-Polynesian,Malayo-Sumbawan,Indonesia-Kalimantan
Banyum [bab],11.5,-16.5,#A27970,Niger-Kongo ,Atlantic-Congo,Guinea-Bissau
Banyun [bcb-2],12.75,-16.3,#9D7B71,Niger-Kongo ,Atlantic-Congo,Senegal
Baoan [peh],35.05,102.1,#BC6875,Mongolic ,Core Mongolic,China
Baoan [yue-12],22.55,113.9,#96C991,Tibeto-Burman ,Sinitic,China
Baoan_Dahejia [peh-2],35.72,102.88,#7D7571,Mongolic ,Core Mongolic,China
Baoan_Dongxiang [peh-5],35.6,103.22,#917272,Mongolic ,Core Mongolic,China
Baoan_Kangjia [peh-4],35.04,101.25,#987370,Mongolic ,Core Mongolic,China
Baoan_Ñantoq [peh-3],35.41,102.08,#A9756C,Mongolic ,Core Mongolic,China
Bará [bao],0.1,-70.45,#247C7A,Tucanoan ,East Tucanoan,Colombia
Baraba [tat-2],55.333,78.333,#6F6B68,Turkic ,North-west Turkic,Russia
Barai [bbb],-9.417,148,#48797D,Southeast Papuan ,Owen Stanley Ranges,Papua New Guinea
Barain_Giliya [bva-2],12.08,18.58,#518779,Afro-Asiatic ,Chadic,Chad
Barain_Jalking [bva-3],12.22,18.8,#4F8879,Afro-Asiatic ,Chadic,Chad
Barain_Jalkiya [bva],12.18,18.68,#868888,Afro-Asiatic ,Chadic,Chad
Barain_Komiya [bva-4],12.17,18.75,#658687,Afro-Asiatic ,Chadic,Chad
Baram [brd],27.95,85,#8B9051,Tibeto-Burman ,Western Himalayan,Nepal
Barang-barang [lji],-6.4,120.5,#73797A,Malayo-Polynesian,Greater South Sulawesi,Indonesia-Sulawesi
Barapasi [brp],-2.247,136.995,#4D8D91,Geelvink Bay ,,Indonesia-Papua
Barasano [bsn],-0.25,-70.75,#368288,Tucanoan ,East Tucanoan,Colombia
Bardi [bcj],-16.58,122.92,#797490,Nyulnyul ,West Nyulnyul,Australia
Baré [bae],1.6,-66.8,#7E767E,Arawak ,Northern Maipuran,Venezuela
Bareke [mpr],-8.543,158.113,#697970,Oceanic,Western Oceanic,Solomons
Bargam [mlp-2],-4.87,145.76,#5D7E67,Trans New Guinea ,Madang,Papua New Guinea
Bari [bfa],3.8,31,#B58BAB,Nilo-Saharan ,Nilotic,South Sudan
Barí [mot],9,-73.5,#40857E,Chibchan ,Core Chibchan,Venezuela
Bariai [bch],-5.497,148.63,#468669,Oceanic,,Papua New Guinea
Bariba [bba],10.217,2.667,#7DAE9B,Niger-Kongo ,Atlantic-Congo,Benin
Bariji [bjc],-9.211,148.401,#3F7E6B,Southeast Papuan ,Owen Stanley Ranges,Papua New Guinea
Barok [bjk],-3.48,152.19,#5C7575,Oceanic,Western Oceanic,Papua New Guinea-Bismarcks
Barranquenho [por-2],38.13,-6.975,#7E864B,Indo-European ,Romance,Portugal
Barrow_Point [bpt],-14.373,144.63,#747794,Pama-Nyungan ,Paman,Australia
Baruga [bjz],-9.328,148.734,#447875,Trans New Guinea ,Oro-Wharton,Papua New Guinea
Barunggam [xxx-64],-26.25,151.25,#527A7E,Pama-Nyungan ,Waka-Kabic,Australia
Barupu [wra],-3.083,142.083,#7CDF9B,Skou ,Eastern Skou,Papua New Guinea
Baruya [byr],-6.917,145.833,#5F9183,Trans New Guinea ,Morobe-Eastern Highlands,Papua New Guinea
Basaa [bas],5,10.15,#B199B3,Niger-Kongo ,Atlantic-Congo,Cameroon
Basari [bsc],12.25,-13,#CC6DB2,Niger-Kongo ,Atlantic-Congo,Senegal
Basay [byq-2],25,121.86,#5C7773,Austronesian ,East Formosan,Taiwan
Basay_Trobriawan [byq],25,122,#3C7E73,Austronesian ,East Formosan,Taiwan
Basel [gsw-4],47.56,7.59,#BC8252,Indo-European ,Germanic,Switzerland
Bashkarik [gwc-2],35.358,72.137,#C66D76,Indo-European ,Indo-Iranian,Pakistan
Bashkir [bak],53,58,#906C6B,Turkic ,North-west Turkic,Russia
Basila [ade],8.17,0.62,#AAAF9D,Niger-Kongo ,Atlantic-Congo,Benin
Basketo [bst],6.384,36.651,#AA5A6F,Afro-Asiatic ,Omotic,Ethiopia
Basque [eus],43.2,-3,#928F4C,Basque ,,Spain
Bassossi [bsi],5.24,9.52,#9A8F79,Niger-Kongo ,Atlantic-Congo,Cameroon
Bata [bta],9.7,12.5,#AC8D74,Afro-Asiatic ,Chadic,Nigeria
Batak_Dairi [btd],2.546,98.3,#527C6B,Malayo-Polynesian,Batak-Barrier Islands,Indonesia-Sumatra
Batak_Karo [btx],3,98.167,#648669,Malayo-Polynesian,Batak-Barrier Islands,Indonesia-Sumatra
Batak_Palawan [bya],10.115,119.214,#447B7B,Malayo-Polynesian,Philippines,Philippines
Batang [khg-5],30.57,98.97,#CDC574,Tibeto-Burman ,Bodic,China
Batanga [bnm],2.09,9.75,#949D87,Niger-Kongo ,Atlantic-Congo,Equatorial Guinea
Bateg [btq],5,102.5,#937A72,Austroasiatic ,Aslian,Malaysia
Bathari [bhm],17.6,56,#B55060,Afro-Asiatic ,Semitic,Oman
Batsbi [bbl-2],42.05,45.31,#9A516C,Nakh-Daghestanian ,Nakh,Georgia
Batuley [bay],-5.8,134.75,#497E6C,Malayo-Polynesian,Southeast Maluku,Indonesia-Maluku-south
Bau [bbd],-5.213,145.556,#4D7770,Trans New Guinea ,Madang,Papua New Guinea
Baukan_Murut [bnb],5.273,116.519,#3E7B75,Malayo-Polynesian,North Borneo,Malaysia-Borneo
Baule [bci],7.5,-5,#89A4A0,Niger-Kongo ,Atlantic-Congo,Côte d'Ivoire
Baure [brg],-15,-64,#3F7276,Arawak ,Southern Maipuran,Bolivia
Bauro [bxa],-10.647,161.858,#836BA2,Oceanic,Southeast Solomonic,Solomons
Bauzi [bvz],-2.5,137.667,#477877,Geelvink Bay ,,Indonesia-Papua
Bavarian [bar-3],46.73,12.28,#B1885E,Indo-European ,Germanic,Italy
Bawm [bgr],22.5,92.25,#DB9684,Tibeto-Burman ,Kuki-Chin-Naga,India
Bayso [bsw],6.28,37.76,#926177,Afro-Asiatic ,Cushitic,Somalia
Bayso-2 [bsw-3],6.456,37.745,#9F637E,Afro-Asiatic ,Cushitic,Ethiopia
Bayungu [bxj],-23.3,113.7,#7A759B,Pama-Nyungan ,Kanyara-Mantharta,Australia
Bduul [ajp-3],30.33,35.44,#AE4A4B,Afro-Asiatic ,Semitic,Syria
Bedamini [beo],-6.321,142.489,#287F74,Trans New Guinea ,Bosavi,Papua New Guinea
Bedayuh [bth],1.01,110.51,#647F70,Malayo-Polynesian,Land Dayak,Malaysia
Bedik [tnr],12.75,-12.467,#B19B7F,Niger-Kongo ,Atlantic-Congo,Senegal
Befang [bby],6.28,10.03,#C58575,Niger-Kongo ,Atlantic-Congo,Cameroon
Begak [dbj-2],5.25,118.833,#4B707E,Malayo-Polynesian,North Borneo,Malaysia-Borneo
Beihai [yue-6],21.47,109.1,#A2BF9A,Tibeto-Burman ,Sinitic,China
Beja [bej],18,36,#BD8A89,Afro-Asiatic ,Cushitic,Sudan
Bekwarra [bkv],6.74,8.86,#AD8F81,Niger-Kongo ,Atlantic-Congo,Nigeria
Bekwil [],1.72,14.65,#B38076,Niger-Kongo ,Atlantic-Congo,Cameroon
Bela [bxd-2],24.33,98.4,#9DB787,Tibeto-Burman ,Lolo-Burmese,Myanmar
Belait [beg],4.382,114.462,#5E7572,Malayo-Polynesian,North Borneo,Brunei
Belanda Boor [bxb],6.5,28,#9A9F80,Nilo-Saharan ,Nilotic,Sudan
Belarussian [bel],54,27,#A05A65,Indo-European ,Balto-Slavic,Belarus
Belep [yly],-19.75,163.67,#677ABB,Oceanic,Southern Oceanic,New Caledonia
Belhare [byw],27,87.25,#7B8270,Tibeto-Burman ,Kiranti,Nepal
Beli [blm],6.75,29.75,#A7BBB7,Nilo-Saharan ,Central Sudanic,Sudan
Bella Coola [blc],52.5,-126.67,#833EA1,Salish ,Bella Coola,Canada
Bellona [mnv-2],-11.296,159.79,#347A7E,Oceanic,Central Pacific,Solomons
Belneng [xxx-174],9.15,9.51,#AAB694,Afro-Asiatic ,Chadic,Nigeria
Bemal [bmh],-5.234,145.475,#3A7678,Trans New Guinea ,Madang,Papua New Guinea
Bemba [bem],-11,31,#94837A,Niger-Kongo ,Atlantic-Congo,Zambia
Bembe [bmb],-4,14,#87989A,Niger-Kongo ,Atlantic-Congo,Democratic Republic of the Congo
Bena [bez],-9.27,35.04,#A48A7B,Niger-Kongo ,Atlantic-Congo,Tanzania
Bena-Bena [bef],-6.114,145.567,#36777B,Trans New Guinea ,Morobe-Eastern Highlands,Papua New Guinea
Bench [bcq],7,35.75,#B2A28B,Afro-Asiatic ,Omotic,Ethiopia
Bende [bdp],-6,30.5,#919A84,Niger-Kongo ,Atlantic-Congo,Tanzania
Beng [nhb],7.83,-4.25,#A6B48C,Mande ,Eastern Mande,Côte d'Ivoire
Benga [bng],1.2,9.5,#8670A3,Niger-Kongo ,Atlantic-Congo,Equatorial Guinea
Bengali [ben],22.5,90,#767C69,Indo-European ,Indo-Iranian,Bangladesh
Bengali_Barisal [ben-8],22.7,90.37,#5A6B6F,Indo-European ,Indo-Iranian,Bangladesh
Bengali_east [ben-6],24.4,90.28,#677064,Indo-European ,Indo-Iranian,Bangladesh
Bengali_west [ben-7],23.4,89.45,#777D69,Indo-European ,Indo-Iranian,Bangladesh
Bengni [adi-3],28.66,93.37,#AA9066,Tibeto-Burman ,Macro-Tani,China
Beothuk [bue],48,-55,#6F726A,Beothuk ,,Canada
Berik [bkl],-2.25,138.92,#784DA9,Trans New Guinea ,Orya-Tor,Indonesia-Papua
Berlinerisch [deu-3],52.5,13.15,#C88E45,Indo-European ,Germanic,Germany
Bernese [gsw-3],46.83,7.62,#938664,Indo-European ,Germanic,Switzerland
Berom [bom-2],9.67,8.81,#80A26B,Niger-Kongo ,Atlantic-Congo,Nigeria
Berrichon [fra-15],47.08,2.38,#948B51,Indo-European ,Romance,France
Berta [wti],10.67,34.5,#BA868B,Nilo-Saharan ,Berta,Ethiopia
Besemah [pse],-4.2,103,#587A6D,Malayo-Polynesian,Malayo-Sumbawan,Indonesia-Sumatra
Bésiro [xxx-16],-16.6375,-61.9271,#417471,Arawak ,Southern Maipuran,Bolivia
Besoa [bep],-1.599,120.379,#6F7B85,Malayo-Polynesian,Celebic,Indonesia-Sulawesi
Betawi [bew],-6.21,107.02,#7C8B61,Malayo-Polynesian,Malayo-Sumbawan,Indonesia-Java
Bété [btg],6.25,-6.25,#A1A37C,Niger-Kongo ,Atlantic-Congo,Côte d'Ivoire
Bete [byf],7.05,9.748,#707F5A,Niger-Kongo ,Atlantic-Congo,Nigeria
Betta Kurumba [xub],11.58,76.55,#9C7B79,Dravidian ,South Dravidian,India
Bewani [pgi],-3.024,141.167,#348378,Trans New Guinea ,Border,Papua New Guinea
Bezhta [kap],42.133,46.128,#BF4C74,Nakh-Daghestanian ,Tsezic,Russia
Bhaṭe-sa zib [xxx-154],34.94,72.88,#B56F76,Indo-European ,Indo-Iranian,Afghanistan
Bhatibari [ben-4],26.48,89.54,#837772,Indo-European ,Indo-Iranian,India
Bhele [bhy],0.25,28.67,#84957B,Niger-Kongo ,Atlantic-Congo,Democratic Republic of the Congo
Bhili [bhb],22,73,#C78351,Indo-European ,Indo-Iranian,India
Bhili_Mahikantha [bhb-2],23.83,72.5,#CA904F,Indo-European ,Indo-Iranian,India
Bhoi [kha-5],25.9,91.88,#6A7D7A,Austroasiatic ,Khasi-Palaung,India
Bhojpuri [bho],26.8,85.3,#BA8261,Indo-European ,Indo-Iranian,India
Bhojpuri_Nagpuria [bho-4],23.36,85.33,#B88361,Indo-European ,Indo-Iranian,India
Bhojpuri_Northern [bho-2],26.76,83.37,#B88361,Indo-European ,Indo-Iranian,India
Bhojpuri_Western [bho-3],25.32,83.01,#B88361,Indo-European ,Indo-Iranian,India
Bhumij [muw],21.333,86.5,#BF7D6C,Austroasiatic ,Munda,India
Biafada [bif],11.47,-15.13,#B1929A,Niger-Kongo ,Atlantic-Congo,Guinea-Bissau
Biage [bdf],-9.158,147.664,#367E6F,Southeast Papuan ,Owen Stanley Ranges,Papua New Guinea
Biak [bhw],-1.14,136,#3C7A76,Malayo-Polynesian,Eastern Malayo-Polynesian,Indonesia-Papua
Biak-west [bhw-2],-0.835,135.59,#57A084,Malayo-Polynesian,Eastern Malayo-Polynesian,Indonesia-Papua
Biali [beh],11.04,1.08,#65957C,Niger-Kongo ,Atlantic-Congo,Benin
Bian_Marind [bpv],-7.222,140.548,#6A877B,Anim ,Marind-Yaqay,Indonesia-Papua
Biangai [big],-7.33,146.75,#477679,Trans New Guinea ,Oro-Wharton,Papua New Guinea
Biao [byk-3],23.9,112.2,#A7D69B,Tai-Kadai ,,China
Biao_Dagang [byk-2],23.81,112.135,#A7D098,Tai-Kadai ,,China
Biao_Yonggu [byk],23.72,112.07,#A8CE9A,Tai-Kadai ,,China
Biaomin Yao [bmt],23.6,111.75,#BAD68A,Hmong-Mien ,Mienic,China
Biatah [bth-2],1.264,110.32,#4F7E70,Malayo-Polynesian,Land Dayak,Indonesia-Kalimantan
Bidjara [bym],-24.5,146.592,#5B7F7C,Pama-Nyungan ,Greater Maric,Australia
Bierebo [bnk],-16.667,168.131,#8769B1,Oceanic,Southern Oceanic,Vanuatu
Bieria [brj],-16.807,168.194,#4E7C90,Oceanic,Southern Oceanic,Vanuatu
Bih [rad-2],12.48,108.025,#B49A56,Malayo-Polynesian,Malayo-Sumbawan,Vietnam
Bijago [bjg],11.28,-15.83,#939D70,Niger-Kongo ,Atlantic-Congo,Guinea-Bissau
Bijago_Orango [bjg-2],11.034,-16.146,#8D7C75,Niger-Kongo ,Atlantic-Congo,Guinea-Bissau
Bikele [biw],3.66,12.86,#AFA07E,Niger-Kongo ,Atlantic-Congo,Cameroon
Bikol [bcl],13.333,123.5,#497A7D,Malayo-Polynesian,Philippines,Philippines
Biksi [yet],-4.013,140.494,#457C79,Yetfa-Biksi ,,Papua New Guinea
Bila [bip],1.17,28.76,#93B59E,Niger-Kongo ,Atlantic-Congo,Democratic Republic of the Congo
Bilba [bpz],-10.67,123.34,#447A77,Malayo-Polynesian,Timoric,Indonesia-NTT
Bilbil [brz],-5.26,145.76,#427B7E,Oceanic,Western Oceanic,Papua New Guinea
Biliau [bcu-2],-5.65,146.3,#467680,Oceanic,,Papua New Guinea
Bilin [byn],15.9,38.3,#7460A7,Afro-Asiatic ,Cushitic,Eritrea
Bilinara [nbj],-16,131.667,#6B7494,Pama-Nyungan ,Ngumbin-Yapa,Australia
Biloxi [bll],32.25,-90,#77777F,Siouan ,Western Siouan,USA
Bilua [blb],-7.75,156.667,#537982,Solomons East Papuan ,,Solomons
Bima [bhp],-8.545,118.677,#897B78,Malayo-Polynesian,Bima,Indonesia-NTB
Bimin [bhl],-5.43,141.942,#3E8288,Trans New Guinea ,Ok,Papua New Guinea
Bimoba [bim],10.46,0.06,#B2A08D,Niger-Kongo ,Atlantic-Congo,Ghana
Bina [bmn],-10.249,149.683,#277D77,Oceanic,Western Oceanic,Papua New Guinea
Binandere [bhg],-8.167,147.917,#488183,Trans New Guinea ,Oro-Wharton,Papua New Guinea
Binbinga [wmb-2],-16.17,135,#716F92,Mirndi ,Ngurlun,Australia
Bine [bon],-9.05,142.884,#8F8948,Eastern Trans Fly ,,Papua New Guinea
Bini_Edo [bin],6.42,5.83,#A89B95,Niger-Kongo ,Atlantic-Congo,Nigeria
Bini-2 [bin-2],6.41,5.7,#BD877E,Niger-Kongo ,Atlantic-Congo,Nigeria
Binigura [pnv],-22.488,116.506,#7A759B,Pama-Nyungan ,Kanyara-Mantharta,Australia
Bininj Gun-Wok [gup],-12.5,133.75,#777494,Macro-Gunwinygu ,Gunwingyuan proper,Australia
Bintulu [bny],3.83,113.67,#717C5B,Malayo-Polynesian,North Borneo,Malaysia-Borneo
Binukid [bkd],8.3,125,#447B6F,Malayo-Polynesian,Philippines,Philippines
Binumarien [bjr],-6.25,146.08,#529CA0,Trans New Guinea ,Morobe-Eastern Highlands,Papua New Guinea
Binyang [cmn-36],23.22,108.82,#9CB985,Tibeto-Burman ,Sinitic,China
Bipi [biq],-2.109,146.4,#7F8081,Oceanic,Western Oceanic,Papua New Guinea
Birao [brr],-9.746,160.515,#597875,Oceanic,Southeast Solomonic,Solomons
Birgid [btf],13,27,#A58477,Afro-Asiatic ,Chadic,Sudan
Biri [bvi],7.55,6.233,#D1937A,Ubangian ,Sere-Mba,Nigeria
Biri [bzr],-20.5,146.5,#527E88,Pama-Nyungan ,Greater Maric,Australia
Birifor [biv],9.29,-2.73,#C19884,Niger-Kongo ,Atlantic-Congo,Ghana
Biritai [bqq],-3,137.6,#48C3AA,Lakes Plains ,Tariku,Indonesia-Papua
Birom [bom],9.67,8.83,#9B8F79,Niger-Kongo ,Atlantic-Congo,Nigeria
Bisa [bib],11.783,0.366,#7C93A0,Mande ,Eastern Mande,Burkina Faso
Bisayah_Sarawak [bsb],5.33,115.5,#66825F,Malayo-Polynesian,North Borneo,Malaysia-Borneo
Bishnupriya [bpy],25.08,92.92,#3B7B79,Indo-European ,Indo-Iranian,India
Bisiacco [vec-2],45.95,12.45,#8A934C,Indo-European ,Romance,Italy
Bissa [bib-2],10.43,-1.67,#659C64,Mande ,Eastern Mande,Burkina Faso
Bisu [bii],19.75,100,#D69975,Tibeto-Burman ,Lolo-Burmese,Thailand
Biya [mij-6],6.615,10.18,#B9C38E,Niger-Kongo ,Atlantic-Congo,Cameroon
Bizkaian [eus-3],43.25,-2.98,#6A6D72,Basque ,,Spain
Bjokapakha [tsj-5],26.965,91.045,#A8936F,Tibeto-Burman ,Bodic,Bhutan
Blablanga [blp],-8.17,159.42,#B07E70,Oceanic,Western Oceanic,Solomons
Blablanga_Ghove [blp-2],-8.33,159.5,#BB7D6F,Oceanic,Western Oceanic,Solomons
Black_Tai [blt-2],19.75,105,#A6A8A4,Tai-Kadai ,South Tai-Kadai,Vietnam
Blackfoot [bla],50,-112.67,#33757B,Algic ,Algonquian,Canada
Blagar [beu],-8.33,124.25,#497E6E,Timor-Alor-Pantar ,Alor-Pantar,Indonesia-NTT
Blang [blr],23.3,100,#ADB6A0,Austroasiatic ,Khasi-Palaung,China
Boazi [kvg],-7,141.25,#597A8A,Anim ,Boazi,Papua New Guinea
Boazi_Kuni [kvg-2],-6.913,141.326,#6D857D,Anim ,Boazi,Papua New Guinea
Bobangi [bni],0,17.8,#678795,Niger-Kongo ,Atlantic-Congo,Democratic Republic of the Congo
Bobo-Fing [bbo],11.83,-4.42,#92B9AC,Mande ,Western Mande,Burkina Faso
Bobongko [bgb],-0.5,121.75,#4E787C,Malayo-Polynesian,Celebic,Indonesia-Sulawesi
Bobot [bty],-3.33,130.17,#447E70,Malayo-Polynesian,Central Maluku,Indonesia-Maluku-north
Bocota [sab],9.34,-82.24,#508979,Chibchan ,Core Chibchan,Panama
Bodo_Madare_North [boy],12.42,-4.48,#979788,Ubangian ,Banda,Burkina Faso
Bodo_Madare_South [boy-2],11.54,-4.26,#949E70,Ubangian ,Banda,Burkina Faso
Bogaya [boq],-5.621,142.231,#4C7485,Trans New Guinea ,Duna-Bogaya,Papua New Guinea
Bohemian [ces-3],50,13,#A9666D,Indo-European ,Balto-Slavic,Czech Republic
Boholano [ceb-2],9.9,124.2,#61737A,Malayo-Polynesian,Philippines,Philippines
Bohutu [bxh],-10.5,150.33,#775DC8,Oceanic,Western Oceanic,Papua New Guinea
Boiken [bzf],-3.525,143.415,#648355,Ndu ,Boiken,Papua New Guinea
Bokar [adi-2],29,94.35,#A0806B,Tibeto-Burman ,Macro-Tani,India
Boko [bkp],10.52,3.72,#76957E,Mande ,Eastern Mande,Benin
Bokyi [bky],6.1,9.06,#BDA58B,Niger-Kongo ,Atlantic-Congo,Nigeria
Bola [bnp],-5.5,150,#3D767C,Oceanic,Western Oceanic,Papua New Guinea-Bismarcks
Bola [bxd-3],24.45,98.6,#9CBC82,Tibeto-Burman ,Lolo-Burmese,China
Bolaang-Mongondow [mog],0.55,124,#5E7683,Malayo-Polynesian,Philippines,Indonesia-Sulawesi
Bole [bol],11.007,10.747,#C39186,Afro-Asiatic ,Chadic,Nigeria
Bolgo [bvo],10.9,18.81,#968F6C,Niger-Kongo ,Atlantic-Congo,Chad
Bolinao [smk],16.341,119.893,#407B74,Malayo-Polynesian,Philippines,Philippines
Bologna [ita-3],44.51,11.35,#92776A,Indo-European ,Romance,Italy
Bolyu [ply],24.78,105.35,#D0B28E,Austroasiatic ,Mangic,China
Bom [bmf],9.28,-11.6,#A47C7F,Niger-Kongo ,Atlantic-Congo,Sierra Leone
Bomitaba [zmx],1.7,17.37,#508E7B,Niger-Kongo ,Atlantic-Congo,Congo
Bonan [peh-6],35.7,103,#B97A78,Mongolic ,Core Mongolic,China
Bonda [bfw-2],19,82.75,#72748A,Austroasiatic ,Munda,India
Bondei [bou],-5.082,38.432,#557A64,Niger-Kongo ,Atlantic-Congo,Tanzania
Bongaigaon [asm-2],26.48,90.56,#7F929C,Indo-European ,Indo-Iranian,India
Bonggi [bdg],7.3,117.2,#4D7D6D,Malayo-Polynesian,North Borneo,Philippines
Bongo [bot],7.5,28,#BF888A,Nilo-Saharan ,Central_Sudanic,Sudan
Boni [bob],0.5,43,#B4756D,Afro-Asiatic ,Cushitic,Somalia
Bonifacino [lij-6],41.39,9.16,#A78B4C,Indo-European ,Romance,France
Bontok [bnc],17.083,120.917,#387B7A,Malayo-Polynesian,Philippines,Philippines
Bor [bvf],5.605,27.472,#A6817E,Afro-Asiatic ,Chadic,South Sudan
Bora [boa],-2.25,-71.75,#80786C,Boran ,Bora,Peru
Bori [adi-7],28.2,94.6,#7C826E,Tibeto-Burman ,Macro-Tani,India
Bornholmsk [scy],55,15,#8C7E57,Indo-European ,Germanic,Denmark
Boro [brx],26.75,92,#66B06B,Tibeto-Burman ,Bodo-Garo,India
Boro [bwo],10.66,35.34,#6A9779,Afro-Asiatic ,Omotic,Ethiopia
Borong Kosorong [ksr],-6.534,147.502,#6D7B74,Trans New Guinea ,Morobe-Eastern Highlands,Papua New Guinea
Boróro [bor],-15,-52,#2C7A7C,Macro-Je ,Bororo,Brazil
Bororo-2 [bor-2],-16.6,-55.2,#397A72,Macro-Je ,Bororo,Brazil
Boruca [brn],9.001,-83.325,#719473,Chibchan ,Core Chibchan,Costa Rica
Bosavi [bco-2],-6.425,142.765,#3A7F70,Trans New Guinea ,Bosavi,Papua New Guinea
Bosnian [bos],44,18,#7B6A66,Indo-European ,Balto-Slavic,Bosnia
Botin_Samban [kbx-2],-4.33,144.17,#3F7979,Ap Ma ,,Papua New Guinea
Botlikh [bph],42.66,46.22,#7C5C8E,Nakh-Daghestanian ,Avar-Andi,Russia
Bourbonnais [fra-9],46.57,3.33,#908C51,Indo-European ,Romance,France
Bouyei [pcc-3],25.817,107.55,#B2B9A7,Tai-Kadai ,North Tai-Kadai,China
Bouyei_west [pcc-2],25.75,107.333,#B9C6AA,Tai-Kadai ,North Tai-Kadai,China
Brabants [nld-9],50.75,4.65,#81874D,Indo-European ,Germanic,Belgium
Brag-g.yab [khg-2],30.65,97.55,#D88C70,Tibeto-Burman ,Bodic,China
Brahui [brh],29,67,#A56B74,Dravidian ,North Dravidian,Pakistan
Brajbhasha [bra],27.49,77.67,#BD9538,Indo-European ,Indo-Iranian,India
Brao [brb],14,107,#D5887C,Austroasiatic ,Bahnaric,Vietnam
Brao_Krung [brb-3],13.8,107.005,#BA8377,Austroasiatic ,Bahnaric,Cambodia
Breton [bre],47.65,-2.75,#D48046,Indo-European ,Celtic,France
Breton_Kerneveg [bre-2],48,-4.1,#D4784B,Indo-European ,Celtic,France
Breton_Leoneg [bre-3],48.6,-4.3,#D67650,Indo-European ,Celtic,France
Breton_Tregiereg [bre-4],48.5,-3.125,#D4784B,Indo-European ,Celtic,France
Bribri [bzd],9.5,-83,#74AF9F,Chibchan ,Core Chibchan,Costa Rica
Brokpa [sgt],27.33,92,#B29B5B,Tibeto-Burman ,Bodic,Bhutan
Bru_Western [brv],16.75,104.75,#B88C63,Austroasiatic ,Katuic,Laos
Brugge [vls-2],51.22,3.23,#AA873E,Indo-European ,Germanic,Netherlands
Bruu [bru],17.167,104.333,#D9A44C,Austroasiatic ,Katuic,Thailand
Bu [jid],9.05,8.66,#94B069,Niger-Kongo ,Atlantic-Congo,Nigeria
Buamu [box],11.17,-3.5,#549E75,Niger-Kongo ,Atlantic-Congo,Burkina Faso
Buang_Central [bzh],-6.855,146.774,#AC6699,Oceanic,Western Oceanic,Papua New Guinea
Bube [bvb],3.5,8.7,#C19A85,Niger-Kongo ,Bantoid,Equatorial Guinea
Bubia [bbx-2],4.02,9.22,#B39F7A,Niger-Kongo ,Atlantic-Congo,Cameroon
Budong-bundong [bdx],-2.171,119.328,#6D7870,Malayo-Polynesian,Greater South Sulawesi,Indonesia-Sulawesi
Buduma [bdm],13.6,14,#849E75,Afro-Asiatic ,Chadic,Chad
Budux [bdk],41.19,48.37,#B3516E,Nakh-Daghestanian ,Lezgic,Russia
Bugan [bbh],23.75,105,#C9B19A,Austroasiatic ,Mangic,China
Bughotu [bgt],-8.478,159.808,#54737B,Oceanic,Southeast Solomonic,Solomons
Bugis [bug],-4,120,#627677,Malayo-Polynesian,Greater South Sulawesi,Indonesia-Sulawesi
Bugun [bgn],27.3,92.35,#AC9656,Tibeto-Burman ,Kho-Bwa,India
Buhid [bku],12.574,121.25,#477A80,Malayo-Polynesian,Philippines,Philippines
Buin [buo],-6.75,155.833,#4B857C,South Bougainville ,Buin,Papua New Guinea-Bougainville
Bukar_Sadong [sdo],0.97,110.66,#A67B78,Malayo-Polynesian,Land Dayak,Malaysia-Borneo
Bukat [bvk],1.29,113.25,#657E6C,Malayo-Polynesian,Land Dayak,Malaysia-Borneo
Bukawa [buk],-6.732,147.359,#55878A,Oceanic,Western Oceanic,Papua New Guinea
Bukit [bvu],-2.75,115.64,#608266,Malayo-Polynesian,Malayo-Sumbawan,Indonesia-Kalimantan
Bukitan [bkn],2.35,114.89,#667D6D,Malayo-Polynesian,Malayo-Sumbawan,Malaysia-Borneo
Bukiyip_Arapesh [ape],-3.667,142.5,#6E8C52,Torricelli ,Kombio-Arapesh,Papua New Guinea
Bukusu [bxk],1.02,35,#497A6F,Niger-Kongo ,Atlantic-Congo,Kenya
Bularnu [yil],-21.5,137.5,#797994,Pama-Nyungan ,Warluwaric,Australia
Bulgarian [bul],43,25,#6E6970,Indo-European ,Balto-Slavic,Bulgaria
Bulgarian_Banat [bul-3],45.7,20.9,#7E6C70,Indo-European ,Balto-Slavic,Bulgaria
Bulgarian_Boboshevo [bul-6],42.15,23,#616677,Indo-European ,Balto-Slavic,Bulgaria
Bulgarian_Erkech [bul-7],42.84,27.58,#656677,Indo-European ,Balto-Slavic,Bulgaria
Bulgarian_Gabare [bul-8],43.316,21.92,#6B6375,Indo-European ,Balto-Slavic,Bulgaria
Bulgarian_Lovec [bul-9],43.14,24.71,#6D6771,Indo-European ,Balto-Slavic,Bulgaria
Bulgarian_Moesian [bul-2],42.7,27.75,#897168,Indo-European ,Balto-Slavic,Bulgaria
Bulgarian_Momchilovci [bul-10],41.66,24.77,#676676,Indo-European ,Balto-Slavic,Bulgaria
Bulgarian_North-west [bul-5],43.6,23.18,#72696E,Indo-European ,Balto-Slavic,Bulgaria
Bulgarian_Nova Nadezda [bul-11],42.02,25.72,#6B646A,Indo-European ,Balto-Slavic,Bulgaria
Buli [bzq],0.833,128.5,#567879,Malayo-Polynesian,Eastern Malayo-Polynesian,Indonesia-Maluku-north
Bulu [bum],2.917,11.15,#AF939B,Niger-Kongo ,Atlantic-Congo,Cameroon
Bum [bmv],6.49,10.42,#8B9E84,Niger-Kongo ,Atlantic-Congo,Cameroon
Buma [tkw],-11.63,166.83,#896797,Oceanic,TeMotu,Solomons_East
Bumang [bvp],22.5,96.5,#B6C68B,Austroasiatic ,Khasi-Palaung,Laos
Bumbita_Arapesh [aon],-3.667,142.833,#44747A,Torricelli ,Kombio-Arapesh,Papua New Guinea
Bumthang [kjz],27.8,90.8,#C9A252,Tibeto-Burman ,Bodic,Bhutan
Bumthang_Ura [kjz-2],27.48,90.905,#C5EE8C,Tibeto-Burman ,Bodic,Bhutan
Bunama [bdd],-10.064,151.075,#5967AB,Oceanic,Western Oceanic,Papua New Guinea
Bunan [bfu],32.61,76.91,#BA9581,Tibeto-Burman ,Western Himalayan,India
Bunaq [bfn],-9.1,125.15,#7B8575,Timor-Alor-Pantar ,Mainland,Indonesia-NTT
Bunaq_Lolotoen [bfn-2],-9.161,125.26,#618978,Timor-Alor-Pantar ,Mainland,Timor leste
Bunaq_South [bfn-3],-9.227,125.393,#608182,Timor-Alor-Pantar ,Mainland,Timor leste
Bundeli [bns],23.18,79.95,#C59441,Indo-European ,Indo-Iranian,India
Bunganditj [xbg],-36.5,141,#747493,Pama-Nyungan ,Kulinic,Australia
Bungku [bkz],-3,122.33,#65788D,Malayo-Polynesian,Celebic,Indonesia-Sulawesi
Bunu [buh],25.5,108.7,#CBDD81,Hmong-Mien ,Hmongic,China
Bunu_Dongnu [bwx],23.88,108.08,#E0D5D1,Hmong-Mien ,Hmongic,China
Bunu_Nunu [bwx-2],23.799,110.178,#C9C79E,Hmong-Mien ,Hmongic,China
Bunuba [bck],-17.75,125.75,#7F7893,Bunuban ,,Australia
Bunun [bnn],23.5,121,#397B7A,Austronesian ,Bunun,Taiwan
Bunun_Isbukun [bnn-2],23.459,121.056,#647971,Austronesian ,Bunun,Taiwan
Buol [blf],1,121.5,#537C68,Malayo-Polynesian,Philippines,Indonesia-Sulawesi
Bura [bwr],10.611,12.195,#CB7E79,Afro-Asiatic ,Chadic,Nigeria
Burarra [bvr],-12.25,134.667,#737897,Macro-Gunwinygu ,Maningrida,Australia
Burji [bji],5.5,37.9,#96677F,Afro-Asiatic ,Cushitic,Ethiopia
Burmbar [vrt],-16.372,167.749,#637A9E,Oceanic,Southern Oceanic,Vanuatu
Burmese [mya],20,96,#BABD91,Tibeto-Burman ,Lolo-Burmese,Myanmar
Burmese_Arakan [mya-4],20.14,92.9,#CCC576,Tibeto-Burman ,Lolo-Burmese,Myanmar
Burmese_Intha [mya-3],20.55,96.92,#BEBA65,Tibeto-Burman ,Lolo-Burmese,Myanmar
Burmese_Myeik [mya-2],12.43,98.6,#B0B380,Tibeto-Burman ,Lolo-Burmese,Myanmar
Burmese_Palaw [mya-6],13.12,98.68,#ADB586,Tibeto-Burman ,Lolo-Burmese,Myanmar
Burmese_Tavoyan [mya-5],14.08,98.2,#C8C478,Tibeto-Burman ,Lolo-Burmese,Myanmar
Burmeso [bzu],-2.447,138.209,#486E7B,Burmeso ,,Indonesia-Papua
Buru [mhs],-3.7,126.4,#4F7777,Malayo-Polynesian,Central Maluku,Indonesia-Maluku-north
Burum [bmu],-6.484,147.311,#516E8B,Trans New Guinea ,Morobe-Eastern Highlands,Papua New Guinea
Burum_Mindik [bmu-3],-6.47,147.44,#6C6C74,Trans New Guinea ,Morobe-Eastern Highlands,Papua New Guinea
Burun [bdi-2],10.8,33.8,#64916E,Nilo-Saharan ,Nilotic,Sudan
Burushaski [bsk],36.5,74.5,#CC834F,Burushaski ,,Pakistan
Buruwai [asi-2],-3.55,133.33,#357C73,Trans New Guinea ,Asmat-Kamoro,Indonesia-Papua
Buryat [bxm],52,108,#947A60,Mongolic ,Core Mongolic,Russia
Busa [bqp],9.67,4,#3F8487,Mande ,Eastern Mande,Nigeria
Busa-2 [bqp-2],9.91,4.4,#5A967F,Mande ,Eastern Mande,Nigeria
Busami [bsm],-1.8,135.95,#3A7C79,Malayo-Polynesian,Eastern Malayo-Polynesian,Indonesia-Papua
Bushong [buf],-4.67,21.3,#BAA295,Niger-Kongo ,Atlantic-Congo,Democratic Republic of the Congo
Busoa [bup],-5.62,122.616,#827784,Malayo-Polynesian,Celebic,Indonesia-Sulawesi
Butmas_Tur [bnr],-15.376,167.028,#518281,Oceanic,Southern Oceanic,Vanuatu
Buwal [bhs],10.5,13.86,#C177B2,Afro-Asiatic ,Chadic,Cameroon
Buxing [bgk-2],21.48,101.57,#DF964B,Austroasiatic ,Khasi-Palaung,China
Buyang [yha],24,104.8,#CCC097,Tai-Kadai ,North Tai-Kadai,China
Buyi_Hezhang [xxx-130],27.12,104.73,#C7B599,Tai-Kadai ,North Tai-Kadai,China
Buyuan_Jino [jiy],22.05,101,#A8CC96,Tibeto-Burman ,Lolo-Burmese,China
Bwaidoka [bwd],-9.479,150.311,#5565B3,Oceanic,Western Oceanic,Papua New Guinea
Byansi [bee],30.17,80.5,#C9A159,Tibeto-Burman ,Western Himalayan,India
C'lela [dri],11.47,5.27,#B13B7E,Niger-Kongo ,Atlantic-Congo,Nigeria
Caac [msq],-20.42,164.42,#B582BB,Oceanic,Southern Oceanic,New Caledonia
Cabecar [cjp],9.91,-83.68,#7DB896,Chibchan ,Core Chibchan,Costa Rica
Cabiyarí [cbb],-0.1302,-70.6927,#4D7675,Arawak ,Northern Maipuran,Colombia
Cacaopera [ccr],13.74,-88.11,#3A8076,Misumalpan ,Sumalpan,Nicaragua
Caddo [cad],33.33,-93.5,#7B7E8E,Caddoan ,Caddo,USA
Cahita [opt-2],27.9,-109,#93798A,Uto-Aztecan ,Cahitan,Mexico
Cahuilla [chl],33.75,-117.75,#9D527E,Uto-Aztecan ,North Uto-Aztecan,USA
Caijia_Niujiaojing [xxx-135],27.067,104.297,#C9AC83,Tibeto-Burman ,Caijia,China
Caijia_Xingfa [xxx-134],26.934,104.863,#B3BC7E,Tibeto-Burman ,Caijia,China
Cakchiquel [ckf],14.5,-91,#69627C,Mayan ,Core Mayan,Guatemala
Calabrian [scn-2],38.148,16.18,#B68B5E,Indo-European ,Romance,Italy
Calabrian-2 [scn-4],38.92,16.6,#A7894F,Indo-European ,Romance,Italy
Callahuaya [caw],-15,-69,#8C6765,Puquina ,,Bolivia
Calusa [xxx-175],27.76,-82.55,#4E7F73,Tunica ,,USA
Camling [rab],27.3,86.8,#9D9B3D,Tibeto-Burman ,Kiranti,Nepal
Campa [cni],-12,-74,#446A7C,Arawak ,Southern Maipuran,Peru
Campalagian [cml],-4.02,119.62,#627C6E,Malayo-Polynesian,Greater South Sulawesi,Indonesia-Sulawesi
Camsá [kbh],1,-77,#866F84,Camsá ,,Colombia
Camuno [lmo-6],45.943,10.28,#939746,Indo-European ,Romance,Italy
Canamari [knm-2],-6.46,-68.78,#5B7B78,Katukinan ,,Brazil
Canarian [spa-10],28,-15.4,#619159,Indo-European ,Romance,Cape Verde Islands
Candoshi [cbu],-4.17,-77,#656676,Candoshi ,,Peru
Canela-Krahô [ram],-6.5,-45,#528960,Macro-Je ,Je,Brazil
Cantabrian_East [spa-7],43.3,-4.1,#6F905C,Indo-European ,Romance,Spain
Cantabrian_West [spa-6],43.3,-3.9,#70915B,Indo-European ,Romance,Spain
Cantonese [yue],22.333,114,#A3BCA3,Tibeto-Burman ,Sinitic,China
Cantonese_Nanning [yue-4],22.817,108.317,#ADB0A1,Tibeto-Burman ,Sinitic,China
Canzés [lmo-4],45.85,9.27,#A49249,Indo-European ,Romance,Italy
Cao Bang [nty],23.18,105.41,#CDC788,Tai-Kadai ,South Tai-Kadai,China
Caodeng_rGyalrong [jya-2],32.2,101.8,#D18E94,Tibeto-Burman ,Na-Qiangic,China
Capanahua [kaq],-7,-74,#6D7E80,Panoan ,Main Panoan,Peru
Cappadocian [cpg],38.66,34.85,#AD7557,Indo-European ,Graeco-Phrygian,Turkey
Caquinte [cot],-11.7092,-73.9252,#906C62,Arawak ,Southern Maipuran,Peru
Car [caq],9.167,92.75,#B07E6C,Austroasiatic ,Nicobar,India_Andaman-Nicobars
Cara [cfd],10.13,8.75,#A59183,Niger-Kongo ,Atlantic-Congo,Nigeria
Carapana [cbc],0.45,-71,#348482,Tucanoan ,East Tucanoan,Colombia
Carib [car],7.85,-59,#547F6A,Cariban ,Guianan Carib,Guyana
Carib_Suriname [crb-2],5.7,-55.932,#317E77,Arawak ,Northern Maipuran,Suriname
Carib_Venezuela [crb-3],7.969,-65.67,#2F7E78,Arawak ,Northern Maipuran,Venezuela
Caribean Spanish [spa-11],18.5,-69.9,#638F55,Indo-European ,Romance,Dominican Republic
Carijona [cbd-2],0.148,-70.708,#397978,Cariban ,Guianan Carib,Colombia
Carolinian [cal],15,146,#996AA1,Oceanic,Micronesian,USA Federated States of Micronesia
Carrier [crx],53.5,-125,#C25F8F,Dene-Yeniseic ,Na-Dene,Canada
Cashibo-Cacataibo [cbr],-9.1,-75.5,#56748C,Panoan ,Main Panoan,Peru
Cashinahua [cbs],-10.5,-71.75,#5D8579,Panoan ,Main Panoan,Peru
Castellanese [sdn-2],40.913,8.71,#A88C50,Indo-European ,Romance,Italy-Sardinia
Catalan [cat],41.4,2.02,#97875E,Indo-European ,Romance,Spain
Catalan_Northern [cat-5],42.7,2.9,#92865E,Indo-European ,Romance,France
Catawba [chc],34,-81,#6C786C,Siouan ,Eastern Siouan,USA
Cauho [pho-6],21.4,102,#AFD590,Tibeto-Burman ,Lolo-Burmese,Laos
Cavineña [cav],-12.25,-67.5,#4D6F84,Tacanan ,Araona-Tacana,Bolivia
Cayapa [cbi],1.2,-78.75,#99676C,Barbacoan ,Southern Barbacoan,Ecuador
Cayapo [txu-2],-7.77,-51.67,#4F866B,Macro-Je ,Je,Brazil
Cayuga [cay],42.75,-76.75,#61827C,Iroquoian ,Northern Iroquoian,USA
Cayuvava [cyb],-12.5,-67,#547370,Cayuvava ,,Bolivia
Ce [ruk],10,8.67,#ACAE79,Niger-Kongo ,Atlantic-Congo,Nigeria
Cebuano [ceb],10,124,#61747B,Malayo-Polynesian,Philippines,Philippines
Cemuhi [cam],-20.833,165,#AF7CAF,Oceanic,Southern Oceanic,New Caledonia
Central !Kung [nmn-3],-19.57,18.12,#C19269,Tuu ,Hua,Botswana
Central Banda [tor],6.64,22.76,#BEA494,Ubangian ,Banda,Central African Republic
Central-Eastern Niger Fulfulde [fuq],15.09,8.43,#C49C84,Niger-Kongo ,Atlantic-Congo,Niger
Cerma [cme],10.25,-4.85,#688172,Niger-Kongo ,Atlantic-Congo,Burkina Faso
Cha'palaachi [cbi-2],0.838,-78.877,#9A627C,Barbacoan ,Southern Barbacoan,Ecuador
Chacobo [cao],-12.25,-65,#496877,Panoan ,Southern Panoan,Bolivia
Chadong [cdy],25.2,110.2,#DCC190,Tai-Kadai ,South Tai-Kadai,China
Chaha [sgw],8.2,38,#7F715C,Afro-Asiatic ,Semitic,Ethiopia
Chakali [cli],9.83,-1.9,#BFD385,Niger-Kongo ,Atlantic-Congo,Ghana
Chakavian [hrv-2],45.17,14.85,#90A88E,Indo-European ,Balto-Slavic,Croatia
Chakhar [mon-3],44.94,115.38,#A17163,Mongolic ,Core Mongolic,Mongolia
Chakhar-2 [mon-5],43,115,#5E655B,Mongolic ,Core Mongolic,China
Chakma [ccp],22.9,92.23,#8C8363,Indo-European ,Indo-Iranian,Bangladesh
Chakosi [cko-2],10.36,0.48,#8B9A91,Niger-Kongo ,Atlantic-Congo,Ghana
Chali [tgf],27.3,91.26,#BF9C67,Tibeto-Burman ,Bodic,Bhutan
Chaling [gan-19],28.81,113.64,#A3B88B,Tibeto-Burman ,Sinitic,China
Cham_Eastern [cjm],10.93,108.1,#B5A76F,Malayo-Polynesian,Malayo-Sumbawan,Vietnam
Cham_Western [cja],12,105.5,#8F8C62,Malayo-Polynesian,Malayo-Sumbawan,Cambodia
Chama [ese-6],-11.33,-66.25,#49648A,Tacanan ,Ese'ejja,Bolivia
Chamacoco [ceg],-22.3578,-59.7197,#78745A,Zamucoan ,,Paraguay
Chamalal_Gigatil [cji],42.54,46.06,#AA4F74,Nakh-Daghestanian ,Avar-Andi,Russia
Chamalal_Nizhnee_Gakvari [cji-2],42.53,46.05,#AD4D74,Nakh-Daghestanian ,Avar-Andi,Russia
Chamba [ndi-2],8.19,11.74,#BDA691,Niger-Kongo ,Atlantic-Congo,Cameroon
Chambri [can],-4.167,143.083,#5DA681,Lower Sepik-Ramu ,Lower Sepik,Papua New Guinea
Chamicuro [ccc],-5.114,-75.736,#B07E4F,Arawak ,Western Maipuan,Peru
Chamorro [cha],13.583,145,#6F9458,Malayo-Polynesian,Chamorro,Guam
Chaná [qsi],-34,-55,#788069,Charruan ,,Uruguay
Chang [chg],26.23,94.817,#7A7B5F,Tibeto-Burman ,Kuki-Chin-Naga,India
Changchow [nan-5],24.75,117.833,#B6C284,Tibeto-Burman ,Sinitic,China
Changchun [cmn-57],43.88,125.32,#A0C882,Tibeto-Burman ,Sinitic,China
Changle [cmn-37],25.92,119.55,#A8B67E,Tibeto-Burman ,Sinitic,China
Changpaoyao [bmt-2],25.417,107.88,#D3DFA1,Hmong-Mien ,Mienic,China
Changsha [hsn],28,113,#ABBC8B,Tibeto-Burman ,Sinitic,China
Changting [hak-7],25.83,116.35,#99C78F,Tibeto-Burman ,Sinitic,China
Changzhi [cjy-6],36.167,113,#8CA563,Tibeto-Burman ,Sinitic,China
Changzhou [wuu-31],31.783,119.967,#B8D08C,Tibeto-Burman ,Sinitic,China
Channel_English [eng-11],49.44,-2.367,#BF853D,Indo-European ,Germanic,Britain-Channel isles
Chantyal [chx],28.75,83.5,#98925E,Tibeto-Burman ,Bodic,Nepal
Chaoyang [nan-26],23.32,116.48,#9DD296,Tibeto-Burman ,Sinitic,China
Chaozhou [nan-2],23.667,116.667,#9ED097,Tibeto-Burman ,Sinitic,China
Chaplino [ess-2],65,-173,#8C6367,Eskimo-Aleut ,Eskimo,Russia
Chaplino_Alaska [ess-3],63.5,-170.5,#9B4AAA,Eskimo-Aleut ,Eskimo,USA-Alaska
Chara [cra],6.617,36.238,#9E6B70,Afro-Asiatic ,Omotic,Ethiopia
Charleroi [wln-2],50.41,4.45,#9F7E54,Indo-European ,Romance,Belgium
Chatino [ctp],16.5,-97.25,#A1C39F,Otomanguean ,Eastern Otomanguean,Mexico
Chatino_Tataltepec [cta],16.3,-97.55,#CFA496,Otomanguean ,Eastern Otomanguean,Mexico
Chatino_Yaitepec [ctp-2],16.225,-97.27,#8AC9AF,Otomanguean ,Eastern Otomanguean,Mexico
Chatino_Zenzontepec [czn],17.34,-92.34,#A67378,Otomanguean ,Eastern Otomanguean,Mexico
Chattisgarhi [hne],21.25,81.25,#B1923E,Indo-European ,Indo-Iranian,India
Chaudangsi [cdn],29.7,80.48,#CA9B5F,Tibeto-Burman ,Western Himalayan,India
Che [ruk-2],10.03,8.65,#CC9572,Niger-Kongo ,Atlantic-Congo,Nigeria
Che'_Wong [cwg],3.833,102,#74866F,Austroasiatic ,Aslian,Malaysia
Chechen [che],43.13,45.54,#C85F68,Nakh-Daghestanian ,Nakh,Russia
Cheke_Holo_Maringe [mrn],-8.5,159.67,#B58F56,Oceanic,Western Oceanic,Solomons
Chemakum [xch],48.08,-122.93,#863D9D,Chimakuan ,,USA
Chemehuevi [ute-3],34.33,-115.17,#98568C,Uto-Aztecan ,Numic,USA
Chemnitz [nds-4],50.83,12.92,#AF8A44,Indo-European ,Germanic,Germany
Chenapian [cjn],-4.25,142.33,#66897B,Sepik ,Iwam-Wogamus,Papua New Guinea
Chenchu [cde],15.88,79.25,#5F7779,Dravidian ,South-central,India
Cheng [jeg],15,107.167,#9E7B6B,Austroasiatic ,Bahnaric,Laos
Chengdu [cmn-14],30.6,104.1,#95B980,Tibeto-Burman ,Sinitic,China
Chengfeng [xxx-109],29.685,113.49,#C0C06E,Hmong-Mien ,Hmongic,China
Chengqiao [wuu-5],31.63,121.4,#B9D89F,Tibeto-Burman ,Sinitic,China
Chenxian [hsn-18],26.34,113.285,#92D390,Tibeto-Burman ,Sinitic,China
Chenzhou [hsn-16],25.77,113.01,#9AD295,Tibeto-Burman ,Sinitic,China
Chepang [cdm],28.05,83.92,#CE9667,Tibeto-Burman ,Chepang,Nepal
Cheremis [mrj],55.624,55.484,#A7795C,Uralic ,Mari,Russia
Cherepon [cpn],6.05,-0.11,#958EAB,Niger-Kongo ,Atlantic-Congo,Ghana
Cherokee [chr],35.5,-83.5,#667A81,Iroquoian ,Southern Iroquoian,USA
Cherokee_lower [chr-2],37.48,-82.53,#6E7A8F,Iroquoian ,Southern Iroquoian,USA
Cherokee_Qualla [chr-3],35.5,-83.26,#3A8376,Iroquoian ,Southern Iroquoian,USA
Cheyenne [chy],43.5,-104,#49807F,Algic ,Algonquian,USA
Chiapanec [cip],16.66,-91.94,#558F70,Otomanguean ,Western Otomanguean,Mexico
Chibcha [xxx-149],9.2,-74.5,#4E7966,Chibchan ,Core Chibchan,Colombia
Chichewa [nya-2],-14.8,32.81,#CA8BB1,Niger-Kongo ,Atlantic-Congo,Malawi
Chichimec [pei],24.87,-103.7,#9A7E6B,Otomanguean ,Western Otomanguean,Mexico
Chickasaw [cic],34,-88,#8B9B73,Muskogean ,Western Muskogean,USA
Chiguano_Izoceño [gui-2],-20,-63,#32777F,Tupian ,Tupi-Guarani,Bolivia
Chilcotin [clc],52,-125,#BD3FA4,Dene-Yeniseic ,Na-Dene,Canada
Chimane [cas-5],-14.64,-67.84,#847668,Moseten ,Chimane,Bolivia
Chimariko [cid],41,-123,#8B528E,Chimariko ,,USA
Chimila [cbg],10.75,-73,#D57C8D,Chibchan ,Core Chibchan,Colombia
Chimwiini [swh-2],1.1,43,#C7807A,Niger-Kongo ,Atlantic-Congo,Somalia
Chin_Daai [dao],21.1,93.65,#CCA378,Tibeto-Burman ,Kuki-Chin-Naga,Myanmar
Chin_Daai_Mkuui [dao-2],21.25,93.5,#C8B05F,Tibeto-Burman ,Kuki-Chin-Naga,Myanmar
Chin_Falam [cfm],22.9,93.67,#D79A8F,Tibeto-Burman ,Kuki-Chin-Naga,Myanmar
Chin_Tiddim [ctd],23.333,93.667,#81B495,Tibeto-Burman ,Kuki-Chin-Naga,Myanmar
Chinali [cih],32.5,77.83,#BA8952,Indo-European ,Indo-Iranian,India
Chinantec_Chiltepec [csa],17.93,-96.17,#8FB270,Otomanguean ,Western Otomanguean,Mexico
Chinantec_Comaltepec [cco],17.57,-96.55,#B6BB96,Otomanguean ,Western Otomanguean,Mexico
Chinantec_La-Alicia [xxx-169],17.64,-96.02,#A3B58C,Otomanguean ,Western Otomanguean,Mexico
Chinantec_Lacova [xxx-165],17.46,-95.94,#A8B28A,Otomanguean ,Western Otomanguean,Mexico
Chinantec_Lalana [cnl],17.475,-95.875,#B2D3A2,Otomanguean ,Western Otomanguean,Mexico
Chinantec_Latani [tpx-2],17.38,-95.91,#9CB48A,Otomanguean ,Western Otomanguean,Mexico
Chinantec_Lealao [cle],17.32,-95.93,#CEA98C,Otomanguean ,Western Otomanguean,Mexico
Chinantec_Mayultianguis [xxx-170],17.92,-96.57,#9CB48A,Otomanguean ,Western Otomanguean,Mexico
Chinantec_Ojitlan [chj],18.05,-96.4,#A5C7A2,Otomanguean ,Western Otomanguean,Mexico
Chinantec_Ozumacin [chz],17.68,-96.23,#94B176,Otomanguean ,Western Otomanguean,Mexico
Chinantec_Palantla [cpa],17.83,-96.39,#9DBB9D,Otomanguean ,Western Otomanguean,Mexico
Chinantec_Petlapa [xxx-171],17.48,-96.025,#A8B28A,Otomanguean ,Western Otomanguean,Mexico
Chinantec_Quetzalapa [xxx-166],17.34,-95.88,#A7C48D,Otomanguean ,Western Otomanguean,Mexico
Chinantec_Quiotepec [chq],17.6,-96.58,#BBBF91,Otomanguean ,Western Otomanguean,Mexico
Chinantec_Rio-Chiquito [xxx-168],17.6,-95.97,#A1B38B,Otomanguean ,Western Otomanguean,Mexico
Chinantec_Sochiapan [cso],17.825,-96.67,#9BC799,Otomanguean ,Western Otomanguean,Mexico
Chinantec_Temextitlan [cco-2],17.59,-96.55,#5FB378,Otomanguean ,Western Otomanguean,Mexico
Chinantec_Teotalcingo [xxx-167],17.42,-95.95,#A8B28A,Otomanguean ,Western Otomanguean,Mexico
Chinantec_Tepetotutla [cnt],17.26,-96.11,#A9CAA2,Otomanguean ,Western Otomanguean,Mexico
Chinantec_Tlacoatzintepec [ctl],17.86,-96.6,#A9BF95,Otomanguean ,Western Otomanguean,Mexico
Chinantec_Usila [cuc],17.89,-96.52,#A2C59F,Otomanguean ,Western Otomanguean,Mexico
Chinantec_Valle_Nacional [cvn],17.77,-96.3,#80B676,Otomanguean ,Western Otomanguean,Mexico
Chinantec_Yolox [xty],17.61,-96.57,#94B372,Otomanguean ,Western Otomanguean,Mexico
Chindamba [ndj],-8.4,36.03,#6D9F5B,Niger-Kongo ,Atlantic-Congo,Tanzania
Chinook [chh],46,-124,#645F8B,Chinook ,Lower Chinook,USA
ChiNyanja [nya],-15,35,#B490B5,Niger-Kongo ,Atlantic-Congo,Malawi
Chipaya [cap],-19,-68,#A1418C,Uru-Chipaya ,,Bolivia
Chipewyan [chp],59,-106,#C25394,Dene-Yeniseic ,Na-Dene,Canada
Chiquimulilla [xin-6],14.08,-90.38,#AE6189,Xinca ,,Guatemala
Chiquitano [cax],-17.5,-62,#516B6D,Chiquitano ,,Bolivia
Chiricahua [apm],33.5,-108,#C36E7F,Dene-Yeniseic ,Na-Dene,USA
Chiriguano_Chané [gui-3],-17.793,-63.18,#3B7575,Tupian ,Tupi-Guarani,Bolivia
Chiru [cdf],24.99,93.5,#9BA672,Tibeto-Burman ,Kuki-Chin-Naga,India
Chitimacha [ctm],29.67,-91,#917772,Totozoquean-Chitimacha ,Chitimacha,USA
Chittagong [ben-2],22.37,91.8,#A78575,Indo-European ,Indo-Iranian,Bangladesh
Chiwere [iow-2],40.05,-95.52,#5E727D,Siouan ,Western Siouan,USA
Chöcangacakha [cgk],27.53,91.14,#CABA88,Tibeto-Burman ,Bodic,Bhutan
Chöcangacakha-2 [cgk-2],27.55,90.92,#BAB685,Tibeto-Burman ,Bodic,Bhutan
Chochenyo [cst],37.65,-121.91,#846B73,Yok-Utian ,Utian,USA
Chocho [coz],17.67,-97.33,#AFB38B,Otomanguean ,Eastern Otomanguean,Mexico
Choctaw [cho],32.25,-88.5,#807979,Muskogean ,Western Muskogean,USA
Chokobo [cbo],10.35,8.85,#AD9181,Niger-Kongo ,Atlantic-Congo,Nigeria
Chokri [nri],26.67,93.75,#C59D80,Tibeto-Burman ,Kuki-Chin-Naga,India
Chokri-2 [nri-2],25.7,94.3,#C7B87D,Tibeto-Burman ,Kuki-Chin-Naga,India
Chokwe [cjk],-9.702,22.876,#949394,Niger-Kongo ,Atlantic-Congo,Democratic Republic of the Congo
Chol [cti],17.49,-92.47,#556B73,Mayan ,Core Mayan,Mexico
Cholon [cht],-8,-77.5,#4A6C7C,Cholon ,,Peru
Chomo [cfg],8.87,10.82,#62A362,Niger-Kongo ,Atlantic-Congo,Nigeria
Chong [cog],12.91,102.01,#AB8060,Austroasiatic ,Pearic,Thailand
Chongming [wuu-32],31.67,121.5,#C9A983,Tibeto-Burman ,Sinitic,China
Chongqing [cmn-48],29.55,106.6,#9BCC8A,Tibeto-Burman ,Sinitic,China
Chongyang [gan-10],29.55,114.17,#B3C58A,Tibeto-Burman ,Sinitic,China
Chono [xxx-39],-46,-75,#607C62,Chonan ,Chonan Proper,Chile
Chontal [chd],18.17,-92.58,#728257,Mayan ,Core Mayan,Mexico
Chontal [clo],16.3,-95.5,#556877,Tequistlatecan ,,Mexico
Chonyi [coh],-3.8,39.76,#C28B7A,Niger-Kongo ,Atlantic-Congo,Kenya
Chopi [cce],-24.718,34.744,#AF949C,Niger-Kongo ,Atlantic-Congo,Mozambique
Chori [cry],9.59,8.06,#C28BB6,Niger-Kongo ,Atlantic-Congo,Nigeria
Chorote [crq],-22,-63,#6A7C66,Matacoan ,Mataguayo II,Argentina
Chorti [caa],14.8,-89.3,#636673,Mayan ,Core Mayan,Guatemala
Chrau [crw],10.667,107.5,#71876F,Austroasiatic ,Bahnaric,Vietnam
Chru [cje],11.774,108.575,#667F6A,Malayo-Polynesian,Malayo-Sumbawan,Vietnam
Chuave [cjv],-6.168,145.119,#559F9A,Trans New Guinea ,Chimbu-Wahgi,Papua New Guinea
Chuj [cac],16,-91.5,#79627C,Mayan ,Core Mayan,Mexico
Chuj_Ixtatán [cnm],15.833,-91.483,#686275,Mayan ,Core Mayan,Guatemala
Chukchansi [yok-4],36.99,-119.64,#AD5B88,Yok-Utian ,Yokuts,USA
Chukchi [ckt],67,-173,#46747A,Chukotko-Kamchatkan ,Main Chukotko-Kamchatkan,Russia
Chulym [clw],54.32,89.55,#B57551,Turkic ,North-east Turkic,Russia
Chumash [boi],34.5,-120.25,#B16D6B,Chumashan ,South Chumashan,USA
Chumash_Barbareño [boi-2],34.46,-119.7,#B3646E,Chumashan ,South Chumashan,USA
Chumash_Cruzeño [veo-4],34.05,-119.86,#B2666D,Chumashan ,South Chumashan,USA
Chumash_Ineseño [inz],34.61,-120.09,#B2646E,Chumashan ,South Chumashan,USA
Chumash_Obispeño [veo-3],35.29,-120.67,#B26072,Chumashan ,North Chumashan,USA
Chumash_Purisimeño [veo-5],34.69,-120.43,#B65E70,Chumashan ,South Chumashan,USA
Chumash_Ventureño [veo-6],34.22,-118.72,#A86D69,Chumashan ,South Chumashan,USA
Chumash_Ventureño-Mitsqanaqan [veo-2],34.28,-119.23,#AB6B67,Chumashan ,South Chumashan,USA
Chumburung [ncu],8.15,-0.28,#858D78,Niger-Kongo ,Atlantic-Congo,Ghana
Chung [scq],14.004,99.55,#BF825F,Austroasiatic ,Pearic,Laos
Chungcheong_Korean [kor-4],35.83,127.15,#A88E51,Korean ,,Korea
Chuukese [chk],7.333,151.75,#4D7899,Oceanic,Micronesian,USA Federated States of Micronesia
Chuvash [chv],55.5,47.5,#606F7A,Turkic ,Oghur,Russia
Chuwabu [chw],-17.34,37.12,#CD927E,Niger-Kongo ,Atlantic-Congo,Mozambique
Chuxnabán_Mixe [pxm],17,-96,#9B8581,Totozoquean-Chitimacha ,Totozoquean,Mexico
Ciacia [cia],-5.75,122.75,#647988,Malayo-Polynesian,Celebic,Indonesia-Sulawesi
Cicipu [awc],10.911,5.703,#C08292,Niger-Kongo ,Atlantic-Congo,Nigeria
CiLuba [lua],-6,22,#A68A70,Niger-Kongo ,Atlantic-Congo,Democratic Republic of the Congo
Cimbrian [cim],45.62,11.13,#DF815D,Indo-European ,Germanic,Italy
Citak [tml],-5.509,139.218,#2B797C,Trans New Guinea ,Asmat-Kamoro,Indonesia-Papua
Citumbuka [tum],-11,33.5,#919F5F,Niger-Kongo ,Atlantic-Congo,Malawi
Classical Malay [xxx-96],2.2,102.5,#738860,Malayo-Polynesian,Malayo-Sumbawan,Malaysia
Coahuilteco [xcw],28,-100,#9C5993,Coahuilteco ,,USA
Cocama-Cocamilla [cod],-5,-74.3,#2F7484,Tupian ,Tupi-Guarani,Peru
Cochimi [coj],27.28,-112.89,#856972,Yuman-Cochimi ,Cochimi,Mexico
Coconucan [cca],2.55,-76.65,#516E71,Barbacoan ,Northern Barbacoan,Colombia
Cocopa [coc],32.5,-115,#8E4983,Yuman-Cochimi ,Yuman,USA
Coeur d'Alene [crd],47.33,-117,#B22A9A,Salish ,Interior Salish,USA
Cofan [con],0.25,-77,#8B7F83,Kofan ,,Ecuador
Cog-rtse_rGyalrong-2 [jya-4],31.5,102,#AB7A61,Tibeto-Burman ,Na-Qiangic,China
Cogtse Gyarong [jya],32.1,100.6,#BF7779,Tibeto-Burman ,Na-Qiangic,China
Col [liw],-3.3,102.86,#4E7A79,Malayo-Polynesian,Malayo-Sumbawan,Indonesia-Sumatra
Colac [xxx-73],-38.33,143.5,#7A7594,Pama-Nyungan ,Kulinic,Australia
Colloquial_Tamil [tam-2],9.23,78.12,#9D788F,Dravidian ,South Dravidian,India
Columbian [col-2],48.22,-118.45,#AE20A3,Salish ,Interior Salish,USA
Comanche [com],33.5,-101.5,#517072,Uto-Aztecan ,Numic,USA
Comecrudo [xxx-133],26.09,-98.28,#3F6B85,Coahuiltecan ,,Mexico
Comorian [wlc],-12.25,43.75,#AA7765,Niger-Kongo ,Atlantic-Congo,Comoros
Comox [coo],49.75,-125,#9C3CA4,Salish ,Central Salish,Canada
Cone [adx-3],34.58,103.5,#D7A285,Tibeto-Burman ,Bodic,China
Congjiang [kmc],25.752,108.91,#D6A89F,Tai-Kadai ,South Tai-Kadai,China
Coos [csz],43.5,-124.17,#AA538F,Coos ,,USA
Cora [crn],23.333,-99,#9B6AA7,Uto-Aztecan ,Corachol,Mexico
Cora_Ixcatan [crn-2],20.88,-103.35,#9664A4,Uto-Aztecan ,Corachol,Mexico
Cornish [cor],50.5,-4.5,#A38D46,Indo-European ,Celtic,Britain
Corsican [cos],42.1,9.5,#96677A,Indo-European ,Romance,France
Cosao [xxx-137],21.62,101.567,#C6BD8F,Tibeto-Burman ,Lolo-Burmese,China
Cotabato_Manobo_Kalamansig [mta],6.421,124.29,#49796D,Malayo-Polynesian,Philippines,Philippines
Cowlitz [cow],46.5,-123.17,#7F3EA5,Salish ,Tsamosan,USA
Cree_East [crl],50.42,-73.87,#447078,Algic ,Algonquian,Canada
Cree_Moose [crm],51.33,-80.5,#4C7272,Algic ,Algonquian,Canada
Cree_Plains [crk],54,-116,#3A7671,Algic ,Algonquian,Canada
Cree_Swampy [csw],54.5,-84,#477473,Algic ,Algonquian,Canada
Cree_Woods [cwd],58,-102,#3F7673,Algic ,Algonquian,Canada
Creek [mus],30.41,-85.2,#719290,Muskogean ,Creek,USA
Cremonese [lmo-7],45.13,10.03,#A29049,Indo-European ,Romance,Italy
Croatian [hrv],45.5,17.3,#7B6778,Indo-European ,Balto-Slavic,Croatia
Cross_River_Mbembe [mfn],6.17,8.24,#A88E6D,Niger-Kongo ,Atlantic-Congo,Nigeria
Crow [cro],45.5,-108,#688E89,Siouan ,Western Siouan,USA
Cua [cua],15.167,108.667,#B59856,Austroasiatic ,Bahnaric,Vietnam
Cubeo [cub],1.33,-70.5,#3C858D,Tucanoan ,Central,Colombia
Cuiba [cui-2],6.5,-70.5,#3C7B79,Guahiban ,,Colombia
Cuicatec [xtu],17.98,-96.72,#518F86,Otomanguean ,Eastern Otomanguean,Mexico
Cuitlatec [qpb],18.1,-100.34,#586F79,Cuitlatec ,,Mexico
Cup'ik [esu-2],61.525,-165.65,#887371,Eskimo-Aleut ,Eskimo,USA-Alaska
Cupeño [cup],33.17,-116.5,#984A89,Uto-Aztecan ,North Uto-Aztecan,USA
Cuvok [cuv],10.7,14,#8E836C,Afro-Asiatic ,Chadic,Cameroon
Czech [ces],50,14.5,#AA676D,Indo-European ,Balto-Slavic,Czech Republic
Da'a [kzf],-1.356,119.549,#667489,Malayo-Polynesian,Celebic,Indonesia-Sulawesi
Daakaka [bpa],-16.269,167.964,#896FA8,Oceanic,Southern Oceanic,Vanuatu
Daakie [ptv-2],-16.32,168.04,#A36EA4,Oceanic,Southern Oceanic,Vanuatu
Daats'íin [xxx-153],12.6,35.8,#BE8983,Nilo-Saharan ,Gumuz,Ethiopia
Daba [dbq],10.1,13.8,#BC6E9B,Afro-Asiatic ,Chadic,Cameroon
Dabu [hak-22],24.35,116.7,#A9C38E,Tibeto-Burman ,Sinitic,China
Dadibi [mps],-6.55,144.58,#478B7A,Papuan Gulf ,Tua River,Papua New Guinea
Dadua [gal-2],-8.135,125.638,#457B71,Malayo-Polynesian,Timoric,Timor leste
Dafang [cmn-31],27.29,105.66,#99C186,Tibeto-Burman ,Sinitic,China
Daga [dgz],-10,149.25,#317C76,Southeast Papuan ,Dagan,Papua New Guinea
Dagaare [dga],11.5,-2.5,#C8838C,Niger-Kongo ,Atlantic-Congo,Burkina Faso
Dagbani [dag],9.58,-0.5,#9BA296,Niger-Kongo ,Atlantic-Congo,Ghana
Dagur [dta],48,124,#BC8458,Mongolic ,Core Mongolic,China
Dahalik [dlk],15.75,40.25,#7B5760,Afro-Asiatic ,Semitic,Eritrea
Dahalo [dal],-2.217,40.483,#DC4AA9,Afro-Asiatic ,Cushitic,Kenya
Dai [dij],-7.5,129.5,#387E6F,Malayo-Polynesian,Southeast Maluku,Indonesia-Maluku-south
Dai_Jinping [khb-2],22.78,103.225,#B2B7A1,Tai-Kadai ,South Tai-Kadai,China
Daju_Dar-Fur [daj],12.25,25.25,#A1A39E,Nilo-Saharan ,Dajuic,Sudan
Dakota [dak],43.1,-98.4,#AA7978,Siouan ,Western Siouan,USA
Dakpa [dka],27.38,91.5,#C89F56,Tibeto-Burman ,Bodic,Bhutan
Dalabon [ngk],-14.25,134,#767596,Macro-Gunwinygu ,Gunwingyuan proper,Australia
Dalat [mel-2],2.74,111.94,#657E67,Malayo-Polynesian,Malayo-Sumbawan,Malaysia-Borneo
Dalian [cmn-8],38.91,121.61,#A4CA8E,Tibeto-Burman ,Sinitic,China
Dalmatian [dlm],45.35,14.5,#477A67,Indo-European ,Romance,Croatia
Damal [uhn],-4,137.5,#429690,Trans New Guinea ,Western Trans New Guinea,Indonesia-Papua
Damal_Wa [uhn-2],-4.185,137.275,#2F7C82,Trans New Guinea ,Western Trans New Guinea,Indonesia-Papua
Damana [mbp],10.9,-73.6,#357873,Chibchan ,Core Chibchan,Colombia
Damar_East [dmr],-7.25,128.52,#7E66AB,Malayo-Polynesian,Southeast Maluku,Indonesia-Maluku-south
Damar_West [drn],-7,128.5,#739349,Malayo-Polynesian,West Damar,Indonesia-Maluku-south
Dameli [dml],35.375,71.693,#CD7368,Indo-European ,Indo-Iranian,Pakistan
Dami [dad],-5.315,145.613,#367780,Oceanic,Western Oceanic,Papua New Guinea
Damin [xxx-7],-16.4,139.35,#8A759D,Tangkic ,Lardil,Australia
Dampelas [dms],0.2,120,#8A7A8B,Malayo-Polynesian,Celebic,Indonesia-Sulawesi
Damu [adi-11],27.63,94.35,#DB8B56,Tibeto-Burman ,Macro-Tani,India
Dan [dnj],7.5,-8,#98BE98,Mande ,Eastern Mande,Côte d'Ivoire
Danau [dnu],22.333,99.333,#BCA358,Austroasiatic ,Khasi-Palaung,Myanmar
Dandami_Maria [daq],19.1,82.06,#846F79,Dravidian ,South-central,India
Danezaa [bea],57,-120,#A26D7E,Dene-Yeniseic ,Na-Dene,Canada
Dangaléat_Western [daa],12.17,18.33,#B29998,Afro-Asiatic ,Chadic,Chad
Danggaura_Tharu [thl],28.1,82.3,#93914B,Indo-European ,Indo-Iranian,Nepal
Dangla [daa-2],12.15,18.25,#B99B9D,Afro-Asiatic ,Chadic,Chad
Dani [dni],-4,138.917,#4B7A85,Trans New Guinea ,Western Trans New Guinea,Indonesia-Papua
Dani_Aikhe [dni-3],-3.95,138.97,#5A6B7F,Trans New Guinea ,Western Trans New Guinea,Indonesia-Papua
Dani_Bele [dni-2],-3.93,138.73,#3F737C,Trans New Guinea ,Western Trans New Guinea,Indonesia-Papua
Dani_Gorge [dnt],-4.33,139.13,#4A6582,Trans New Guinea ,Western Trans New Guinea,Indonesia-Papua
Dani_Hablifoeri [dni-4],-3.640848,138.759428,#5B697E,Trans New Guinea ,Western Trans New Guinea,Indonesia-Papua
Dani_Mugogo [dni-5],-3.97,138.8,#54856C,Trans New Guinea ,Western Trans New Guinea,Indonesia-Papua
Dani_Wodo [wlw],-3.816,138.718,#337F7E,Trans New Guinea ,Western Trans New Guinea,Indonesia-Papua
Danish [dan],56,10,#86903D,Indo-European ,Germanic,Denmark
Danisi [shg],-20.206,25.26,#BE87AB,Khoe ,Khoe,Botswana
Danyang [wuu-33],32,119.6,#9BC08A,Tibeto-Burman ,Sinitic,China
Danzhai [cmn-56],26.244,107.895,#9BC286,Tibeto-Burman ,Sinitic,China
Danzhou_Chen [nan-48],19.88,109.35,#AAC07E,Tibeto-Burman ,Sinitic,China-Hainan
Danzhou_DF [nan-36],19.71,109.275,#B4C37B,Tibeto-Burman ,Sinitic,China-Hainan
Danzhou_Gan [gan-3],34.52,112.06,#99C989,Tibeto-Burman ,Sinitic,China-Hainan
Danzhou_Literary_Ting [nan-49],19.52,109.58,#A5B681,Tibeto-Burman ,Sinitic,China-Hainan
Danzhou_Ting [nan-37],19.75,109.4,#A6B682,Tibeto-Burman ,Sinitic,China-Hainan
Dao_Ngan_Tay [tyz],22.3,102.5,#ADCE91,Tai-Kadai ,South Tai-Kadai,Vietnam
Dapeng [hak-31],22.6,114.51,#94CC8F,Tibeto-Burman ,Sinitic,China
Darai [dry],27.85,84.1,#7D8A62,Indo-European ,Indo-Iranian,Nepal
Darang [mhu-2],28.47,97.56,#B4C479,Tibeto-Burman ,Digarish,India
Darang-2 [mhu-3],28.67,97.47,#BBC378,Tibeto-Burman ,Digarish,China
Dargi [dar-2],42.27,47.34,#975077,Nakh-Daghestanian ,Lak-Dargwa,Russia
Dargwa [dar],42.15,47.4,#8A5377,Nakh-Daghestanian ,Lak-Dargwa,Russia
Dargwa_Kubachi [dar-3],42.09,47.6,#884D79,Nakh-Daghestanian ,Lak-Dargwa,Russia
Dari [prs],36.01,70.026,#966B5F,Indo-European ,Indo-Iranian,Afghanistan
Darkinyung [xda],-33.57,151.31,#497C86,Pama-Nyungan ,Yuin-Kuri,Australia
Darma [drd],29.84,80.517,#888078,Tibeto-Burman ,Western Himalayan,India
Dasenech [dsh],4.802,36.05,#B39891,Afro-Asiatic ,Cushitic,Ethiopia
Datian_Houlu [nan-21],25.8,117.75,#92C289,Tibeto-Burman ,Sinitic,China
Datian_Qianlu [nan-20],25.7,117.85,#80C58C,Tibeto-Burman ,Sinitic,China
Datooga [tcc],-4.75,36.67,#93846C,Nilo-Saharan ,Nilotic,Tanzania
Dâw [kwa],-0.15,-67.05,#BF7C9F,Nadahup ,Vaupés,Brazil
Dawawa [dww],-10.151,149.968,#496D84,Oceanic,,Papua New Guinea
Dawera-Daweloor [ddw],-7.759,130.04,#347F72,Malayo-Polynesian,Southeast Maluku,Indonesia-Maluku-south
Daxing_Miao [hea-4],27.88,109.29,#E1A0DC,Hmong-Mien ,Hmongic,China
Dazaga [dzg],15.74,15.85,#97A785,Nilo-Saharan ,Saharan,Chad
De'ang_Guangka [rbb],24.833,99.75,#BD9C5D,Austroasiatic ,Khasi-Palaung,China
Debri [dil],12.04,29.66,#A48BAC,Nilo-Saharan ,Nubian,Sudan
Dedua [ded],-6.381,147.576,#3F8079,Trans New Guinea ,Morobe-Eastern Highlands,Papua New Guinea
Defaka [afn],4.58,7.5,#A6AB86,Ijoid ,Defaka,Nigeria
Deg [mzw],8.44,-2.29,#B8A468,Niger-Kongo ,Atlantic-Congo,Ghana
Deg Xinag [ing],62.07,-160,#C16187,Dene-Yeniseic ,Na-Dene,USA-Alaska
Dege [khg-6],31.817,98.667,#D2B57B,Tibeto-Burman ,Bodic,China
Degema [deg],4.75,6.75,#B1978B,Niger-Kongo ,Atlantic-Congo,Nigeria
Dehong [tdd],24,98,#BBC088,Tai-Kadai ,South Tai-Kadai,China
Deirate [tad-2],-3,137.17,#579E97,Lakes Plains ,Tariku,Indonesia-Papua
Dekwana [mch],4.5,-63.5,#85726B,Cariban ,Guianan Carib,Venezuela
Dela-Oenale [row],-10.92,123,#417F80,Malayo-Polynesian,Timoric,Indonesia-NTT
Delaware [unm],41.5,-74.67,#6D766C,Algic ,Algonquian,USA
Demisa [dei],-2.55,136.69,#73B16F,Geelvink Bay ,,Indonesia-Papua
Denaina [tfn],62,-150,#86528B,Dene-Yeniseic ,Na-Dene,USA-Alaska
Dengebu [dec],10.6,29.9,#718D7B,Talodi-Heiban ,Talodi,Sudan
Dengka [dnk],-10.775,122.89,#3F817F,Malayo-Polynesian,Timoric,Indonesia-NTT
Dení [dny],-6,-68,#2E7A7A,Arawá ,,Brazil
Deni [stc],-10.83,166.08,#52748E,Oceanic,,Solomons_East
Denjongkha [sip],27.5,88.5,#DBAB7D,Tibeto-Burman ,Bodic,India
Dényá [anv],5.963,9.309,#A59C56,Niger-Kongo ,Atlantic-Congo,Cameroon
Dermuha [kpp],17.79,95.34,#CFAD72,Tibeto-Burman ,Karen,Myanmar
Desano [des],0.579,-69.067,#328381,Tucanoan ,East Tucanoan,Colombia
Deti [shg-3],-20,25,#BA98A4,Khoe ,Khoe,Botswana
Deuri [der],27.23,94.1,#919955,Tibeto-Burman ,Bodo-Garo,India
Deventer [nld-13],52.25,6.15,#A9864C,Indo-European ,Germanic,Netherlands
Dghwede [dgh],11.06,13.78,#B366A1,Afro-Asiatic ,Central,Nigeria
Dhalandji [dhl],-22.7,115.2,#7A7592,Pama-Nyungan ,Kanyara-Mantharta,Australia
Dhao [nfa],-10.83,122.75,#946182,Malayo-Polynesian,Flores-Sawu-Sumba,Indonesia-NTT
Dharawal [tbh],-34.5,150.5,#517887,Pama-Nyungan ,Yuin-Kuri,Australia
Dharawala [bym-2],-26.2,144.8,#447B89,Pama-Nyungan ,Yuin-Kuri,Australia
Dharuk [xxx-8],-33.1,151.75,#657884,Pama-Nyungan ,Yuin-Kuri,Australia
Dharumbal [bjy],-22.75,150,#638080,Pama-Nyungan ,Rockhampton,Australia
Dhatki [mki],24.9,70.2,#D27676,Indo-European ,Indo-Iranian,Pakistan
Dhimal [dhi],26.6,86.75,#9F904B,Tibeto-Burman ,Bodic,Nepal
Dhimba [dhm],-17.3,13.44,#8CA07D,Niger-Kongo ,Bantoid,Namibia
Dhivehi [div],10.6,73,#C57D8F,Indo-European ,Indo-Iranian,Maldives
Dhudhuroa [ddr],-36.5,148,#437E80,Pama-Nyungan ,Gippsland,Australia
Dhurgal [xxx-74],-35.67,150,#457F85,Pama-Nyungan ,Yuin-Kuri,Australia
Dhuwal [duj-2],-12.78,136.01,#917686,Pama-Nyungan ,Yolngu,Australia
Dia [dia-2],-3.476,142.413,#4E8B65,Torricelli ,Wapei,Papua New Guinea
Dianbai [nan-33],21.7,111.18,#86B579,Tibeto-Burman ,Sinitic,China
Dibabawon_Manobo [mbd],7.83,126,#467971,Malayo-Polynesian,Philippines,Philippines
Dibole [bvx],1.08,17.23,#8FA8A0,Niger-Kongo ,Atlantic-Congo,Congo
Dida [dic],5.518,-5.245,#AACC9E,Niger-Kongo ,Atlantic-Congo,Côte d'Ivoire
Didinga [did],4.33,33.6,#D69993,Nilo-Saharan ,Surmic,Sudan
Dido [ddo-2],42.1,46.05,#9E477D,Nakh-Daghestanian ,Tsezic,Russia
Didra [tdr],14.527,108.251,#937B6D,Austroasiatic ,Bahnaric,Vietnam
Didra-2 [tdr-3],14.722,108.1255,#9E885A,Austroasiatic ,Bahnaric,Vietnam
Diebu_Dianga [khg],27.76,99.83,#C5AD95,Tibeto-Burman ,Bodic,China
Diegueño [dih],32.67,-116.17,#9E518E,Yuman-Cochimi ,Yuman,USA
Digaru Mishmi [mhu],28.2,96.2,#9DB17F,Tibeto-Burman ,Digarish,India
Digo [dig],-4.62,39.18,#A59C7E,Niger-Kongo ,Bantoid,Comoros
Dii [dur],8.07,13.882,#D8828F,Niger-Kongo ,Atlantic-Congo,Cameroon
Diidxazá [zai-10],16.553,-94.947,#A16D73,Otomanguean ,Zapotecan,Mexico
Dilaohua Yongan Bobai [yue-26],22.329,109.717,#B3E2A7,Tibeto-Burman ,Sinitic,China
Dimasa [dis],25.33,93,#84925A,Tibeto-Burman ,Bodo-Garo,India
Dime [dim],6.25,36.33,#CC7373,Afro-Asiatic ,Omotic,Ethiopia
Dimili [diq],38,40,#AF6B5C,Indo-European ,Indo-Iranian,Turkey
Dingri [bod-4],28.567,86.633,#C8A180,Tibeto-Burman ,Bodic,China
Dinik [aft],12.458,30.751,#627B6E,Nilo-Saharan ,Nyimang,Sudan
Dinka [dip],8.5,28,#A89D75,Nilo-Saharan ,Nilotic,South Sudan
Diodio [ddi],-9.42,150.16,#7D63C0,Oceanic,,Papua New Guinea
Diola [dyo],13,-16,#9A7772,Niger-Kongo ,Atlantic-Congo,Senegal
Diola-Husuy [dyo-2],12.58,-16.3,#96726A,Niger-Kongo ,Atlantic-Congo,Senegal
Dirak_Mae [mme-2],-15.99,167.29,#617F7C,Oceanic,Southern Oceanic,Vanuatu
Ditammri [tbz-2],10.16,1.18,#74B36E,Niger-Kongo ,Atlantic-Congo,Benin
Dixon_Reef [dix],-15.5,167.5,#777DAA,Oceanic,Southern Oceanic,Vanuatu
Diyari [dif],-28,139,#727695,Pama-Nyungan ,Karnic,Australia
Dizi [mdx],6.17,36.5,#9D8D96,Afro-Asiatic ,Omotic,Ethiopia
Dizin [mdx-2],6.14,35.58,#9F8886,Afro-Asiatic ,Omotic,Ethiopia
Djabugay [dyy],-16.65,145.5,#507C81,Pama-Nyungan ,Paman,Australia
Djambarrpuyngu [djr],-12,135.5,#7F7493,Pama-Nyungan ,Yolngu,Australia
Djapu [duj],-12.667,136,#84758A,Pama-Nyungan ,Yolngu,Australia
Djaru [ddj],-18.75,128,#6D739B,Pama-Nyungan ,Ngumbin-Yapa,Australia
Djeoromitxi [jbt-2],-12.1,-63.1,#486E8D,Macro-Je ,Jabutí,Brazil
Djinang [dji],-12.5,134.833,#757697,Pama-Nyungan ,Yolngu,Australia
Djingili [jig],-17.25,133.833,#7A6D93,Mirndi ,Jingulu,Australia
Dla [kbv],-3.7,142.05,#5C8E59,Trans New Guinea ,Border,Papua New Guinea
Doabi [pan-2],30.1,76.17,#D69767,Indo-European ,Indo-Iranian,Pakistan
Dobel [kvo],-6.083,134.5,#4A7480,Malayo-Polynesian,Southeast Maluku,Indonesia-Maluku-south
Dobu [dob],-9.75,150.83,#4D67AD,Oceanic,Western Oceanic,Papua New Guinea
Dogon [dbu],14.5,-2.5,#8A7E81,Niger-Kongo ,Dogon,Mali
Dogri [dgo],32.03,75.4,#AD797F,Indo-European ,Indo-Iranian,India
Dogrib [dgr],65,-115,#B891AF,Dene-Yeniseic ,Na-Dene,Canada
Dohoi [otd],-0.5,113,#517A7F,Malayo-Polynesian,Barito,Indonesia-Kalimantan
Dolgan [sah-3],70.11,94.29,#9F7E65,Turkic ,North-east Turkic,Russia
Dolpo [dre],29,83,#D18478,Tibeto-Burman ,Bodic,Nepal
Dom [doa],-6,144.917,#75B097,Trans New Guinea ,Chimbu-Wahgi,Papua New Guinea
Dompo [doy],8.18,-2.29,#9E8876,Niger-Kongo ,Atlantic-Congo,Ghana
Domung [dev],-5.82,146.68,#3F767B,Trans New Guinea ,Morobe-Eastern Highlands,Papua New Guinea
Dong [doc],26,109,#B2C59D,Tai-Kadai ,South Tai-Kadai,China
Dong'an [hsn-9],26.4,111.3,#95BA7B,Tibeto-Burman ,Sinitic,China
Dongguan [yue-15],22.844,114.164,#A3CB9C,Tibeto-Burman ,Sinitic,China
Dongolawi [doo],18,32,#986F71,Nilo-Saharan ,Nubian,Sudan
Dongwang [khg],28.25,99.55,#ECA07A,Tibeto-Burman ,Bodic,China
Dori'o [dor],-9.2,160.83,#806C86,Oceanic,Southeast Solomonic,Solomons
Dorig [wwo],-14.35,167.57,#798586,Oceanic,Southern Oceanic,Vanuatu
