name,latitude,longitude,color,family,subgroup,country
!Xoon [nmn],-24,21.5,#0E78B7,Tuu,Tuu,S Africa
A'iwa [ash],-2,-74.5,#7B9D5A,A'iwa,A'iwa,NE South America
A'jië [aji],-21.342,165.459,#A775AB,Austronesian,Southern Oceanic,Oceania
A-Hmao [hmd],25.75,106.08,#276CFB,Hmong-Mien,Hmongic,Southeast Asia-mainland
Aari [aiw],6,36.6,#2B818D,Afro-Asiatic,South Omotic,Greater Abyssinia
Aashing [adi-10],28.99,94.9,#AE737B,Tibeto-Burman,Macro-Tani,Indic
Abanyom [abm],6.499,8.647,#5F4A93,Niger-Kongo,Ekoid,African Savannah
Abar [mij-3],6.59,10.26,#3B5CA7,Niger-Kongo,Beboid,African Savannah
Abau [aau],-4,141.167,#68544C,Sepik,Abau,N Coast New Guinea
Abawiri [flh],-3.05,139.21,#314F53,Lakes Plains,Eastern Lakes Plains,Interior New Guinea
Abaza [abq],44.34,41.67,#3DEFAF,Northwest Caucasus,Abaza-Abkhaz,Greater Mesopotamia
Abduyi [pes-5],29.7,52.07,#54955B,Indo-European,Indo-Iranian,Greater Mesopotamia
Abelam [abt-2],-3.83,143.17,#C57E7F,Ndu,Nuclear Ndu,N Coast New Guinea
Abellen [abp],15.41,120.2,#AB7D57,Austronesian,Philippines,Southeast Asia-Island
Abenaki_Western [abe],44,-72.25,#75814E,Algic,Algonquian,E North America
Aberdeenshire_English [sco-4],57.3,-2,#438476,Indo-European,Germanic,Europe
Abidji [abi],5.66,-4.58,#4A5A83,Niger-Kongo,Kwa,African Savannah
Abinomn [bsa],-3,138.8,#718048,Abinomn,Abinomn,Interior New Guinea
Abipon [axb],-26,-61,#A5915E,Guaicuruan,Southern Guaicuruan,SE South America
Abkhaz [abk],43,41.03,#46E6AD,Northwest Caucasus,Abaza-Abkhaz,Greater Mesopotamia
Abkhaz_Bzyp [ady-14],43.32,40.41,#3CECB8,Northwest Caucasus,Abaza-Abkhaz,Greater Mesopotamia
Abkhaz_Sadz [ady-13],43.33,40.22,#44ECB1,Northwest Caucasus,Abaza-Abkhaz,Greater Mesopotamia
Abron [abr],8.03,-2.8,#3B486F,Niger-Kongo,Kwa,African Savannah
Abruzzo [nap],42.66,13.7,#647BAD,Indo-European,Romance,Europe
Abua [abn],4.8,6.654167,#43549C,Niger-Kongo,Cross River,African Savannah
Abuan [abn-2],4.83,6.61,#41589F,Niger-Kongo,Cross River,African Savannah
Abui [abz],-8.417,124.6,#785C55,Timor-Alor-Pantar,Alor,Southeast Asia-Island
Abujh_Maria [mrr-2],18.75,80.68,#BA886E,Dravidian,South-Central Dravidian,Indic
Abun [kgr],-0.833,132,#455778,West Papuan,Birds Head,N Coast New Guinea
Abure [abu],5.22,-3.64,#54528A,Niger-Kongo,Kwa,African Savannah
Abé [aba],5.6,-4.38,#435E86,Niger-Kongo,Kwa,African Savannah
Acatec [agu-2],15.7,-91.617,#59AD77,Mayan,Core Mayan,Mesoamerica
Acatepec Me'paa [tpx],17.1,-99.06,#205AA2,Otomanguean,Tlapanec-Manguean,Mesoamerica
Aceh_Lhokseumawe [ace-7],5.19,97.14,#6564B9,Austronesian,Aceh,Southeast Asia-Island
Aceh_Pidie [ace-2],5.38,95.96,#6764B7,Austronesian,Aceh,Southeast Asia-Island
Acehnese [ace],5.333,96.167,#5B65AF,Austronesian,Aceh,Southeast Asia-Island
Acehnese_Northeast [ace-6],4.62,97.62,#5068AB,Austronesian,Aceh,Southeast Asia-Island
Acehnese_South [ace-4],4.1,96.23,#5166AA,Austronesian,Aceh,Southeast Asia-Island
Acehnese_Southwest [ace-3],5.05,95.34,#5166A9,Austronesian,Aceh,Southeast Asia-Island
Acehnese_West [ace-5],5.47,95.26,#4F65A9,Austronesian,Aceh,Southeast Asia-Island
Achagua [aca],4.002,-72.814,#81975D,Arawak,Northern Maipuran,Andean
Achang_Liangchong [acn ],29.46,103.7,#2250D2,Tibeto-Burman,Burmish,Southeast Asia-mainland
Achang_Lianghe [acn-2],24.8,98.3,#385DCE,Tibeto-Burman,Burmish,Southeast Asia-mainland
Achang_Longchuan [can-2],24.25,97.833,#3769E1,Tibeto-Burman,Burmish,Southeast Asia-mainland
Achang_Luxi [can-3],24.527,103.764,#3755B0,Tibeto-Burman,Burmish,Southeast Asia-mainland
Achi [acr],15.25,-90.5,#69A368,Mayan,Core Mayan,Mesoamerica
Achuar [acu],-3,-76,#A08C5A,Jivaroan,Shuaric,Andean
Achumawi [acv],41.5,-121,#48AF9E,Palaihnihan,Palaihnihan,Basin and Plains
Aché [guq],-25.25,-55.17,#7F6C55,Tupian,Tupi-Guarani,SE South America
Acipa [acp],10.71,6.01,#137BA0,Niger-Kongo,Kainji,African Savannah
Acoma [kjq-2],34.92,-107.58,#3193BF,Keresan,Western Keresan,Basin and Plains
Acooli [ach],3.293,32.871,#875AAA,Nilo-Saharan,Luo-Burun,S Africa
Adamawa Fulfulde [fub],8.9,15.84,#4D6094,Niger-Kongo,North-Central Atlantic,African Savannah
Adang [adn],-8.163,124.456,#84714D,Timor-Alor-Pantar,Alor,Southeast Asia-Island
Adangme [ada],5.8,0.33,#405598,Niger-Kongo,Kwa,African Savannah
Adim [yay],5.81,8.03,#3E7376,Niger-Kongo,Cross River,African Savannah
Adun [mfn-2],6.16,8.23,#4C6095,Niger-Kongo,Cross River,African Savannah
Adyghe [ady],44.1,39.08,#3DE0A3,Northwest Caucasus,Circassian,Greater Mesopotamia
Adyghe_Abzakh [ady-12],44.7,38.9,#35E2A8,Northwest Caucasus,Circassian,Greater Mesopotamia
Adyghe_Besleney [ady-6],44.7,40.75,#39E4A8,Northwest Caucasus,Circassian,Greater Mesopotamia
Adyghe_Black Sea Shapsugh [ady-2],44.375,38.4,#2EF1BD,Northwest Caucasus,Circassian,Greater Mesopotamia
Adyghe_Bzhedug [ady-7],45,39.3,#30E6B8,Northwest Caucasus,Circassian,Greater Mesopotamia
Adyghe_Cherkess [ady-10],44.25,42.05,#3CE2A4,Northwest Caucasus,Circassian,Greater Mesopotamia
Adyghe_Hakuchi [ady-9],44.88,38,#3CE2A4,Northwest Caucasus,Circassian,Greater Mesopotamia
Adyghe_Natukai [ady-4],44.4,38.35,#38EDAF,Northwest Caucasus,Circassian,Greater Mesopotamia
Adyghe_Shapsugh [ady-3],44.3,39,#2EECBA,Northwest Caucasus,Circassian,Greater Mesopotamia
Adyghe_Temirgoy [ady-11],45.125,39.83,#3DE1A3,Northwest Caucasus,Circassian,Greater Mesopotamia
Adyghe_Uzunyayla [ady-5],44.25,38.77,#3CE3A7,Northwest Caucasus,Circassian,Greater Mesopotamia
Adynyamathanha [adt],-31,139.5,#F183A2,Pama-Nyungan,Thura-Yura,S Australia
Adyukru [adj],5.38,-4.53,#6B479B,Niger-Kongo,Kwa,African Savannah
Adzera [azr],-6.417,146.25,#8B725D,Austronesian,North New Guinea,N Coast New Guinea
Aeka [aez],-8.601,147.994,#6A5C5C,Trans New Guinea,Binanderean,S New Guinea
Afar [aar],11.85,42,#87884E,Afro-Asiatic,East Cushitic,Greater Abyssinia
Afitti [aft-2],12.44,31,#7D568C,Nilo-Saharan,Nyimang,African Savannah
Afrikaans [afr],-33.9,18.5,#6E646F,Indo-European,Germanic,S Africa
Afshar [azj-2],37.475,57.33,#5A9884,Turkic,Common Turkic,Greater Mesopotamia
Aftari_Komisenian [sqo-2],35.6,53.11,#5D9257,Indo-European,Indo-Iranian,Greater Mesopotamia
Agabag [mvv-3],3.965,117.095,#B26F74,Austronesian,North Borneo,Southeast Asia-Island
Agarabi [agd],-6.25,145.917,#824D56,Trans New Guinea,Kainantu,N Coast New Guinea
Agatu [agc],7.98,7.72,#4B65A8,Niger-Kongo,Idomoid,African Savannah
Aghem [agq],6.39,10.12,#2A4FBB,Niger-Kongo,Grassfields,African Savannah
Aghu [ahh],-6.333,140,#50634A,Trans New Guinea,Awyu-Dumut,S New Guinea
Aghu-Tharrnggala [gtu],-13.73,142.43,#D271A8,Pama-Nyungan,Paman,N Australia
Aghul_Huppuq’ [agx-6],41.836,47.6602,#37AC85,Nakh-Daghestanian,Lezgic,Greater Mesopotamia
Aglla [idu-3],6.8,7.95,#4F6FC2,Niger-Kongo,Idomoid,African Savannah
Agta [agt],17.967,121.833,#877358,Austronesian,Philippines,Southeast Asia-Island
Aguaruna [agr],-5.25,-78,#95904B,Jivaroan,Aguaruna,Andean
Aguatec [agu],15.4,-91.4,#53A676,Mayan,Core Mayan,Mesoamerica
Agul [agx],41.78,47.59,#3CAC7E,Nakh-Daghestanian,Lezgic,Greater Mesopotamia
Agul_Burkixan [agx-2],41.78,47.6,#3EB58D,Nakh-Daghestanian,Lezgic,Greater Mesopotamia
Agul_Burshag [agx-3],41.86,47.62,#42BA8C,Nakh-Daghestanian,Lezgic,Greater Mesopotamia
Agul_Fite [agx-4],41.79,47.59,#3AB694,Nakh-Daghestanian,Lezgic,Greater Mesopotamia
Agul_Richa [agx-5],41.78,47.61,#39BF95,Nakh-Daghestanian,Lezgic,Greater Mesopotamia
Agusan [mbb-2],8.68,125.79,#A57858,Austronesian,Philippines,Southeast Asia-Island
Agusan_Manobo [msm],8.63,125.74,#A3755D,Austronesian,Philippines,Southeast Asia-Island
Agutaynen [agn],11.15,120.95,#BA8666,Austronesian,Philippines,Southeast Asia-Island
Agwamin [wmi],-16.986,143.001,#DF6E89,Pama-Nyungan,Paman,N Australia
Agöb [kit],-9.09,142.53,#A56882,South New Guinea,East Morehead,S New Guinea
Ahamb [ahb],-16.507,167.703,#736484,Austronesian,Southern Oceanic,Oceania
Ahan [ahn],7.44,6.01,#455D94,Niger-Kongo,Ayere-Ahan,African Savannah
Ahanta [aha],4.85,-1.95,#446399,Niger-Kongo,Kwa,African Savannah
Ahi [yix],24.4,103.4,#1D63B8,Tibeto-Burman,Central Loloish,Southeast Asia-mainland
Ahom [aho],25,95,#414C92,Tai-Kadai,Southwestern Tai P,Indic
Ahtna [aht],62,-145,#36957C,Dene-Yeniseic,Athapaskan,Alaska-Oregon
Ai-cham_Diwo [aih],25.8,107,#2853BE,Tai-Kadai,Mak-Ai-Cham,Southeast Asia-mainland
Aidian_Mian [mji],24.48,109.74,#2B4FC8,Hmong-Mien,Hmongic,Southeast Asia-mainland
Aikaná [tba],-12.1,-60.6,#697039,Aikaná,Aikaná,NE South America
Aikaná_Masacá [tba-2],-12.7,-60.8,#9C5C6C,Aikaná,Aikaná,NE South America
Aimaq [aiq],35.28,59.18,#559C62,Indo-European,Indo-Iranian,Greater Mesopotamia
Ainu [ain],42.4,142.5,#6F6B4D,Ainu,Ainu,N Coast Asia
Ainu_Kuril [ain-2],46.5,151.5,#917F45,Ainu,Ainu,N Coast Asia
Ainu_Sakhalin [ain-3],47.975,142.2,#756947,Ainu,Ainu,N Coast Asia
Ainu_Saru [ain-4],42.88,142.4,#917F45,Ainu,Ainu,N Coast Asia
Air Tamajeq_Tayart [thz],16.92,7.67,#4FB69E,Afro-Asiatic,Berber,African Savannah
Airoran [air],-1.7,138.15,#878446,Tor-Kwerba,Nuclear Kwerba,N Coast New Guinea
Aisi [mmq],-5.35,145.15,#9F6A55,Trans New Guinea,Madang,N Coast New Guinea
Ait_Seghrouchen [tzm-3],33,-5,#65C078,Afro-Asiatic,Berber,N Africa
Aita_Rotokas [roo-2],-6,155.08,#A76746,North Bougainville,Rotokas,Oceania
Aiton [aio-2],24,94,#4D449D,Tai-Kadai,Shan Tai,Indic
Aitutaki [rar-2],-18.872,-159.782,#AA6D47,Austronesian,Central Pacific,Oceania
Aiwoo [nfl],-10.5,166.5,#8281A1,Austronesian,Te Motu,Oceania
Aizi [ahp],5.25,-4.5,#475A91,Niger-Kongo,Kru,African Savannah
Aja [ajg],7.06,1.66,#4173B8,Niger-Kongo,Gbe,African Savannah
Ajagbe [ajg-2],7.08,1.64,#5A8193,Niger-Kongo,Gbe,African Savannah
Ajami [pes-8],29.44,48.33,#59A46E,Indo-European,Indo-Iranian,Greater Mesopotamia
Ajumbu [muc-2],6.55,10.27,#2E54AF,Niger-Kongo,Beboid,African Savannah
Aka [axk],3.46,15.73,#285388,Ubangian,Ubangian,African Savannah
Aka [hru-2],27.2,92.9,#318BA7,Tibeto-Burman,Hrusish,Indic
Akabea [abj-2],12.38,92.78,#D37094,Andaman,Andaman,Southeast Asia-mainland
Akan [aka],6.5,-1.25,#2F6E7C,Niger-Kongo,Kwa,African Savannah
Akaselem [aks],8.89,1.37,#574C95,Niger-Kongo,Gur,African Savannah
Akawaio [ake],6,-59.5,#8D7447,Cariban,Venezuelan,NE South America
Ake [aik],8.6,8.76,#35518E,Niger-Kongo,Plateau,African Savannah
Akei [tsr],-15.49,166.75,#9C7A4A,Austronesian,Southern Oceanic,Oceania
Akha [ahk],20.3,99.6,#315C7B,Tibeto-Burman,Hani-Jino,Southeast Asia-mainland
Akha_Akhe [ahk-8],21.916,100.465,#2859B4,Tibeto-Burman,Hani-Jino,Southeast Asia-mainland
Akha_Buli [ahk-4],21.2,101.15,#2E55AC,Tibeto-Burman,Hani-Jino,Southeast Asia-mainland
Akha_Chicho [ahk-2],20.92,101.4,#2C52BA,Tibeto-Burman,Hani-Jino,Southeast Asia-mainland
Akha_Senchai [ahk-3],26.9,99,#265CA5,Tibeto-Burman,Hani-Jino,Southeast Asia-mainland
Akhvakh [akv],42.379,46.384,#25EAA8,Nakh-Daghestanian,Avar-Andi,Greater Mesopotamia
Akie [oki],-5.43,37.19,#6E47A1,Nilo-Saharan,Kalenjin,S Africa
Aklanon [akl],11.58,122.33,#978559,Austronesian,Philippines,Southeast Asia-Island
Akosse [bss],5.05,9.8,#33588F,Niger-Kongo,Zone A10,African Savannah
Akoye [miw-2],-7.645,145.65,#584C57,Trans New Guinea,Angan,S New Guinea
Akpes [ibe],7.5,5.96,#416086,Niger-Kongo,Akpes,African Savannah
Akuntsu [aqz],-12.74,-60.8,#B77253,Tupian,Tupari,NE South America
Akurio [ako],3.0132,-55.6434,#A97448,Cariban,Guianan Carib,NE South America
Akwa [akw],-0.005,15.612,#394D8C,Niger-Kongo,Zone C20,S Africa
Akweya [akf],7.33,8.02,#6F6ECB,Niger-Kongo,Idomoid,African Savannah
Akye-Gnan [ati-2],5.48,-4.09,#154C94,Niger-Kongo,Kwa,African Savannah
Alaaba [alw],7.31,38.09,#4B8E71,Afro-Asiatic,East Cushitic,Greater Abyssinia
Alaala [nrz],-9,146.667,#9F6758,Austronesian,Papuan Tip,S New Guinea
Alaba-K'abeena [alw-2],7.39,38.17,#48817B,Afro-Asiatic,East Cushitic,Greater Abyssinia
Alabama [akz],32.7,-86.1,#647A4F,Muskogean,Muskogean,E North America
Alacalufe_Central [alc-2],-53.528,-70.9573,#809543,Alaculufan,Alaculufan,SE South America
Alacalufe_Southern [alc-3],-55.2,-69.4,#839951,Alaculufan,Alaculufan,SE South America
Alagwa [wbj],-4.64,35.72,#6BBC99,Afro-Asiatic,South Cushitic,S Africa
Alamblak [amp],-4.667,143.25,#768046,Sepik,Sepik Hill,N Coast New Guinea
Alangan-Mangyan [alj],13.1,121.02,#A97B59,Austronesian,Philippines,Southeast Asia-Island
Alas_Batak [btz-2],2.64,98,#8C6B6B,Austronesian,Batak-Barrier Islands,Southeast Asia-Island
Alawa [alh],-15.75,134.333,#E97A9C,Macro-Gunwinygu,Alawa,N Australia
Albanian_Cham [als-4],39.6,20.8,#5088A0,Indo-European,Albanian,Europe
Albanian_Gheg [aln-2],42.43,20.73,#427988,Indo-European,Albanian,Europe
Albanian_Gheg_Kosovo [aln],42.58,21,#51906D,Indo-European,Albanian,Europe
Albanian_Lab [als-5],40.17,19.83,#4980A1,Indo-European,Albanian,Europe
Albanian_Mandritsa [aln-5],41.38,26.13,#517CA3,Indo-European,Albanian,Europe
Albanian_Tosk [als],40.5,20,#4482AA,Indo-European,Albanian,Europe
Albanian_Upper_Reka [aln-4],41.72,20.57,#498A93,Indo-European,Albanian,Europe
Albanian_Vaccarizzo [als-6],39.58,16.43,#5495B4,Indo-European,Albanian,Europe
Albese [ita-14],44.7,8.04,#645B9B,Indo-European,Romance,Europe
Ale [gwd],5.38,37.27,#5BA366,Afro-Asiatic,East Cushitic,Greater Abyssinia
Alekano [gah-2],-6,145.4,#536355,Trans New Guinea,Goroka,Interior New Guinea
Aleut [ale],54,-166,#71B29D,Eskimo-Aleut,Aleut,Alaska-Oregon
Aleut_Atkan [ale-2],52,-174,#72B696,Eskimo-Aleut,Aleut,Alaska-Oregon
Aleut_Attuan [ale-3],52.85,172.9,#72B59B,Eskimo-Aleut,Aleut,Alaska-Oregon
Aleut_Eastern [ale-4],54.75,-164,#74B696,Eskimo-Aleut,Aleut,Alaska-Oregon
Aleut_Unangas [ale-5],55.3,166,#ADAA88,Eskimo-Aleut,Aleut,Alaska-Oregon
Algherese [cat-3],40.55,8.32,#7D76A6,Indo-European,Romance,Europe
Algonquin [alq],46,-82,#5E8546,Algic,Algonquian,E North America
Ali [ykm],-3.17,142.25,#BE776C,Austronesian,North New Guinea,N Coast New Guinea
Alladian [ald],5.17,-4.33,#35658C,Niger-Kongo,Kwa,African Savannah
Allentiac [qbt],-32,-66,#899562,Huarpe,Huarpe,SE South America
Alngith [aid],-12.5,142.17,#CE7FA9,Pama-Nyungan,Paman,N Australia
Alo-Teqel [tql-2],-13.8,167.47,#A57B65,Austronesian,Southern Oceanic,Oceania
Alor [aol],-8.245,124.412,#8F7659,Austronesian,Bima-Lembata,Southeast Asia-Island
Alsatian [gsw-2],48.32,7.44,#49788E,Indo-European,Germanic,Europe
Alsea [aes],44.67,-123.93,#41D1A2,Alsean,Alsean,Alaska-Oregon
Altai [alt],51,87,#609992,Turkic,Common Turkic,Inner Asia
Altai_Kumandy [atv],51.3,87.7,#636D6C,Turkic,Common Turkic,Inner Asia
Alto Perené [prq-2],-10.945,-75.255,#8D9157,Arawak,Southern Maipuran,NE South America
Alumbis_Murut [mvv],4.799,115.496,#AD795E,Austronesian,North Borneo,Southeast Asia-Island
Alune [alp],-3.167,128.333,#808042,Austronesian,Central Maluku,Southeast Asia-Island
Alur [alz],2.5,31.25,#4B5AA5,Nilo-Saharan,Luo-Burun,S Africa
Alutiiq [ems],58.015,-152.765,#6CC293,Eskimo-Aleut,Eskimo,Alaska-Oregon
Alyawarr [aly],-24.6,134.5,#F386B5,Pama-Nyungan,Arandic,S Australia
Alyutor [alr],61,165,#C19C83,Chukotko-Kamchatkan,Chukotian,N Coast Asia
Ama [amm],-4.168,141.671,#525560,Left May,Left May,N Coast New Guinea
Amahai_Soahuku [amq],-3.332,128.949,#AC7A50,Austronesian,Central Maluku,Southeast Asia-Island
Amahuaca [amc],-10.8,-73.5,#578552,Panoan,Pano Nawa,NE South America
Amaimon [ali],-5.193,145.325,#A5775C,Trans New Guinea,Madang,N Coast New Guinea
Amam [wer],-7.85,146.95,#A66D4C,Trans New Guinea,Goilala,S New Guinea
Amami_Ryukyu [ams-2],28,129,#3B6D8A,Japonic,Ryukyuan,N Coast Asia
Amanab [amn],-3.5,141.167,#8C6454,Trans New Guinea,Border,N Coast New Guinea
Amanuban [aoz-2],-9.82,124.47,#817C3E,Austronesian,Southeast Maluku,Southeast Asia-Island
Amanutun [aoz-4],-9.69,124.83,#86864C,Austronesian,Southeast Maluku,Southeast Asia-Island
Amara [aie],-5.533,148.667,#AE6565,Austronesian,North New Guinea,N Coast New Guinea
Amarakaeri [amr-2],-12.6938,-70.3235,#92734F,Harakmbet,Harakmbet,NE South America
Amarasi [aaz],-10.08,124.33,#848045,Austronesian,Southeast Maluku,Southeast Asia-Island
Amba_Nembao [utp-2],-11.27,166.48,#7A755F,Austronesian,Te Motu,Oceania
Ambae_West [omb],-15.5,167.75,#9F7A5B,Austronesian,Southern Oceanic,Oceania
Ambai [amk],-1.917,136.533,#7F7641,Austronesian,South Halmahera-West New Guinea,N Coast New Guinea
Ambel [xmt-2],-0.05,130.7,#785E61,Austronesian,South Halmahera-West New Guinea,N Coast New Guinea
Ambelau [mhs-4],-3.89,127.205,#705D6A,Austronesian,Central Maluku,Southeast Asia-Island
Ambele [ael],5.94,9.62,#3C549B,Niger-Kongo,Grassfields,African Savannah
Amblong [alm],-15.497,166.926,#8A744C,Austronesian,Southern Oceanic,Oceania
Ambonese Malay [abs],-3.7,128.2,#B07376,Austronesian,Malayic,Southeast Asia-Island
Ambrym_Southeast [tvk-2],-16.33,168.08,#827157,Austronesian,Southern Oceanic,Oceania
Ambulas [abt],-3.75,143.083,#A76A6D,Ndu,Nuclear Ndu,N Coast New Guinea
Amdo [adx],36,94,#5B88BA,Tibeto-Burman,Tibetan,Inner Asia
Ameland [frs-3],53.45,5.77,#4B686F,Indo-European,Germanic,Europe
Amele_Haija [aey],-5.25,145.75,#73793E,Trans New Guinea,Madang,N Coast New Guinea
Amele_Huar [aey-3],-5.287,145.718,#8A7644,Trans New Guinea,Madang,N Coast New Guinea
Amele_Jagahala [aey-2],-5.264,145.642,#80793F,Trans New Guinea,Madang,N Coast New Guinea
Amfo'an [aoz-3],-9.45,123.9,#738843,Austronesian,Southeast Maluku,Southeast Asia-Island
Amharic [amh],10,38,#559376,Afro-Asiatic,Ethiopian,Greater Abyssinia
Ami [amy],-14,130,#DC7578,Western Daly,Western Daly,N Australia
Amis [ami],23.333,121.333,#9A9E60,Austronesian,East Formosan,Southeast Asia-Island
Amo [amo],10.33,8.67,#435E8B,Niger-Kongo,Kainji,African Savannah
Amonap / Apalakiri / Matipu [mzo],-12.05,-53.4,#927E5E,Cariban,Nahukwa,NE South America
Amoy [nan],24.5,118,#244C72,Tibeto-Burman,Min,Southeast Asia-mainland
Ampale [apz],-6.753,146.107,#58597B,Trans New Guinea,Angan,Interior New Guinea
Ampibabo [law-2],-0.46,120.06,#B77766,Austronesian,Celebic,Southeast Asia-Island
Amu [swh-9],-2.27,40.9,#6290A2,Niger-Kongo,Zone G40,S Africa
Amuesha [ame],-10,-73,#85AC9D,Arawak,Western Maipuran,NE South America
Amundava [adw],-10.9942,-63.0642,#9C6E4C,Tupian,Tupi-Guarani,NE South America
Amurdak [amg],-12.022,132.892,#FB7F9E,Iwaidjan,Amurdak,N Australia
Amuzgo [amu],16.83,-98,#2F53A7,Otomanguean,Amuzgoan,Mesoamerica
Amuzgo_Huixtepec [amu-2],16.5,-98.1,#466E6A,Otomanguean,Amuzgoan,Mesoamerica
Amuzgo_San_Pedro [azg],16.85,-98,#465E69,Otomanguean,Amuzgoan,Mesoamerica
Amuzgo_Xochistlahuaca [amu-3],16.79,-98.24,#3E5CA7,Otomanguean,Amuzgoan,Mesoamerica
Amwi [aml],25.209,92.068,#415691,Austroasiatic,Khasian,Indic
Anaguta [nar],9.964,8.731,#51659B,Niger-Kongo,Kainji,African Savannah
Anakalang [akg],-9.67,119.67,#A36F6D,Austronesian,Bima-Lembata,Southeast Asia-Island
Anal [anm],24.33,93.99,#4F6AB7,Tibeto-Burman,Kuki-Chin,Indic
Anamuxra [imi],-4.667,145,#788B47,Trans New Guinea,Madang,N Coast New Guinea
Andalusian [spa-4],37.5,-3.6,#717251,Indo-European,Romance,Europe
Andi [ani],42.79,46.27,#32A792,Nakh-Daghestanian,Avar-Andi,Greater Mesopotamia
Andi_Tad-Magitil [ani-2],42.75,46.25,#30A48D,Nakh-Daghestanian,Avar-Andi,Greater Mesopotamia
Andoa [anb],-2.9,-76.4051,#86A972,Zaparoan,Zaparoan,Andean
Andoké [ano],0,-72,#445F48,Andoké,Andoké,NE South America
Anejom [aty],-20.25,169.833,#84899D,Austronesian,Southern Oceanic,Oceania
Anem [anz],-5.667,149,#9B606B,Anem,Anem,N Coast New Guinea
Aneme_Wake [aby],-9.733,148.52,#7C6C31,Southeast Papuan,Mailu-Yareban,S New Guinea
Anfillo [myo],8.57,34.65,#5F915D,Afro-Asiatic,North Omotic,Greater Abyssinia
Anfu [gan-22],27.38,114.62,#2B41AF,Tibeto-Burman,Gan,Southeast Asia-mainland
Angaatiha [agm],-7.22,146.25,#B86668,Trans New Guinea,Angan,Interior New Guinea
Angal [age],-6,143.6,#7C7053,Trans New Guinea,Engan,Interior New Guinea
Angal_Heneng [akh],-6.13,143.42,#836449,Trans New Guinea,Engan,Interior New Guinea
Angali [pes-2],29.75,50.96,#54A078,Indo-European,Indo-Iranian,Greater Mesopotamia
Angami [njm],25.667,94.5,#507FCD,Tibeto-Burman,Angami-Ao,Indic
Angami_Khonoma [njm-4],25.65,94.03,#4F7DCF,Tibeto-Burman,Angami-Ao,Indic
Angami_Khonoma-Tongime [njm-2],25.63,93.99,#4676BF,Tibeto-Burman,Angami-Ao,Indic
Angami_Kohima [njm-5],25.67,94.11,#4868DA,Tibeto-Burman,Angami-Ao,Indic
Angami_Kohima-Tongime [njm-6],26.99,95.51,#4965D8,Tibeto-Burman,Angami-Ao,Indic
Angas [anc],9.75,8.75,#356AA0,Afro-Asiatic,West Chadic,African Savannah
Anggor [agg],-3.667,141.167,#726C50,Trans New Guinea,Border,N Coast New Guinea
Anggreso [kwe-2],-2.17,138.25,#978249,Tor-Kwerba,Nuclear Kwerba,N Coast New Guinea
Angika [anp],26,85.53,#987BD0,Indo-European,Indo-Iranian,Indic
Angkamuthi [avm],-11.5,142.25,#CD7A99,Pama-Nyungan,Paman,N Australia
Angkola_Batak [akb],1.518,99.531,#B3746C,Austronesian,Batak-Barrier Islands,Southeast Asia-Island
Anguthimri [awg],-12.333,141.833,#AD6CB6,Pama-Nyungan,Paman,N Australia
Ani_Phowa [ypn],23.6,103.3,#107BB4,Tibeto-Burman,Central Loloish,Southeast Asia-mainland
Anib [kni],9.55,8.6,#285690,Niger-Kongo,Plateau,African Savannah
Anii [blo],9.003,1.669,#4B50AC,Niger-Kongo,Kwa,African Savannah
Anindilyagwa [aoi],-14,136.5,#EB8BB4,Macro-Gunwinygu,East Arnhem,N Australia
Anindilyagwa_East [aoi-2],-13.86,136.81,#DF81B7,Macro-Gunwinygu,East Arnhem,N Australia
Aniwa [fut-2],-19.256,169.6,#976D41,Austronesian,Central Pacific,Oceania
Anjam [boj],-5.441,145.737,#B0737B,Trans New Guinea,Madang,N Coast New Guinea
Anji [wuu-6],30.65,119.69,#2649C2,Tibeto-Burman,Wu,Southeast Asia-mainland
Ankave [aak],-7.137,145.744,#A8714B,Trans New Guinea,Angan,Interior New Guinea
Anlong [pcc-6],25.1,105.44,#3A68C4,Tai-Kadai,Northern Tai,Southeast Asia-mainland
Anmatyerr_East [amx],-22.256,131.5,#F87BA8,Pama-Nyungan,Arandic,S Australia
Anmatyerr_West [amx-2],-21,135,#FF879C,Pama-Nyungan,Arandic,S Australia
Anong [nun],27.2,98.8,#4167D9,Tibeto-Burman,Nungish,Southeast Asia-mainland
Ansus [and],-1.73,135.806,#8B7440,Austronesian,South Halmahera-West New Guinea,N Coast New Guinea
Anta [tci-3],-8.65,141.52,#707859,South New Guinea,Tonda,S New Guinea
Antakarinya [ant],-27.11,134.85,#F87C8F,Pama-Nyungan,Wati,S Australia
Antakirinya [ant-2],-27.13,134.83,#F37E92,Pama-Nyungan,Wati,S Australia
Antekerrepenhe [adg],-22.52,137.34,#EE80B7,Pama-Nyungan,Arandic,S Australia
Antioquian [xxx-112],7,-73,#837444,Chibchan,Southern Magdalenic Chibchan,Andean
Antwerps [nld-2],51.22,4.4,#487788,Indo-European,Germanic,Europe
Anuak [anu],7.18,34.097,#A9558C,Nilo-Saharan,Luo-Burun,African Savannah
Anufo [cko],10.218,0.33,#5C4C89,Niger-Kongo,Kwa,African Savannah
Anus [auq],-2.13,139.51,#8A694D,Austronesian,North New Guinea,N Coast New Guinea
Anuta [aud],-11.611,169.85,#9D693F,Austronesian,Central Pacific,Oceania
Anyi [gan-19],28.84,115.6,#3547AC,Tibeto-Burman,Gan,Southeast Asia-mainland
Anyin [any],5.9,-2.9,#445D5D,Niger-Kongo,Kwa,African Savannah
Anywa [anu-2],7.3,33,#A7519F,Nilo-Saharan,Luo-Burun,African Savannah
Aoheng [pni],1.025,114.175,#A16760,Austronesian,North Borneo,Southeast Asia-Island
Aore [aor],-15.577,167.181,#A16F5F,Austronesian,Southern Oceanic,Oceania
Apache_Western [apw],33.9,-109.55,#279B80,Dene-Yeniseic,Athapaskan,Basin and Plains
Apalachee [xap],30.04,-84.17,#8D904A,Muskogean,Muskogean,E North America
Apalai [apy],0,-54,#807D3F,Cariban,Apalai,NE South America
Apali [ena],-5.088,145.017,#837F56,Trans New Guinea,Madang,N Coast New Guinea
Apatani [apt],27.4,93.8,#574E9C,Tibeto-Burman,Macro-Tani,Indic
Apiaká [api],-7.9484,-57.7365,#9D6D4C,Tupian,Tupi-Guarani,NE South America
Apinaye [apn],-6.25,-48,#6E5573,Macro-Je,Je,NE South America
Apma [app],-15.775,168.158,#81765C,Austronesian,Southern Oceanic,Oceania
Apma_Suru Kavian [app-2],-15.61,168.14,#807764,Austronesian,Southern Oceanic,Oceania
Apurinã [apu],-7.26,-64.8,#8B7C48,Arawak,Southern Maipuran,NE South America
Apurinã-2 [apu-2],-5.63,-63.17,#91824F,Arawak,Southern Maipuran,NE South America
Aputai [apx],-7.888,126.505,#8D7E48,Austronesian,Southeast Maluku,Southeast Asia-Island
Arabana [ard],-28,137,#FA80A3,Pama-Nyungan,Karnic,S Australia
Arabela [arl],-2,-75.17,#7A7F48,Zaparoan,Zaparoan,NE South America
Arabic [arb],29.5,42.5,#6BC276,Afro-Asiatic,Arabic,Greater Mesopotamia
Arabic; North Israel Bedouin [ajp-4],32.83,35.33,#43BE91,Afro-Asiatic,Arabic,Greater Mesopotamia
Arabic_Abha [acw-2],18.22,42.51,#53B36A,Afro-Asiatic,Arabic,Greater Mesopotamia
Arabic_Abéché [ayl-4],13.83,20.83,#67BB9D,Afro-Asiatic,Arabic,African Savannah
Arabic_Afghanistan [acm-3],36.7,67.12,#71AA60,Afro-Asiatic,Arabic,Inner Asia
Arabic_Algerian [arq-2],36.7,3.1,#9EA769,Afro-Asiatic,Arabic,N Africa
Arabic_Andalusian [xaa],35.767,-5.8,#5FBF82,Afro-Asiatic,Arabic,Europe
Arabic_Attuwair [acw-3],29.9,40.1,#63C38E,Afro-Asiatic,Arabic,Greater Mesopotamia
Arabic_Baghdad [acm-4],33.33,44.38,#66B867,Afro-Asiatic,Arabic,Greater Mesopotamia
Arabic_Baghdad-Christian [acm-9],33.34,44.37,#5ABE81,Afro-Asiatic,Arabic,Greater Mesopotamia
Arabic_Baghdad-Jewish [acm-8],33.33,44.39,#59BF82,Afro-Asiatic,Arabic,Greater Mesopotamia
Arabic_Baghdad-Muslim [acm-7],33.32,44.4,#4FC189,Afro-Asiatic,Arabic,Greater Mesopotamia
Arabic_Bareqi [acw-9],18.93,41.94,#6ABE6E,Afro-Asiatic,Arabic,Greater Mesopotamia
Arabic_Bareqi-2 [acw-7],19,43,#5AB062,Afro-Asiatic,Arabic,Greater Mesopotamia
Arabic_Basra [acm],30.5,47.825,#56C386,Afro-Asiatic,Arabic,Greater Mesopotamia
Arabic_Bedouin_Sinai_Mzēnah [avl],28.135,34.1,#4FB56E,Afro-Asiatic,Arabic,N Africa
Arabic_Bedouin_Sinai_Taṛābīn [avl-3],31,34.2,#50B16B,Afro-Asiatic,Arabic,N Africa
Arabic_Bedouin_Sinai_Ǧbāliyyah [avl-2],28.557,33.943,#4FB36D,Afro-Asiatic,Arabic,N Africa
Arabic_Bukhara [auz],39.76,64.42,#6DAE68,Afro-Asiatic,Arabic,Inner Asia
Arabic_Chad [shu-3],14,19,#689F6E,Afro-Asiatic,Arabic,African Savannah
Arabic_Chowa [shu-4],12.5,14.5,#699E64,Afro-Asiatic,Arabic,African Savannah
Arabic_Coastal-Dhofari [acx],20.7,58.2,#53B066,Afro-Asiatic,Arabic,Greater Mesopotamia
Arabic_Cypriot [acy],34.343,33.011,#5AA268,Afro-Asiatic,Arabic,Greater Mesopotamia
Arabic_Egyptian [arz],30,30,#58A860,Afro-Asiatic,Arabic,N Africa
Arabic_Faifa [jye-3],17.25,43.1,#58B677,Afro-Asiatic,Arabic,Greater Mesopotamia
Arabic_Fezzan [ayl-2],26.33,13.43,#6FCB8B,Afro-Asiatic,Arabic,N Africa
Arabic_Gulf [afb],24,54,#51B677,Afro-Asiatic,Arabic,Greater Mesopotamia
Arabic_Hadhrami_coast [jye-5],14.95,50.34,#6CB466,Afro-Asiatic,Arabic,Greater Mesopotamia
Arabic_Hadhrami_wadi [jye-6],16.05,49,#67B768,Afro-Asiatic,Arabic,Greater Mesopotamia
Arabic_Harb [acw],25.81,42.87,#3FB07C,Afro-Asiatic,Arabic,Greater Mesopotamia
Arabic_Hassaniya [mey],16.6,-7.25,#6FBC8B,Afro-Asiatic,Arabic,African Savannah
Arabic_Hejazi [acw-5],21.543,41.173,#4CAC68,Afro-Asiatic,Arabic,Greater Mesopotamia
Arabic_Hejazi_Al'Ula [acw-6],26.627,37.917,#4FAB64,Afro-Asiatic,Arabic,Greater Mesopotamia
Arabic_Hejazi_Badr [acw-10],23.78,38.79,#58A862,Afro-Asiatic,Arabic,Greater Mesopotamia
Arabic_Ilbahariyya [arz-3],28.35,28.93,#63B969,Afro-Asiatic,Arabic,N Africa
Arabic_Jijel [ary-3],36.821,5.75,#A2A668,Afro-Asiatic,Arabic,N Africa
Arabic_Jordanian [ajp-5],32,36,#46B46E,Afro-Asiatic,Arabic,Greater Mesopotamia
Arabic_Judeo-Tunisian [ajt],33.87,10.85,#5BBA86,Afro-Asiatic,Arabic,N Africa
Arabic_Khawetna [arb-3],36.42,41.225,#60C185,Afro-Asiatic,Arabic,Greater Mesopotamia
Arabic_Khuzestan [acm-2],31.33,48.69,#53B471,Afro-Asiatic,Arabic,Greater Mesopotamia
Arabic_Kuwaiti [afb-5],29.5,47.75,#4EB371,Afro-Asiatic,Arabic,Greater Mesopotamia
Arabic_Lebanese [apc-2],33.883,35.502,#87874B,Afro-Asiatic,Arabic,Greater Mesopotamia
Arabic_Levantine_Amman [ajp-9],31.9,35.9,#52A765,Afro-Asiatic,Arabic,Greater Mesopotamia
Arabic_Levantine_Homs [ajp-7],34.7,36.7,#55A763,Afro-Asiatic,Arabic,Greater Mesopotamia
Arabic_Levantine_Jerusalem [ajp-8],31.8,35.2,#58A15B,Afro-Asiatic,Arabic,Greater Mesopotamia
Arabic_Levantine_Northern_coast [ajp-11],34.9,35.9,#63A25B,Afro-Asiatic,Arabic,Greater Mesopotamia
Arabic_Levantine_Northern_inland [ajp-12],33.1,35.7,#5BA660,Afro-Asiatic,Arabic,Greater Mesopotamia
Arabic_Levantine_Outer-south [ajp-14],31.3,34.6,#6DA45D,Afro-Asiatic,Arabic,Greater Mesopotamia
Arabic_Levantine_Southern [ajp-13],31.7,34.9,#6CAF68,Afro-Asiatic,Arabic,Greater Mesopotamia
Arabic_Levantine_al-Karak [ajp-10],31.2,35.7,#52A765,Afro-Asiatic,Arabic,Greater Mesopotamia
Arabic_Libyan [ayl],32,20.25,#46B571,Afro-Asiatic,Arabic,N Africa
Arabic_Libyan_Western [ayl-3],32.5,13,#5CB86D,Afro-Asiatic,Arabic,N Africa
Arabic_Mardin [apc-3],37.363,40.91,#4EB476,Afro-Asiatic,Arabic,Greater Mesopotamia
Arabic_Mauritanian [ary-2],20.92,-11.62,#9FA69C,Afro-Asiatic,Arabic,African Savannah
Arabic_Mesopotamian [acm-5],33,44,#5EBA69,Afro-Asiatic,Arabic,Greater Mesopotamia
Arabic_Moroccan [ary],34,-7,#6FC379,Afro-Asiatic,Arabic,N Africa
Arabic_Muscat [acx-2],23.63,58.55,#51BB70,Afro-Asiatic,Arabic,Greater Mesopotamia
Arabic_Najdi [acw-4],23,45.5,#4EB46A,Afro-Asiatic,Arabic,Greater Mesopotamia
Arabic_Negev [ajp-15],31.386,34.758,#5ABF76,Afro-Asiatic,Arabic,Greater Mesopotamia
Arabic_Omani [acx-3],23.589,58.556,#4AA86E,Afro-Asiatic,Arabic,Greater Mesopotamia
Arabic_Omani_Shawawi [acx-4],22.92,57.79,#5CB06A,Afro-Asiatic,Arabic,Greater Mesopotamia
Arabic_Oran [arq],35.7,-0.63,#5EBA77,Afro-Asiatic,Arabic,N Africa
Arabic_Palestinian_Urban [ajp-3],31.52,34.45,#55A96A,Afro-Asiatic,Arabic,Greater Mesopotamia
Arabic_Qatari [afb-3],25.3,51.52,#5EB97C,Afro-Asiatic,Arabic,Greater Mesopotamia
Arabic_Qifti [arz-2],26,32.82,#5EAD74,Afro-Asiatic,Arabic,N Africa
Arabic_Sa'idi [aec],25,32.75,#7CB462,Afro-Asiatic,Arabic,N Africa
Arabic_Sason [arb-2],38.333,41.42,#5DAC82,Afro-Asiatic,Arabic,Greater Mesopotamia
Arabic_Saudi [ars],24.48,40,#56AE63,Afro-Asiatic,Arabic,Greater Mesopotamia
Arabic_Shabwani [acw-8],17.48,47.12,#68C273,Afro-Asiatic,Arabic,Greater Mesopotamia
Arabic_Sudanese [apd-2],15.5,32.56,#3EA476,Afro-Asiatic,Arabic,African Savannah
Arabic_Syrian [apc],33,37,#57BB85,Afro-Asiatic,Arabic,Greater Mesopotamia
Arabic_Ta'izzi_Adeni [acq],11.502,43,#82C174,Afro-Asiatic,Arabic,Greater Abyssinia
Arabic_Tillo [arb-4],37.95,42.013,#58C196,Afro-Asiatic,Arabic,Greater Mesopotamia
Arabic_Traras-Msirda [ary-4],35.18,-1.65,#A0A262,Afro-Asiatic,Arabic,N Africa
Arabic_Tunisian [aeb],36,10,#51BE86,Afro-Asiatic,Arabic,N Africa
Arabic_Tunisian_Sahel_Female [aeb-2],35.83,10.63,#57C178,Afro-Asiatic,Arabic,N Africa
Arabic_Wadi Mousa [ajp-2],30.32,35.48,#5BA75D,Afro-Asiatic,Arabic,Greater Mesopotamia
Arabic_Yemeni [jye-2],14,47,#78C06B,Afro-Asiatic,Arabic,Greater Mesopotamia
Arabic_Yemeni_Hadhrami [ayh],16.67,49.5,#6FB865,Afro-Asiatic,Arabic,Greater Mesopotamia
Arabic_Yemeni_Tihamiyya [arb-6],13.083,43.833,#85BE69,Afro-Asiatic,Arabic,Greater Mesopotamia
Arabic_Yemeni_Zabidi [acq-2],14.2,43.317,#6DBD6C,Afro-Asiatic,Arabic,Greater Mesopotamia
Aragonese [arg],41,-1,#A18662,Indo-European,Romance,Europe
Aragusuku [mvi-3],24.22,123.93,#49487D,Japonic,Ryukyuan,N Coast Asia
Araki [akr],-15.629,166.957,#AF775D,Austronesian,Southern Oceanic,Oceania
Arakmbut [hug],-13.27,-71.21,#A6654F,Harakmbet,Harakmbet,NE South America
Aralle-Tabulahan [atq],-2.756,119.203,#9D734F,Austronesian,Greater South Sulawesi,Southeast Asia-Island
Arammba [stk],-8.25,141.5,#476878,South New Guinea,Tonda,S New Guinea
Arandai [jbj],-2.17,133,#88794A,Trans New Guinea,South Birds Head,N Coast New Guinea
Aranese [oci-4],42.7,0.795,#4B8987,Indo-European,Romance,Europe
Araona [aro],-12.333,-67.75,#6D904D,Tacanan,Tacanan,NE South America
Arapaho [arp],39.565,-105.345,#53803C,Algic,Algonquian,Basin and Plains
Arapesh_Muhiang [aoj],-3.564,142.9,#769751,Torricelli,Kombio-Arapesh,N Coast New Guinea
Arara_do_Acre [adc],-8.841,-72.315,#738444,Panoan,Pano Nawa,NE South America
Arara_do_Mato_Grosso [axg],-9.5,-60,#65676B,Arara_do_Mato_Grosso,Arara_do_Mato_Grosso,NE South America
Arara_do_Para [aap-2],-4.24,-53.34,#C46D5E,Cariban,Pekodian,NE South America
Araucanian lg [arn-2],-43,-73.5,#BC8395,Araucanian,Araucanian,Andean
Arawak [arw],5.64,-56.92,#857249,Arawak,Northern Maipuran,NE South America
Araweté [awt],-4.142017,-52.416914,#937843,Tupian,Tupi-Guarani,NE South America
Arbanasi [aln-3],44.11,15.23,#407581,Indo-European,Albanian,Europe
Arbore [arv],4.92,36.8,#447C80,Afro-Asiatic,East Cushitic,Greater Abyssinia
Arbëresh Kundisa [als-10],37.73,13.18,#54A29F,Indo-European,Albanian,Europe
Arbëresh [als-2],37.995,13.283,#469EAA,Indo-European,Albanian,Europe
Arbëresh_Pianese [als-8],37.8,12.8,#569CA4,Indo-European,Albanian,Europe
Archi [aqc],42.07,46.86,#31D09D,Nakh-Daghestanian,Lezgic,Greater Mesopotamia
Arctic Bay_Inuit [ikt],73.036,-85.15,#9E9852,Eskimo-Aleut,Eskimo,E North America
Are [mwc],-9.67,150,#8F7E47,Austronesian,Papuan Tip,S New Guinea
Are'are [alu],-9.342,161.203,#95793F,Austronesian,Southeast Solomonic,Oceania
Arem [aem],18.15,105.5,#2E54BA,Austroasiatic,Vietic,Southeast Asia-mainland
Argobba [agj],10.66,39.76,#4C9777,Afro-Asiatic,Ethiopian,Greater Abyssinia
Arguni [agf],-2.667,132.5,#9A6287,Austronesian,South Halmahera-West New Guinea,N Coast New Guinea
Ari [aac],-7.916,142.34,#8B6A40,Papuan Gulf,Gogodala-Suki,S New Guinea
Aribwatsa [laz],-6.667,146.917,#8F7C5A,Austronesian,North New Guinea,N Coast New Guinea
Aribwaungg [ylu],-6.592,146.874,#4B8079,Austronesian,North New Guinea,N Coast New Guinea
Arifama-Miniafia [aai],-9.142,149.279,#847339,Austronesian,Papuan Tip,S New Guinea
Arikapu [ark],-13,-62.5,#7E6F4A,Macro-Je,Jabutí,NE South America
Arikara [ari],40,-97,#76883A,Caddoan,Northern Caddoan,Basin and Plains
Aringa [luc],3,31,#3C4F9F,Nilo-Saharan,Moru-Madi,S Africa
Aritinngithigh [rrt],-13,141.67,#D67692,Pama-Nyungan,Paman,N Australia
Arizona Tewa [tew],35.8,-110.4,#396D6D,Kiowa-Tanoan,Tewa,Basin and Plains
Armenian [hye],40,45,#49A075,Indo-European,Armenian,Greater Mesopotamia
Armenian_Agulis [hye-3],38.95,45.98,#429E77,Indo-European,Armenian,Greater Mesopotamia
Armenian_Aslanberg [hyw-7],41.2,30.5,#439366,Indo-European,Armenian,Greater Mesopotamia
Armenian_Karabakh [hye-2],39.76,46.75,#379D8B,Indo-European,Armenian,Greater Mesopotamia
Armenian_Karin [hye-5],40.79,43.85,#459870,Indo-European,Armenian,Greater Mesopotamia
Armenian_Kharpert [hyw-6],38.67,39.22,#429E77,Indo-European,Armenian,Greater Mesopotamia
Armenian_Khodorjur [hyw-3],40.73,41.2,#3A9572,Indo-European,Armenian,Greater Mesopotamia
Armenian_Malatya [hyw-5],38.35,38.3,#3C8C67,Indo-European,Armenian,Greater Mesopotamia
Armenian_Sebastia [hyw-4],39.75,37.02,#3F9773,Indo-European,Armenian,Greater Mesopotamia
Armenian_Van [hyw-8],38.49,43.38,#4D9E6C,Indo-European,Armenian,Greater Mesopotamia
Armenian_Western [hyw],40,40,#3A8A69,Indo-European,Armenian,Greater Mesopotamia
Armenian_Yerevan [hye-4],40.18,44.52,#3F9B6F,Indo-European,Armenian,Greater Mesopotamia
Aromanian [rup],42,23,#479568,Indo-European,Romance,Europe
Aromanian-2 [rup-2],39.77,21.1,#518E94,Indo-European,Romance,Europe
Arop-Lokep [apr],-5.333,147.083,#9F675C,Austronesian,North New Guinea,N Coast New Guinea
Arosi [aia],-10.333,161.5,#977A53,Austronesian,Southeast Solomonic,Oceania
Arpitan [frp-3],45.17,5.72,#55719B,Indo-European,Romance,Europe
Arrernte_Central [are],-22.85,133.7,#F78CAC,Pama-Nyungan,Arandic,S Australia
Arrernte_Eastern [aer-2],-23.292,134.445,#F07AB5,Pama-Nyungan,Arandic,S Australia
Arrernte_Mparntwe [aer],-24,136,#EF83B0,Pama-Nyungan,Arandic,S Australia
Arta [atz],16.42,121.66,#A67C63,Austronesian,Philippines,Southeast Asia-Island
Arutani [atx],4.06,-62.88,#8C8042,Arutani–Sape,Sape,NE South America
Arvanitika [als-3],38.42,23.08,#4B85A6,Indo-European,Albanian,Europe
Arára_Pará [aap],-4.2422,-53.3745,#C4745E,Cariban,Pekodian,NE South America
As [asz],-0.722,131.787,#88724D,Austronesian,South Halmahera-West New Guinea,N Coast New Guinea
Asaro_Upper [aso],-5.967,145.292,#547056,Trans New Guinea,Goroka,Interior New Guinea
Asharon [acz],10.8,30.3,#925CA5,Talodi-Heiban,Talodi,African Savannah
Ashe [ahs],9.37,7.39,#445793,Niger-Kongo,Plateau,African Savannah
Asheninka_Apurucayali [cpc],-10.018,-74.793,#9D9057,Arawak,Southern Maipuran,NE South America
Ashkun [ask],34.84,70.37,#BB818F,Indo-European,Indo-Iranian,Indic
Asho [csh-4],22.91,93.68,#3E5FBC,Tibeto-Burman,Kuki-Chin,Indic
Ashuku [nza-2],6.98,10.71,#385089,Niger-Kongo,Jukkunoid,African Savannah
Ashuslay [cag-2],-23.5,-60.5,#4CA17F,Matacoan,Mataguayo I,SE South America
Ashéninka_Perené [prq],-10.8734,-75.245,#948F59,Arawak,Southern Maipuran,NE South America
Ashéninka_Pichis [cpu],-9.9833,-74.9833,#9D9974,Arawak,Southern Maipuran,NE South America
Ashéninka_Ucayali-Yurúa [cpb],-10.1619,-74.0234,#73A471,Arawak,Southern Maipuran,NE South America
Asi [bno-2],12.95,122.08,#B68157,Austronesian,Philippines,Southeast Asia-Island
Asienara [asi],-3.75,133.33,#837940,Trans New Guinea,Asmat-Kamoro,N Coast New Guinea
Asilulu [asl],-3.67,127.95,#9C7E42,Austronesian,Central Maluku,Southeast Asia-Island
Asmat [asc],-5.3,138.3,#85733E,Trans New Guinea,Asmat-Kamoro,S New Guinea
Asmat_North [nks],-5,138.5,#98763E,Trans New Guinea,Asmat-Kamoro,S New Guinea
Assamese [asm],26.5,93,#566689,Indo-European,Indo-Iranian,Indic
Assamese_Dudhnoi [asm-10],26,90.8,#5B7190,Indo-European,Indo-Iranian,Indic
Assiniboine [asb],49,-100,#3E9B57,Siouan,Mississippi Valley Siouan,Basin and Plains
Asturian [ast],43.33,-6,#A5886B,Indo-European,Romance,Europe
Asu [aum],10.08,5.42,#3E5C81,Niger-Kongo,Ebira-Nupoid,African Savannah
Asumboa [aua],-11.296,166.496,#AE7D81,Austronesian,Te Motu,Oceania
Asur [asr-2],21.57,83.46,#A4809F,Austroasiatic,Munda,Indic
Asuri [asr],23.04,84.54,#AA876D,Austroasiatic,Munda,Indic
Asurini [asu],-3.3,-49.3,#907D52,Tupian,Tupi-Guarani,NE South America
Asuriní_Tocantins [asu-2],-3.3,-50,#8F7540,Tupian,Tupi-Guarani,NE South America
Asuriní_Xingú [asn],-4.13,-52.32,#8D7D53,Tupian,Tupi-Guarani,NE South America
Ata [ata],-5.667,151,#947A48,Ata,Ata,N Coast New Guinea
Ata_Manobo [atd],7.845,125.506,#A67655,Austronesian,Philippines,Southeast Asia-Island
Atacameño [kuz],-23,-69,#5BAE6E,Atacameño,Atacameño,Andean
Atadei [slp-3],-8.46,123.555,#AA6967,Austronesian,Bima-Lembata,Southeast Asia-Island
Atakapa [aqp],30,-93,#77925F,Atakapa,Atakapa,E North America
Atamanu [jal],-3.396,129.313,#9E7157,Austronesian,Central Maluku,Southeast Asia-Island
Atampaya [amz],-11.33,142.5,#CD7997,Pama-Nyungan,Paman,N Australia
Atayal [tay],24.5,121,#7DA271,Austronesian,Atayalic,Southeast Asia-Island
Atchin [upv],-16,167.333,#467285,Austronesian,Southern Oceanic,Oceania
Ateso [teo],1.915,33.955,#545B97,Nilo-Saharan,Teso,S Africa
Athpare [aph],26.75,87.33,#77708A,Tibeto-Burman,Eastern Kiranti,Indic
Atikamekw [atj],48,-74,#95853F,Algic,Algonquian,E North America
Atong [aot],25.5,90.5,#98747A,Tibeto-Burman,Bodo-Garo,Indic
Atsawaka [atc],-14.17,-69.5,#728147,Panoan,Pano Nawa,NE South America
Atsi [atb-2],28,93.5,#3F69BD,Tibeto-Burman,Central Loloish,Indic
Atsugewi [atw],40.75,-121,#6BBD86,Palaihnihan,Palaihnihan,Basin and Plains
Atta_Pamplona-1 [att-2],18.46,121.341,#AE7D4E,Austronesian,Northern Luzon,Southeast Asia-Island
Atta_Pamplona-2 [att],18.458,121.342,#B9885E,Austronesian,Northern Luzon,Southeast Asia-Island
Attie [ati],6,-3.82,#1F5098,Niger-Kongo,Kwa,African Savannah
Au [avt],-3.5,142.083,#927B47,Torricelli,Wapei,N Coast New Guinea
Auhelawa [kud],-10.284,151.02,#779250,Austronesian,Papuan Tip,S New Guinea
Aujila [auj],29.23,21.18,#50B66F,Afro-Asiatic,Berber,N Africa
Aulua [aul],-16.33,167.694,#897BA0,Austronesian,Southern Oceanic,Oceania
Aurland [nno-6],60.87,7.23,#385FA7,Indo-European,Germanic,Europe
Ausaimia [css-3],36.37,-121.15,#849452,Yok-Utian,Costanoan,California
Austral [aut],-23.377,-149.498,#827443,Austronesian,Central Pacific,Oceania
Auyana [auy],-6.523,145.708,#645B52,Trans New Guinea,Kainantu,Interior New Guinea
Auye [auu],-3.495,136.002,#74564B,Trans New Guinea,Wissel Lakes,Interior New Guinea
Avar [ava],42.54,46.7,#45BA7B,Nakh-Daghestanian,Avar-Andi,Greater Mesopotamia
Avatime [avn],6.85,0.44,#22689D,Niger-Kongo,Kwa,African Savannah
Avava [tmb],-16.224,167.523,#9A7A75,Austronesian,Southern Oceanic,Oceania
Aveteian [dix],-16.443,167.43,#A46D78,Austronesian,Southern Oceanic,Oceania
Avikam [avi],5.16,-5.25,#2B5C59,Niger-Kongo,Kwa,African Savannah
Avok [xxx-59],-16.53,167.7,#496D9E,Austronesian,Southern Oceanic,Oceania
Avok_Maxbaxo [xxx-108],-16.496,167.665,#667FA0,Austronesian,Southern Oceanic,Oceania
Avokaya [avu],5,30.2,#3C4DA4,Nilo-Saharan,Moru-Madi,African Savannah
Avá-Canoeiro [avv],-14.166,-44.5,#A57653,Tupian,Tupi-Guarani,NE South America
Awa Pit [kwi],0.75,-78.5,#57947B,Barbacoan,Northern Barbacoan,Andean
Awa [awb],-6.75,145.667,#6C4D56,Trans New Guinea,Kainantu,Interior New Guinea
Awabakal [awk],-33.05,151.55,#DF7A73,Pama-Nyungan,Yuin-Kuri,S Australia
Awad Bing [bcu],-5.584,146.349,#9E7556,Austronesian,North New Guinea,N Coast New Guinea
Awadhi [awa],27.5,81.5,#8394B7,Indo-European,Indo-Iranian,Indic
Awajún [agr-2],-4.795,-78.29,#858742,Jivaroan,Aguaruna,Andean
Awak [awo],9.86,11.33,#324AA5,Niger-Kongo,Gur,African Savannah
Awar [aya],-4,144.625,#57646F,Lower Sepik-Ramu,Ramu,N Coast New Guinea
Awara [awx],-6.094,146.441,#77845D,Trans New Guinea,Finisterre-Huon,N Coast New Guinea
Awbono [awh],-5.119,139.201,#6F7744,Bayono-Awbono,Bayono-Awbono,Interior New Guinea
Aweer [orm-4],-1.717,40.967,#BB737B,Afro-Asiatic,East Cushitic,S Africa
Awera [awr],-2.677,136.242,#9D6C38,Lakes Plains,Western Lakes Plains,N Coast New Guinea
Awetí [awe],-12.926,-54.277,#BC6C64,Tupian,Aweti,NE South America
Awiakay [afp],-4.672,143.712,#BE7073,Arafundi,Arafundi,N Coast New Guinea
Awin [awi],-5.833,142.5,#695A65,Trans New Guinea,Awin-Pa,Interior New Guinea
Awing [azo],5.88,10.24,#50635F,Niger-Kongo,Grassfields,African Savannah
Awiya [som-2],10.851,36.892,#4567B1,Afro-Asiatic,Central Cushitic,Greater Abyssinia
Awngi [awn],10.83,36.67,#3C8CAA,Afro-Asiatic,Central Cushitic,Greater Abyssinia
Awngthim [gwm],-12.54,141.98,#B078AE,Pama-Nyungan,Paman,N Australia
Awtuw [kmn],-3.5,141.917,#C8636B,Sepik,Ram,N Coast New Guinea
Awu Alaya [typ-2],-14.83,143.32,#B76FA2,Pama-Nyungan,Paman,N Australia
Awutu [afu],5.42,-0.6,#4C56A8,Niger-Kongo,Kwa,African Savannah
Awyi [auw],-3,140.75,#866B51,Trans New Guinea,Border,N Coast New Guinea
Axi [yix-2],24.4,103.44,#2769B4,Tibeto-Burman,Central Loloish,Southeast Asia-mainland
Axininca [cpc-2],-9,-75,#89A572,Arawak,Southern Maipuran,NE South America
Ayapathu [ayd-2],-14.29,143.11,#DE7180,Pama-Nyungan,Paman,N Australia
Ayautla Mazatec [vmy],18.1,-96.6,#153BB9,Otomanguean,Mazatecan,Mesoamerica
Ayere [aye],7.52,6.02,#455D94,Niger-Kongo,Ayere-Ahan,African Savannah
Ayerrerenge [axe],-22.5,137.36,#F77DA0,Pama-Nyungan,Arandic,S Australia
Aymara [ayr],-16,-69.5,#9DAD7E,Aymaran,Aymaran,Andean
Aymara_Carangas [ayr-3],-18.45,-67.45,#A7A88E,Aymaran,Aymaran,Andean
Aymara_Chile [ayc],-19.15,-69.4,#9CA99A,Aymaran,Aymaran,Andean
Aymara_Muylaq' [ayr-2],-16.675,-70.712,#9FAF81,Aymaran,Aymaran,Andean
Ayoré [ayo],-20.5,-59.25,#AA7677,Zamucoan,Zamucoan,SE South America
Ayu [ayu],9.26,8.6,#395094,Niger-Kongo,Plateau,African Savannah
Azerbaijani [azj],40.5,48.5,#478B72,Turkic,Common Turkic,Greater Mesopotamia
Azerbaijani_Tabriz [azj-3],38.07,46.3,#488C64,Turkic,Common Turkic,Greater Mesopotamia
Azeri [azb],40.67,47.75,#448F72,Turkic,Common Turkic,Greater Mesopotamia
Azha [aza],23.37,104.25,#1E63B6,Tibeto-Burman,Central Loloish,Southeast Asia-mainland
Azhe [yiz],24.2,103.6,#296CBF,Tibeto-Burman,Central Loloish,Southeast Asia-mainland
Añú [pbg],11,-71.62,#8E7349,Arawak,Northern Maipuran,Andean
Aćharêtâʹ [phl-2],35.4,71.75,#4C6DB9,Indo-European,Indo-Iranian,Indic
B'lit_Manobo [mta],6.39,124.23,#927253,Austronesian,Philippines,Southeast Asia-Island
Ba:ngingi_Sama [sse],6.133,121.805,#A97F6B,Austronesian,Barito,Southeast Asia-Island
Baagandji [drl],-32,142.533,#FA80A0,Pama-Nyungan,Yarli-Baagandji,S Australia
Baale [koe],5,36,#4C5E97,Nilo-Saharan,Surmic,African Savannah
Baangi [bqx],10.81,5.73,#217989,Niger-Kongo,Kainji,African Savannah
Baarin [mon-2],43.53,118.67,#6E726C,Mongolic,Mongolic,Inner Asia
Baatonum [bba-2],9.63,3,#545C64,Niger-Kongo,Gur,African Savannah
Baba [bbw],6.11,10.52,#526498,Niger-Kongo,Grassfields,African Savannah
Babale [tmv-2],3.3,20.87,#2F5187,Niger-Kongo,Zone C30,S Africa
Babanki [bbk],6.104,10.311,#255FA2,Niger-Kongo,Grassfields,African Savannah
Babar_North [bcd],-7.83,129.58,#906C43,Austronesian,Southeast Maluku,Southeast Asia-Island
Babar_Southeast [vbb],-7.92,129.67,#83824C,Austronesian,Southeast Maluku,Southeast Asia-Island
Babatana [baa],-7.397,157.37,#7E6D5D,Austronesian,Meso-Melanesian,Oceania
Babine-Witsuwit'en [bcr],55,-127,#2AAE92,Dene-Yeniseic,Athapaskan,Alaska-Oregon
Babungo [bav],6.12,10.42,#2743A1,Niger-Kongo,Grassfields,African Savannah
Babuza [bzg-2],24,120.58,#7F7F4E,Austronesian,Western Plains,Southeast Asia-Island
Baca [baf],4.36,11.03,#474E91,Niger-Kongo,Mbam-Bubi-Jarawan,African Savannah
Bacan Malay [btj],-0.62,127.49,#887271,Austronesian,Malayic,Southeast Asia-Island
Bachamal [wdj-2],-13.17,130.17,#E77BA6,Wagaydyic,Wagaydyic,N Australia
Bada [bhz],-1.793,120.313,#776468,Austronesian,Celebic,Southeast Asia-Island
Badaga [bfq],11.31,76.6,#C68292,Dravidian,South Dravidian,Indic
Bade [bde],12.79,10.66,#3381AE,Afro-Asiatic,West Chadic,African Savannah
Bade-2 [bde-2],12,12,#539F82,Afro-Asiatic,West Chadic,African Savannah
Badeng [xkl-3],3.17,115.22,#976D66,Austronesian,North Borneo,Southeast Asia-Island
Badimaya [bia],-27.667,119,#F97FA1,Pama-Nyungan,Kardu,S Australia
Badjala [xby],-25.084,152.529,#DC7381,Pama-Nyungan,Waka-Kabic,S Australia
Badjiri [jbi],-28.79,145.47,#F080A7,Pama-Nyungan,Karnic,S Australia
Badyara [pbp],11.633,-13.4,#9A6C90,Niger-Kongo,North-Central Atlantic,African Savannah
Baelelea [bvc],-8.453,160.66,#98815F,Austronesian,Southeast Solomonic,Oceania
Baenggu [bvd],-8.506,160.706,#9E7A5C,Austronesian,Southeast Solomonic,Oceania
Baetora [btr],-15.258,168.166,#807E4B,Austronesian,Southern Oceanic,Oceania
Bafang [cmn-76],35.6,103.217,#2958B2,Tibeto-Burman,North Sinitic,Inner Asia
Bafanji [bfj-2],5.84,10.46,#375EA3,Niger-Kongo,Grassfields,African Savannah
Bafia [ksf-2],4.73,11.1,#365CA6,Niger-Kongo,Zone A70,African Savannah
Bafo [bwt],6.351,10.229,#36518B,Niger-Kongo,Zone A10,African Savannah
Bafut [bfd],6.083,10.0999,#2B75A5,Niger-Kongo,Grassfields,African Savannah
Baga tshi-Tem [bsp],10.65,-14.51,#497777,Niger-Kongo,Mel,African Savannah
Baga_Koga [bgo],10.13,-13.95,#775C91,Niger-Kongo,North-Central Atlantic,African Savannah
Baga_Mboteni [bcg],10.83,-14.55,#936774,Niger-Kongo,North-Central Atlantic,African Savannah
Baga_Sitemu [bsp-2],10.48,-14.48,#89666C,Niger-Kongo,Mel,African Savannah
Bagheli [bfy],24.35,81.43,#7487BA,Indo-European,Indo-Iranian,Indic
Bagirmi [bmi],10.202,17,#8E5AB5,Nilo-Saharan,Sara-Bongo-Bagirmi,African Savannah
Bagri [bgq],29.6,74.3,#7365C5,Indo-European,Indo-Iranian,Indic
Baguiro_Zangba [bmi-2],7.29,18.82,#554AAE,Nilo-Saharan,Sara-Bongo-Bagirmi,African Savannah
Bagulal [kva],42.56,46.17,#4EB381,Nakh-Daghestanian,Avar-Andi,Greater Mesopotamia
Bagusa [bqb],-1.905,137.932,#918747,Tor-Kwerba,Nuclear Kwerba,N Coast New Guinea
Baharnah [afb-4],26.03,50.55,#63AE5F,Afro-Asiatic,Arabic,Greater Mesopotamia
Bahau [bhv],0.06,115.65,#8C7F5B,Austronesian,North Borneo,Southeast Asia-Island
Bahinemo [bjh],-4.435,142.726,#757545,Sepik,Sepik Hill,N Coast New Guinea
Bahing [bhj],27.27,86.56,#4C60A1,Tibeto-Burman,Northwestern Kiranti,Indic
Bahnar [bdq],14,108.5,#AA8A9D,Austroasiatic,Bahnaric,Southeast Asia-mainland
Bahonsuai [bsu],-2.23,121.71,#7D6B52,Austronesian,Celebic,Southeast Asia-Island
Bai [bca],25.61,100.27,#2355BE,Tibeto-Burman,Bai,Southeast Asia-mainland
Bai_Bijiang [bca-11],26.12,98.87,#215DC7,Tibeto-Burman,Bai,Southeast Asia-mainland
Bai_Dashi [bca-18],26.81,99.89,#1C53C5,Tibeto-Burman,Bai,Southeast Asia-mainland
Bai_Ega [bca-15],23.66,101.9,#2255BB,Tibeto-Burman,Bai,Southeast Asia-mainland
Bai_Enqi [bca-14],27.475,99.13,#235FC2,Tibeto-Burman,Bai,Southeast Asia-mainland
Bai_Eryuan [bca-3],26.12,99.95,#214CC2,Tibeto-Burman,Bai,Southeast Asia-mainland
Bai_Gongxing [bca-13],27.09,99.17,#1B5DCE,Tibeto-Burman,Bai,Southeast Asia-mainland
Bai_Heqing [bca-4],26.56,100.18,#1B4ABB,Tibeto-Burman,Bai,Southeast Asia-mainland
Bai_Jinman [bca-16],26.42,99.14,#275FC5,Tibeto-Burman,Bai,Southeast Asia-mainland
Bai_Jinxing [bca-17],25.6,100.24,#2349BA,Tibeto-Burman,Bai,Southeast Asia-mainland
Bai_Lanping [bca-5],26.45,99.42,#2047B5,Tibeto-Burman,Bai,Southeast Asia-mainland
Bai_Luobenzhuo [bca-6],26.42,98.89,#2058D8,Tibeto-Burman,Bai,Southeast Asia-mainland
Bai_Mazhelong [bca-20],24.17,104.2,#2E4BC0,Tibeto-Burman,Bai,Southeast Asia-mainland
Bai_Qiliqiao [bca-7],25.65,100.18,#2247B5,Tibeto-Burman,Bai,Southeast Asia-mainland
Bai_Tuoluo [bca-12],27.1,99.17,#1961BD,Tibeto-Burman,Bai,Southeast Asia-mainland
Bai_Xiangyun [bca-8],25.48,100.55,#2246B4,Tibeto-Burman,Bai,Southeast Asia-mainland
Bai_Xishan [bca-2],25.53,100.45,#1C46D2,Tibeto-Burman,Bai,Southeast Asia-mainland
Bai_Yunlong [bca-9],25.88,99.37,#2247C0,Tibeto-Burman,Bai,Southeast Asia-mainland
Bai_Zhoucheng [bca-10],24.48,101.34,#2746BA,Tibeto-Burman,Bai,Southeast Asia-mainland
Bai_Zhoucheng [bca-19],26.63,100.54,#2947BF,Tibeto-Burman,Bai,Southeast Asia-mainland
Baikeno [bkx],-9.3,124.32,#7F8442,Austronesian,Southeast Maluku,Southeast Asia-Island
Baima [bqh],30.32,107.34,#1F55C9,Tibeto-Burman,Bodic,Southeast Asia-mainland
Bainapi [dby],-7.904,142.715,#886B44,Papuan Gulf,Strickland,S New Guinea
Baining [gcc-2],-4.6,152,#767059,Baining,Baining,N Coast New Guinea
Baiso [bsw-3],6.45,37.77,#499184,Afro-Asiatic,East Cushitic,Greater Abyssinia
Baixinghua [csp],23.6,107.1,#2D4BBE,Tibeto-Burman,Pinghua,Southeast Asia-mainland
Bajau_Semporna [ssb],4.5,118.5,#83755D,Austronesian,Barito,Southeast Asia-Island
Bajau_Sulawesi [bdl-2],-3.75,122.5,#936E65,Austronesian,Barito,Southeast Asia-Island
Bajo_Kangean [bdl],-7.17,115.82,#956A9A,Austronesian,Barito,Southeast Asia-Island
Bajuni [swh-2],-1,42.04,#7383AB,Niger-Kongo,Zone G40,S Africa
Baka [bdh],4.8,31.6,#4B57BC,Nilo-Saharan,Sara-Bongo-Bagirmi,African Savannah
Baka [bkc],2.16,13.78,#324E93,Ubangian,Ubangian,African Savannah
Bakairí [bkq],-14,-55,#68784E,Cariban,Pekodian,NE South America
Bakairí_East [bkq-2],-14.43,-54.025,#767B48,Cariban,Pekodian,NE South America
Bakairí_West [bkq-3],-14.7302,-56.2479,#797A4B,Cariban,Pekodian,NE South America
Bakaka [bqz],4.8,9.8,#525C7F,Niger-Kongo,Zone A10,African Savannah
Bakhtiari [ldd],31.92,50.86,#66A25E,Indo-European,Indo-Iranian,Greater Mesopotamia
Baki [bki],-16.717,168.138,#B67C86,Austronesian,Southern Oceanic,Oceania
Bakoko [bkh],4.2,9.67,#344E9C,Niger-Kongo,Zone A50,African Savannah
Bakole [kme],4.44,8.97,#4C5FA3,Niger-Kongo,Zone A20,African Savannah
Bakumpai [bkr],-1.988,114.7,#A97767,Austronesian,Barito,Southeast Asia-Island
Balaesang [bls],-0.06,119.69,#AB725B,Austronesian,Celebic,Southeast Asia-Island
Balami [new-4],27.801,85.25,#8673BB,Tibeto-Burman,Newaric,Indic
Balangao [blw],17.167,120.333,#977357,Austronesian,Northern Luzon,Southeast Asia-Island
Balanta [ble],12,-15,#4A5685,Niger-Kongo,North-Central Atlantic,African Savannah
Balantak [blz],-0.82,123.431,#B87069,Austronesian,Celebic,Southeast Asia-Island
Balante_Sofa [bjt],12.54,-15.67,#615D85,Niger-Kongo,North-Central Atlantic,African Savannah
Balawaia [snc-2],-9.98,147.865,#7F8942,Austronesian,Papuan Tip,S New Guinea
Balearic [cat-2],39.5,3,#6E76A5,Indo-European,Romance,Europe
Balendru [led],1.968,30.485,#2E67AC,Nilo-Saharan,Lenduic,S Africa
Bali-Vitu [wiv],-4.733,149.283,#A47257,Austronesian,Meso-Melanesian,N Coast New Guinea
Balinese [ban],-8.583,115.25,#AB648C,Austronesian,Malayo-Sumbawan,Southeast Asia-Island
Balingian [mel-6],2.92,112.53,#B18475,Austronesian,North Borneo,Southeast Asia-Island
Balochi [bgp-2],27,63.5,#739F85,Indo-European,Indo-Iranian,Indic
Balochi_Turkmenistan [bgp-3],37.3,62.4,#6E946B,Indo-European,Indo-Iranian,Inner Asia
Balong [bwt-2],4.53,9.52,#634C82,Niger-Kongo,Zone A10,African Savannah
Balti [bft],35.2,76,#77A3B5,Tibeto-Burman,Tibetan,Indic
Baluchi [bgp],27.2,60.68,#5CA37A,Indo-European,Indo-Iranian,Indic
Balui Liko [ree-3],1.92,114.52,#9A7766,Austronesian,North Borneo,Southeast Asia-Island
Bam [bmc],-3.61,144.82,#B56C6B,Austronesian,North New Guinea,N Coast New Guinea
Bamata [lol-22],-0.9,20.95,#444A93,Niger-Kongo,Zone C30,S Africa
Bambalang [bmo-2],5.86,10.55,#316FAF,Niger-Kongo,Grassfields,African Savannah
Bambara [bam],12.5,-7.5,#495E8C,Mande,Western Mande,African Savannah
Bambara_South-east [bam-2],12.48,-6.18,#485A9C,Mande,Western Mande,African Savannah
Bamenyam [bce],5.77,10.33,#466099,Niger-Kongo,Grassfields,African Savannah
Bamu [bcf],-8,143.833,#917640,Kiwaian,Kiwaian,S New Guinea
Bamun [bax],5.726,10.904,#294FB5,Niger-Kongo,Grassfields,African Savannah
Bamunka [bvm],6,10.51,#3C678A,Niger-Kongo,Grassfields,African Savannah
Bana [bcw],10.42,13.58,#3DA5A9,Afro-Asiatic,Biu-Mandara,African Savannah
Banam Bay [vrt-2],-16.41,167.78,#676666,Austronesian,Southern Oceanic,Oceania
Banda [bnd],-5.25,133.17,#A06964,Austronesian,Central Maluku,Southeast Asia-Island
Banda [bpd],2,22,#295998,Ubangian,Ubangian,African Savannah
Banda_Ndele [bfl],8.03,23.9,#2B5B97,Ubangian,Ubangian,African Savannah
Bandi [bza],7.74,-10.17,#32568F,Mande,Western Mande,African Savannah
Bandiaal [bqj-2],13.02,-15.32,#A16071,Niger-Kongo,North-Central Atlantic,African Savannah
Bandjalang [bdy],-28.74,153.01,#DA7874,Pama-Nyungan,Yugambeh-Bundjalung,S Australia
Bandjalang-2 [bdy-4],-28.39,152.61,#DA7773,Pama-Nyungan,Yugambeh-Bundjalung,S Australia
Bandjalang-Gidabal [bdy-2],-28.25,152,#DA7674,Pama-Nyungan,Yugambeh-Bundjalung,S Australia
Bandjigali [bjd],-30.08,143.28,#FA80A0,Pama-Nyungan,Yarli-Baagandji,S Australia
Banggai [bgz],-1.42,123.17,#A16C6C,Austronesian,Celebic,Southeast Asia-Island
Banggime [dbb],14.78,-3.76,#504292,Banggime,Banggime,African Savannah
Bangla Rahri Upobhasa [ben-11],23.24,87.86,#8185A3,Indo-European,Indo-Iranian,Indic
Bangla_Mymensingh [ben-10],24.75,90.4,#717E5A,Indo-European,Indo-Iranian,Indic
Bangolan [bgj],6.05,10.45,#4A635E,Niger-Kongo,Grassfields,African Savannah
Bangru [hru-3],27.9,93.35,#8A5980,Tibeto-Burman,Hrusish,Indic
Bangubangu [bnx],-4.689,27.693,#4A5D6B,Niger-Kongo,Zone D20,S Africa
Baniwa_Central [bwi],1.4091,-68.1358,#C37C6D,Arawak,Northern Maipuran,NE South America
Baniwa_Rio_Negro [bwi-3],0.053,-67.43,#6C7161,Arawak,Northern Maipuran,NE South America
Baniwa_Siusi [bwi-4],2.19,-67.76,#BC8AA9,Arawak,Northern Maipuran,NE South America
Baniwa_do_Içana [bwi-2],2.18,-67.77,#BF8398,Arawak,Northern Maipuran,NE South America
Banjar [bjn],0.75,115.79,#C48177,Austronesian,Malayic,Southeast Asia-Island
Banjari [lmn-2],16.5,77.455,#B37EA3,Indo-European,Indo-Iranian,Indic
Bankan Tey Dogon [dbw],15.06,-2.92,#5E45A9,Dogon,Dogon,African Savannah
Bankariya [cdm-2],27.5,85,#8387C4,Tibeto-Burman,Chepang,Indic
Bankon [abb],4.37,9.64,#4E5BB2,Niger-Kongo,Zone A40,African Savannah
Banoni [bcm],-6.417,155.25,#988058,Austronesian,Meso-Melanesian,Oceania
Bantang [pho-5],21.75,102.25,#2E56A6,Tibeto-Burman,Hani-Jino,Southeast Asia-mainland
Bantawa [bap],27.2,87.1,#7E74AB,Tibeto-Burman,Central Kiranti,Indic
Banten [sun-2],-6.35,106.1,#A47285,Austronesian,Sundanese,Southeast Asia-Island
Bantik [bnq],1.564,124.859,#9F7356,Austronesian,Philippines,Southeast Asia-Island
Bantoanon [bno],12.784,122.049,#B4825A,Austronesian,Philippines,Southeast Asia-Island
Banyaduq [byd],0.5,110,#B97385,Austronesian,Land Dayak,Southeast Asia-Island
Banyum [bab],11.497,-16.5,#85607F,Niger-Kongo,North-Central Atlantic,African Savannah
Banyun [bcb-2],12.75,-16.3,#945C7F,Niger-Kongo,North-Central Atlantic,African Savannah
Baoan [peh],35.05,102.1,#699DB1,Mongolic,Mongolic,Inner Asia
Baoan [yue-24],22.55,113.9,#4447A3,Tibeto-Burman,Yue,Southeast Asia-mainland
Baoan_Dahejia [peh-2],35.72,102.88,#709598,Mongolic,Mongolic,Inner Asia
Baoan_Dongxiang [peh-5],35.6,103.22,#639BA4,Mongolic,Mongolic,Inner Asia
Baoan_Kangjia [peh-4],35.04,101.25,#4E9295,Mongolic,Mongolic,Inner Asia
Baoan_Ñantoq [peh-3],35.41,102.08,#6A989D,Mongolic,Mongolic,Inner Asia
Baojing [hsn-28],28.71,109.65,#3852AA,Tibeto-Burman,Xiang,Southeast Asia-mainland
Baraba [tat-3],55.333,78.333,#518A80,Turkic,Common Turkic,Inner Asia
Barai [bbb],-9.417,148,#757543,Southeast Papuan,Koiarian,S New Guinea
Barain_Giliya [bva-2],12.08,18.58,#955586,Afro-Asiatic,East Chadic,African Savannah
Barain_Jalking [bva-3],12.22,18.8,#935483,Afro-Asiatic,East Chadic,African Savannah
Barain_Jalkiya [bva],12.18,18.68,#8F5384,Afro-Asiatic,East Chadic,African Savannah
Barain_Komiya [bva-4],12.17,18.75,#925780,Afro-Asiatic,East Chadic,African Savannah
Baram [brd],27.95,85,#8B6F9D,Tibeto-Burman,Western Himalayan,Indic
Barang-barang [lji],-6.4,120.5,#AD728A,Austronesian,Celebic,Southeast Asia-Island
Barapa Barapa [rbp],-35.95,144.32,#D86CAB,Pama-Nyungan,Kulinic,S Australia
Barapasi [brp],-2.247,136.995,#596152,Geelvink Bay,Geelvink Bay,N Coast New Guinea
Barasano [bsn],-0.25,-70.75,#616537,Tucanoan,East Tucanoan,NE South America
Bardi [bcj],-16.58,122.92,#F57F95,Nyulnyul,Bardic,N Australia
Bareke [mpr],-8.543,158.113,#857A5A,Austronesian,Meso-Melanesian,Oceania
Barese [ita-47],41.1,16.9,#506D8B,Indo-European,Romance,Europe
Bargam [mlp],-4.87,145.76,#826A62,Trans New Guinea,Madang,N Coast New Guinea
Bari [bfa],3.8,31,#4D75B3,Nilo-Saharan,Barian,African Savannah
Bariai [bch],-5.497,148.63,#A46C5A,Austronesian,North New Guinea,N Coast New Guinea
Bariba [bba],10.217,2.667,#4C4872,Niger-Kongo,Savannas,African Savannah
Bariji [bjc],-9.211,148.401,#837741,Southeast Papuan,Mailu-Yareban,S New Guinea
Barman Thar [xxx-113],25.899,89.899,#5F6D66,Tibeto-Burman,Bodo-Garo,Indic
Barok [bjk],-3.48,152.19,#977354,Austronesian,Meso-Melanesian,N Coast New Guinea
Barranbinya [zmu-2],-30.1,145.93,#F482AA,Pama-Nyungan,Muruwari,S Australia
Barranquenho [por-3],38.13,-6.975,#5C6A5F,Indo-European,Romance,Europe
Barrow_Point [bpt],-14.373,144.63,#D6849C,Pama-Nyungan,Paman,N Australia
Baruga [bjz],-9.328,148.734,#6F7A40,Trans New Guinea,Binanderean,S New Guinea
Barunggam [xxx-49],-26.25,151.25,#D66F6F,Pama-Nyungan,Waka-Kabic,S Australia
Barupu [wra],-3.083,142.083,#553374,Skou,Eastern Skou,N Coast New Guinea
Baruya [byr],-6.917,145.833,#8A4D79,Trans New Guinea,Angan,Interior New Guinea
Bará [bao],0.1,-70.45,#7E712D,Tucanoan,East Tucanoan,NE South America
Baré [bae],1.6,-66.8,#74AC86,Arawak,Northern Maipuran,NE South America
Barí [mot],9,-73.5,#705D4C,Chibchan,Southern Magdalenic Chibchan,Andean
Basaa [bas],5,10.15,#4757A1,Niger-Kongo,Zone A40,African Savannah
Basap [bdb-2],0.91,117.56,#A37058,Austronesian,Basap,Southeast Asia-Island
Basap [bdb],1.41,117.94,#8A6997,Austronesian,Barito,Southeast Asia-Island
Basari [bsc],12.25,-13,#3782B7,Niger-Kongo,North-Central Atlantic,African Savannah
Basay [byq-2],25,121.86,#B49171,Austronesian,East Formosan,Southeast Asia-Island
Basay_Trobriawan [byq],25,122,#8A7E48,Austronesian,East Formosan,Southeast Asia-Island
Basel [gsw-4],47.56,7.59,#3E8C91,Indo-European,Germanic,Europe
Bashkardi [bsg-2],32,53,#528F5C,Indo-European,Indo-Iranian,Greater Mesopotamia
Bashkarik [gwc-3],35.358,72.137,#7B90B5,Indo-European,Indo-Iranian,Indic
Bashkir [bak],53,58,#4F8C7F,Turkic,Common Turkic,Inner Asia
Basila [ade],8.17,0.62,#5A4AAC,Niger-Kongo,Kwa,African Savannah
Basketo [bst],6.384,36.651,#50A783,Afro-Asiatic,Omotic,Greater Abyssinia
Basque [eus],42.82,-1.95,#8C8A9C,Basque,Basque,Europe
Basque_Arbizu [eus-4],42.9,-2,#727499,Basque,Basque,Europe
Basque_Baztan [eus-10],43.2,1.47,#8E86AD,Basque,Basque,Europe
Basque_Baztan [eus-9],43.2,-1.5,#767197,Basque,Basque,Europe
Basque_Gernika [eus-3],43.3,-2.7,#74688F,Basque,Basque,Europe
Basque_Lekeitio [eus-2],43.365,-2.51,#61826F,Basque,Basque,Europe
Basque_Navarro [bqe],43.17,-1.24,#537D95,Basque,Basque,Europe
Basque_Ondarroa [eus-7],43.3,-2.4,#816286,Basque,Basque,Europe
Bassa [bsq],7.26,-7.22,#28589C,Niger-Kongo,Kru,African Savannah
Basseri [pes-7],29.61,52.54,#5A9A5D,Indo-European,Indo-Iranian,Greater Mesopotamia
Bassossi [bsi],5.24,9.52,#58558A,Niger-Kongo,Zone A10,African Savannah
Basà [bzw],8.03,7.06,#365F9C,Niger-Kongo,Kainji,African Savannah
Bata [bta],9.7,12.5,#455B7A,Afro-Asiatic,Biu-Mandara,African Savannah
Batak_Dairi [btd],2.546,98.3,#A87962,Austronesian,Batak-Barrier Islands,Southeast Asia-Island
Batak_Karo [btx],3,98.167,#836274,Austronesian,Batak-Barrier Islands,Southeast Asia-Island
Batak_Palawan [bya],10.115,119.214,#BA7B6A,Austronesian,Philippines,Southeast Asia-Island
Batang [khg-8],30.57,98.97,#2363D2,Tibeto-Burman,Tibetan,Inner Asia
Batanga [bnm],2.09,9.75,#5A4B96,Niger-Kongo,Zone A30,S Africa
Bateg [btq],5,102.5,#A76D75,Austroasiatic,Aslian,Southeast Asia-mainland
Bathari [bhm],17.6,56,#44A564,Afro-Asiatic,Modern South Arabian,Greater Mesopotamia
Bati [btc],4.26,11.06,#3F5F8C,Niger-Kongo,Mbam-Bubi-Jarawan,African Savannah
Batsbi [bbl-2],42.05,45.31,#3DB17F,Nakh-Daghestanian,Nakh,Greater Mesopotamia
Batuley [bay],-5.8,134.75,#93774F,Austronesian,Southeast Maluku,Southeast Asia-Island
Bau [bbd],-5.213,145.556,#747B40,Trans New Guinea,Madang,N Coast New Guinea
Baukan_Murut [bnb],5.273,116.519,#BB7662,Austronesian,North Borneo,Southeast Asia-Island
Baule [bci],7.5,-5,#39508C,Niger-Kongo,Kwa,African Savannah
Baure [brg],-15,-64,#808743,Arawak,Southern Maipuran,NE South America
Bauro [bxa],-10.647,161.858,#887C54,Austronesian,Southeast Solomonic,Oceania
Bauzi [bvz],-2.5,137.667,#6F7A49,Geelvink Bay,Geelvink Bay,Interior New Guinea
Bavarian [bar-2],46.73,12.28,#347B97,Indo-European,Germanic,Europe
Bawm [bgr],22.5,92.25,#5167B0,Tibeto-Burman,Kuki-Chin,Indic
Bayan [duq-2],-0.85,115.39,#AD746D,Austronesian,Barito,Southeast Asia-Island
Bayso [bsw],6.28,37.76,#59A46F,Afro-Asiatic,East Cushitic,Greater Abyssinia
Bayso-2 [bsw-2],6.456,37.745,#64A671,Afro-Asiatic,East Cushitic,Greater Abyssinia
Bayungu [bxj],-23.3,113.7,#FA80A0,Pama-Nyungan,Kanyara-Mantharta,S Australia
Bduul [ajp-6],30.33,35.44,#5BB97B,Afro-Asiatic,Arabic,Greater Mesopotamia
Beary [xxx-106],12.605,75.01,#B56E77,Dravidian,South Dravidian,Indic
Bebeli [bek],-5.63,150.32,#876E51,Austronesian,North New Guinea,N Coast New Guinea
Bedamini [beo],-6.321,142.489,#7D6E37,Trans New Guinea,Bosavi,Interior New Guinea
Bedayuh [bth],1.01,110.51,#B17281,Austronesian,Land Dayak,Southeast Asia-Island
Bedik [tnr],12.75,-12.467,#3F529B,Niger-Kongo,North-Central Atlantic,African Savannah
Bediondo [bjv],10.203,17,#415981,Nilo-Saharan,Sara-Bongo-Bagirmi,African Savannah
Befang [bby-3],6.28,10.04,#2B7299,Niger-Kongo,Grassfields,African Savannah
Begak [dbj],5.25,118.833,#9E767F,Austronesian,North Borneo,Southeast Asia-Island
Beihai [yue-6],21.47,109.1,#334EA4,Tibeto-Burman,Yue,Southeast Asia-mainland
Beihai_Baihua [yue-55],21.48,109.12,#3B55A7,Tibeto-Burman,Yue,Southeast Asia-mainland
Beihai_Haibian [yue-59],21.52,109.66,#3C579F,Tibeto-Burman,Yue,Southeast Asia-mainland
Beihai_Lianzhou [yue-57],21.66,109.2,#4059A3,Tibeto-Burman,Yue,Southeast Asia-mainland
Beihai_Tieshangang [yue-56],21.6,109.45,#3B55A7,Tibeto-Burman,Yue,Southeast Asia-mainland
Beihai_Wa [yue-58],21.455,109.32,#3E57A0,Tibeto-Burman,Yue,Southeast Asia-mainland
Beja [bej],18,36,#4C748D,Afro-Asiatic,North Cushitic,Greater Abyssinia
Bekati [bei],0.975,109.425,#A36E52,Austronesian,Land Dayak,Southeast Asia-Island
Beketan [bkn-3],1.3,114.9,#A28269,Austronesian,North Borneo,Southeast Asia-Island
Bekwarra [bkv],6.74,8.86,#5E5A9D,Niger-Kongo,Bendic,African Savannah
Bekwil [bkw],1.72,14.65,#4A748E,Niger-Kongo,Zone A90,African Savannah
Bela [bxd-2],24.33,98.4,#345BA7,Tibeto-Burman,Burmish,Southeast Asia-mainland
Belait [beg],4.382,114.462,#B18480,Austronesian,North Borneo,Southeast Asia-Island
Belanda Boor [bxb],6.5,28,#7347AF,Nilo-Saharan,Luo-Burun,African Savannah
Belarussian [bel],54,27,#51A9B3,Indo-European,Slavic,Inner Asia
Belep [yly],-19.75,163.67,#BE6C90,Austronesian,Southern Oceanic,Oceania
Belhare [byw],27,87.25,#92808C,Tibeto-Burman,Eastern Kiranti,Indic
Beli [blm],6.75,29.75,#563FB0,Nilo-Saharan,Sara-Bongo-Bagirmi,African Savannah
Bella Coola [blc],52.5,-126.67,#5BCF84,Salish,Bella Coola,Alaska-Oregon
Bellona [mnv-2],-11.296,159.79,#76733C,Austronesian,Central Pacific,Oceania
Belneng [glb],9.15,9.51,#2C549B,Afro-Asiatic,West Chadic,African Savannah
Bemal [bmh],-5.234,145.475,#7A7F48,Trans New Guinea,Madang,N Coast New Guinea
Bemba [bem],-11,31,#3E5B8B,Niger-Kongo,Zone M40,S Africa
Bembe [bmb],-4,14,#385671,Niger-Kongo,Zone D50,S Africa
Ben Tey Dogon [dbt],14.78,-2.94,#6947A3,Dogon,Dogon,African Savannah
Bena [bez],-9.27,35.04,#505987,Niger-Kongo,Zone G60,S Africa
Bena-Bena [bef],-6.114,145.567,#777D38,Trans New Guinea,Goroka,Interior New Guinea
Bena-Yungur [yun],9.75,12.4,#3868A8,Niger-Kongo,Mbum-Day,African Savannah
Bench [bcq],7,35.75,#1D6E99,Afro-Asiatic,Omotic,Greater Abyssinia
Bende [bdp],-6,30.5,#475073,Niger-Kongo,Zone F10,S Africa
Beng [nhb],7.83,-4.25,#474CA6,Mande,Eastern Mande,African Savannah
Benga [bng],1.2,9.5,#448875,Niger-Kongo,Zone A30,S Africa
Bengali [ben],22.5,90,#518484,Indo-European,Indo-Iranian,Indic
Bengali_Barisal [ben-9],22.7,90.37,#4D845D,Indo-European,Indo-Iranian,Indic
Bengali_east [ben-6],24.4,90.28,#42866A,Indo-European,Indo-Iranian,Indic
Bengali_west [ben-7],23.4,89.45,#5A8589,Indo-European,Indo-Iranian,Indic
Bengni [adi-11],28.66,93.37,#665690,Tibeto-Burman,Macro-Tani,Indic
Benuaq [lbx-2],-1.6,115.51,#A97767,Austronesian,Barito,Southeast Asia-Island
Benyadu [byd-2],0.595,109.62,#A96F5C,Austronesian,Land Dayak,Southeast Asia-Island
Beothuk [bue],48,-55,#908853,Beothuk,Beothuk,E North America
Bergamasco [ita-17],45.7,9.75,#555E81,Indo-European,Romance,Europe
Bergensk [nno],60.39,5.33,#334C99,Indo-European,Germanic,Europe
Berik [bkl],-2.25,138.92,#73AB8C,Tor-Kwerba,Tor,N Coast New Guinea
Berlinerisch [deu-4],52.5,13.15,#37758E,Indo-European,Germanic,Europe
Bernese [gsw-3],46.83,7.62,#467992,Indo-European,Germanic,Europe
Berom [bom-2],9.67,8.81,#555892,Niger-Kongo,Plateau,African Savannah
Berrichon [fra-17],47.08,2.38,#545F82,Indo-European,Romance,Europe
Berta [wti],10.67,34.5,#3F6F92,Nilo-Saharan,Berta,Greater Abyssinia
Berta_Beleje Gonfoye [wti-7],10.65,35.15,#436B97,Nilo-Saharan,Berta,Greater Abyssinia
Berta_Fadashi [wti-5],9.75,34.73,#38739A,Nilo-Saharan,Berta,Greater Abyssinia
Berta_Maiyu [wti-2],10.56,34.29,#3C7098,Nilo-Saharan,Berta,Greater Abyssinia
Berta_Metehara [wti-3],9.14,40,#38739A,Nilo-Saharan,Berta,Greater Abyssinia
Berta_Undulu [wti-4],10.2,34.83,#38739A,Nilo-Saharan,Berta,Greater Abyssinia
Berta_Wabosh [wti-6],8.9,38.65,#436B97,Nilo-Saharan,Berta,Greater Abyssinia
Besemah [pse],-4.2,103,#B07E7F,Austronesian,Malayic,Southeast Asia-Island
Beserrman [udm-2],58.02,52.15,#6F83AA,Uralic,Permic,Inner Asia
Besoa [bep],-1.599,120.379,#776466,Austronesian,Celebic,Southeast Asia-Island
Betawi [bew],-6.21,107.02,#A06283,Austronesian,Malayic,Southeast Asia-Island
Bete [byf],7.05,9.748,#5F6367,Niger-Kongo,Jukkunoid,African Savannah
Betoi [xxx-119],7.22,-71.42,#7F8347,Betoi-Jirara,Betoi-Jirara,Andean
Betta Kurumba [xub],11.58,76.55,#C480A0,Dravidian,South Dravidian,Indic
Bewani [pgi],-3.024,141.167,#876B3C,Trans New Guinea,Border,N Coast New Guinea
Bezhta [kap],42.133,46.128,#3CB18C,Nakh-Daghestanian,Tsezic,Greater Mesopotamia
Bhadarwahi [cih-2],32.99,75.7,#7F86B9,Indo-European,Indo-Iranian,Indic
Bhaderwahi [bhd-2],32.98,75.71,#5A7FA3,Indo-European,Indo-Iranian,Indic
Bhatibari [ben-4],26.48,89.54,#9C80A5,Indo-European,Indo-Iranian,Indic
Bhaṭe-sa zib [xxx-107],34.94,72.88,#78A0A3,Indo-European,Indo-Iranian,Indic
Bhele [bhy-2],0.25,28.67,#445B79,Niger-Kongo,Zone S40,S Africa
Bhili [bhb],22,73,#8E89C2,Indo-European,Indo-Iranian,Indic
Bhili_Ahiri [bhb-7],26.135,77.32,#998AC2,Indo-European,Indo-Iranian,Indic
Bhili_Chodri [cdi],20.88,73.53,#948BB9,Indo-European,Indo-Iranian,Indic
Bhili_Dang [bhb-2],20.76,73.69,#8988C7,Indo-European,Indo-Iranian,Indic
Bhili_Dehawali [vas],21.36,73.87,#9D8ABC,Indo-European,Indo-Iranian,Indic
Bhili_Dhar [bhb-6],22.6,75.3,#AA7C9E,Indo-European,Indo-Iranian,Indic
Bhili_Kotra [gra],23.1,77.49,#9F88C2,Indo-European,Indo-Iranian,Indic
Bhili_Magri [bhb-4],23.2,74.45,#937AB1,Indo-European,Indo-Iranian,Indic
Bhili_Mahikantha [bhb-3],24.17,72.44,#968BC3,Indo-European,Indo-Iranian,Indic
Bhili_Mahikantha [bhb-8],23.83,72.5,#8682C6,Indo-European,Indo-Iranian,Indic
Bhili_Mawchi [mke],21.57,74,#998AC2,Indo-European,Indo-Iranian,Indic
Bhili_Panchali [bhb-11],20.5,76.15,#9A87C0,Indo-European,Indo-Iranian,Indic
Bhili_Rajpipla [bhb-9],21.87,73.5,#8689BA,Indo-European,Indo-Iranian,Indic
Bhili_Rani [bhb-10],25.37,73.3,#9D8ABC,Indo-European,Indo-Iranian,Indic
Bhili_Ratlam [bhb-5],23.33,75.04,#B2799B,Indo-European,Indo-Iranian,Indic
Bhoi-Khasi [kha-5],25.9,91.88,#AE7E8D,Austroasiatic,Khasian,Indic
Bhojpuri [bho],26.8,85.3,#9388BE,Indo-European,Indo-Iranian,Indic
Bhojpuri_Nagpuria [bho-3],23.36,85.33,#9686BD,Indo-European,Indo-Iranian,Indic
Bhojpuri_Northern [bho-2],26.76,83.37,#9686BD,Indo-European,Indo-Iranian,Indic
Bhojpuri_Western [bho-4],25.32,83.01,#9887BD,Indo-European,Indo-Iranian,Indic
Bhumij [muw],21.333,86.5,#B37CB1,Austroasiatic,Munda,Indic
Biafada [bif],11.47,-15.13,#555EB2,Niger-Kongo,North-Central Atlantic,African Savannah
Biage [bdf],-9.158,147.664,#78723C,Southeast Papuan,Koiarian,S New Guinea
Biak [bhw],-1.14,136,#827442,Austronesian,South Halmahera-West New Guinea,N Coast New Guinea
Biak-west [bhw-2],-0.835,135.59,#5F5551,Austronesian,South Halmahera-West New Guinea,N Coast New Guinea
Biaka [axk-2],3.65,17.27,#495D68,Niger-Kongo,Zone D50,S Africa
Biali [beh-2],11.03,1.09,#595A5C,Niger-Kongo,Gur,African Savannah
Bian_Marind [bpv],-7.222,140.548,#426F60,Anim,Marind-Yaqay,S New Guinea
Biangai [big],-7.33,146.75,#A27654,Trans New Guinea,Goilala,Interior New Guinea
Biao [byk-3],23.9,112.2,#3947B5,Tai-Kadai,Biaoic,Southeast Asia-mainland
Biao_Chang'an [byk],29.48,113.46,#3C3EAD,Tai-Kadai,Biaoic,Southeast Asia-mainland
Biao_Dagang [byk-2],23.81,112.135,#3D48B9,Tai-Kadai,Biaoic,Southeast Asia-mainland
Biao_Yonggu [byk],23.72,112.07,#3A4AB2,Tai-Kadai,Biaoic,Southeast Asia-mainland
Biaomin Yao [bmt],23.6,111.75,#3E50CF,Hmong-Mien,Mienic,Southeast Asia-mainland
Biatah [bth-2],1.264,110.32,#A26763,Austronesian,Land Dayak,Southeast Asia-Island
Bidiya [bid],11.92,18.81,#6D649E,Afro-Asiatic,East Chadic,African Savannah
Bidjara [bym],-24.5,146.592,#E67988,Pama-Nyungan,Greater Maric,S Australia
Bierebo [bnk],-16.667,168.131,#7E908F,Austronesian,Southern Oceanic,Oceania
Bieria [brj],-16.807,168.194,#8E6C56,Austronesian,Southern Oceanic,Oceania
Bifang [bby-2],6.28,10.03,#2E87C8,Niger-Kongo,Grassfields,African Savannah
Bih [rad],12.48,108.025,#7162AA,Austronesian,Nuclear Chamic,Southeast Asia-mainland
Bijago [bjg],11.28,-15.83,#66539D,Niger-Kongo,Central Atlantic,African Savannah
Bijago_Orango [bjg-2],11.034,-16.146,#A2608B,Niger-Kongo,Central Atlantic,African Savannah
Bikele [biw-2],3.67,12.85,#4C5592,Niger-Kongo,Zone A90,African Savannah
Bikol [bcl],13.333,123.5,#A67A5C,Austronesian,Philippines,Southeast Asia-Island
Bikol_Iriga [bcl-3],13.39,123.33,#B97D5F,Austronesian,Philippines,Southeast Asia-Island
Bikol_Naga [bcl-4],13.62,123.17,#A9795B,Austronesian,Philippines,Southeast Asia-Island
Biksi [yet],-4.013,140.494,#996168,Yetfa-Biksi,Yetfa-Biksi,Interior New Guinea
Bila [bip],1.17,28.76,#324B92,Niger-Kongo,Zone D30,S Africa
Bilba [bpz],-10.67,123.34,#97704C,Austronesian,Southeast Maluku,Southeast Asia-Island
Bilbil [brz],-5.26,145.76,#AF7359,Austronesian,North New Guinea,N Coast New Guinea
Biliau [bcu-2],-5.65,146.3,#A57759,Austronesian,North New Guinea,N Coast New Guinea
Bilin [byn],15.9,38.3,#7487A6,Afro-Asiatic,Central Cushitic,Greater Abyssinia
Bilinara [nbj],-16,131.667,#F27F93,Pama-Nyungan,Ngumbin-Yapa,N Australia
Biloxi [bll],32.25,-90,#3D7550,Siouan,Ohio Valley Siouan,E North America
Bilua [blb],-7.75,156.667,#A36B64,Solomons East Papuan,Solomons East Papuan,Oceania
Bima [bhp],-8.545,118.677,#507773,Austronesian,Bima-Lembata,Southeast Asia-Island
Bima_Kolo [bhp-3],-8.32,118.76,#5C7D71,Austronesian,Bima-Lembata,Southeast Asia-Island
Bimin [bhl],-5.43,141.942,#6C6250,Trans New Guinea,Ok,Interior New Guinea
Bimoba [bim],10.46,0.06,#5C4D9F,Niger-Kongo,Gur,African Savannah
Bina [bmn],-10.249,149.683,#9A763C,Austronesian,Papuan Tip,S New Guinea
Binandere [bhg],-8.167,147.917,#685F50,Trans New Guinea,Binanderean,S New Guinea
Binbinga [wmb-2],-16.17,135,#F28397,Mirndi,Ngurlun,N Australia
Bine [bon],-9.05,142.884,#A3666B,Eastern Trans Fly,Eastern Trans Fly,S New Guinea
Bini-2 [bin-2],6.41,5.7,#4B617C,Niger-Kongo,Edoid,African Savannah
Bini_Edo [bin],6.42,5.83,#335B76,Niger-Kongo,Edoid,African Savannah
Binigura [pnv],-22.488,116.506,#FA7E9E,Pama-Nyungan,Kanyara-Mantharta,S Australia
Bininj Gun-Wok [gup],-12.5,133.75,#E37E9D,Macro-Gunwinygu,Gunwingyuan proper,N Australia
Bintan Orang Laut [zlm-14],1.077,104.5,#8C5F80,Austronesian,Malayic,Southeast Asia-Island
Bintauna [bne],0.75,123.49,#7E7364,Austronesian,Philippines,Southeast Asia-Island
Bintulu [bny],3.83,113.67,#9E7D74,Austronesian,North Borneo,Southeast Asia-Island
Binukid [bkd],8.3,125,#AE815B,Austronesian,Philippines,Southeast Asia-Island
Binumarien [bjr],-6.25,146.08,#625356,Trans New Guinea,Kainantu,N Coast New Guinea
Binyang [cmn-54],23.22,108.82,#3750A3,Tibeto-Burman,North Sinitic,Southeast Asia-mainland
Bipi [biq],-2.109,146.4,#9C7E77,Austronesian,Admiralties,N Coast New Guinea
Bira [brf-2],1.6,30.13,#20539F,Niger-Kongo,Zone D30,S Africa
Bira [brf],1.5,30.03,#35649B,Niger-Kongo,,S Africa
Birao [brr],-9.746,160.515,#96775F,Austronesian,Southeast Solomonic,Oceania
Birgid [btf],13,27,#505E90,Afro-Asiatic,East Chadic,African Savannah
Biri [bvi],7.55,6.233,#4663B6,Ubangian,Ubangian,African Savannah
Biri [bzr],-20.5,146.5,#EF7D89,Pama-Nyungan,Greater Maric,S Australia
Birifor [biv],9.29,-2.73,#3A6C9C,Niger-Kongo,Gur,African Savannah
Biritai [bqq],-3,137.6,#424230,Lakes Plains,Tariku,Interior New Guinea
Birom [bom],9.67,8.83,#355B75,Niger-Kongo,Plateau,African Savannah
Birriya [xpa-2],-24.5,143.5,#F97F9D,Pama-Nyungan,Pirriya-Kungkari,S Australia
Bisa [bib],11.783,0.366,#655189,Mande,Eastern Mande,African Savannah
Bisayah_Sarawak [bsb],5.33,115.5,#996970,Austronesian,North Borneo,Southeast Asia-Island
Bishnupriya [bpy],24.8,93.12,#AE815D,Indo-European,Indo-Iranian,Indic
Bisiacco [vec-2],45.95,12.45,#666C88,Indo-European,Romance,Europe
Bissa [bib-2],10.43,-1.67,#72507B,Mande,Eastern Mande,African Savannah
Bisu [bii],19.75,100,#5B6BC4,Tibeto-Burman,Hani-Jino,Southeast Asia-mainland
Bitur [mcc],-8.52,142.71,#8D7544,Anim,Tirio,S New Guinea
Biya [mij-6],6.615,10.18,#2E4EAF,Niger-Kongo,Beboid,African Savannah
Biyo [byo],22.51,101.65,#30598F,Tibeto-Burman,Southern Loloish,Southeast Asia-mainland
Bizkaian [eus-6],43.25,-2.98,#AA937E,Basque,Basque,Europe
Bjokapakha [tsj-3],26.965,91.05,#7471C8,Tibeto-Burman,East Bodish,Indic
Bjokapakha-2 [tsj-4],26.965,91.045,#5F64A8,Tibeto-Burman,East Bodish,Indic
Blablanga [blp],-8.17,159.42,#898CA9,Austronesian,Meso-Melanesian,Oceania
Blablanga_Ghove [blp-2],-8.33,159.5,#7891AF,Austronesian,Meso-Melanesian,Oceania
Black Lahu [lhu-4],20.355,99.77,#2653B3,Tibeto-Burman,Central Loloish,Southeast Asia-mainland
Black Lahu_Huey Tat [lhu-6],19.29,99.01,#235BA8,Tibeto-Burman,Central Loloish,Southeast Asia-mainland
Black Lahu_Menglangba [lhu-7],22.56,99.93,#215DAF,Tibeto-Burman,Central Loloish,Southeast Asia-mainland
Black_Tai [blt-2],19.75,105,#27549C,Tai-Kadai,Black Tai,Southeast Asia-mainland
Blackfoot [bla],50,-112.67,#948A3D,Algic,Algonquian,Basin and Plains
Blagar [beu],-8.33,124.25,#957063,Timor-Alor-Pantar,Alor,Southeast Asia-Island
Blang [blr],23.3,100,#4D51AA,Austroasiatic,Palaungic,Southeast Asia-mainland
Boano [bzl],0.51,120.99,#AE7A61,Austronesian,Celebic,Southeast Asia-Island
Boano [bzn],-2.96,127.95,#8A7226,Austronesian,Central Maluku,Southeast Asia-Island
Boazi [kvg],-7,141.25,#3C6D5F,Anim,Boazi,S New Guinea
Boazi_Kuni [kvg-2],-6.913,141.326,#396761,Anim,Boazi,S New Guinea
Bobangi [bni],-0.1,17.7,#3A636F,Niger-Kongo,Zone C30,S Africa
Bobangi-2 [bni-3],0.05,17.75,#424A89,Niger-Kongo,Zone C30,S Africa
Bobo-Fing [bbo],11.83,-4.42,#46449C,Mande,Western Mande,African Savannah
Bobo_Madare_North [bbo-2],12.42,-4.48,#714E97,Mande,Western Mande,African Savannah
Bobo_Madare_South [bwq],11.54,-4.26,#594B79,Mande,Western Mande,African Savannah
Bobo_Tansila [bbo-3],12.43,-4.38,#4F589F,Mande,Western Mande,African Savannah
Bobongko [bgb],-0.5,121.75,#AF7567,Austronesian,Celebic,Southeast Asia-Island
Bobot [bty],-3.33,130.17,#857740,Austronesian,Central Maluku,Southeast Asia-Island
Bocota [sab],9.34,-82.24,#7F4D5E,Chibchan,Isthmic Chibchan,Mesoamerica
Bogaya [boq],-5.621,142.231,#70754B,Trans New Guinea,Duna-Bogaya,Interior New Guinea
Bohemian [ces-3],50,13,#6EAB85,Indo-European,Slavic,Europe
Boholano [ceb-2],9.9,124.2,#BE8B6B,Austronesian,Philippines,Southeast Asia-Island
Bohutu [bxh],-10.5,150.33,#61AC6F,Austronesian,Papuan Tip,S New Guinea
Boiken [bzf],-3.525,143.415,#737557,Ndu,Boiken,N Coast New Guinea
Bokala [lin-2],4.57,19.02,#374D8F,Niger-Kongo,Zone C30,S Africa
Bokar [adi-2],29,94.35,#845688,Tibeto-Burman,Macro-Tani,Indic
Boko [bkp],10.52,3.72,#395F6A,Mande,Eastern Mande,African Savannah
Bokyi [bky],6.1,9.06,#3F569F,Niger-Kongo,Bendic,African Savannah
Bola [bnp],-5.5,150,#AB7053,Austronesian,Meso-Melanesian,N Coast New Guinea
Bola [bxd-3],24.45,98.6,#3057A0,Tibeto-Burman,Burmish,Southeast Asia-mainland
Bolaang-Mongondow [mog],0.55,124,#B1786A,Austronesian,Philippines,Southeast Asia-Island
Bolano [bzl-2],0.52,121,#B7786D,Austronesian,Celebic,Southeast Asia-Island
Bole [bol],11.007,10.747,#386794,Afro-Asiatic,West Chadic,African Savannah
Bolgo [bvo-2],10.9,18.81,#554B8A,Niger-Kongo,Mbum-Day,African Savannah
Bolgo_Dugag [bvo],10.79,18.61,#694788,Niger-Kongo,Mbum-Day,African Savannah
Bolinao [smk],16.341,119.893,#AD7359,Austronesian,Philippines,Southeast Asia-Island
Bologna [ita-4],44.51,11.35,#69678F,Indo-European,Romance,Europe
Boloki [bkt],0.7,18.3,#354C8C,Niger-Kongo,Zone C30,S Africa
Bolongo [lol-24],-2.2,20.7,#3A4C9C,Niger-Kongo,Zone C30,S Africa
Bolyu [ply],24.78,105.35,#305DB5,Austroasiatic,Mangic,Southeast Asia-mainland
Bom [bmf],9.28,-11.6,#59698C,Niger-Kongo,Mel,African Savannah
Boma [boh],2.5,15.6,#355F9E,Niger-Kongo,Zone B80,African Savannah
Bomitaba [zmx],1.701,17.371,#365C82,Niger-Kongo,Zone D50,S Africa
Bomitaba-2 [zmx-2],1.7,17.37,#455E55,Niger-Kongo,Zone D50,S Africa
Bonan [peh-6],35.7,103,#598EA9,Mongolic,Mongolic,Inner Asia
Bonda [bfw-2],19,82.75,#C8808D,Austroasiatic,Munda,Indic
Bondei [bou],-5.082,38.432,#677E5A,Niger-Kongo,Zone G20,S Africa
Bonerate [bna],-7.38,121.79,#6C7057,Austronesian,Celebic,Southeast Asia-Island
Bongaigaon [asm-4],26.48,90.56,#5F5585,Indo-European,Indo-Iranian,Indic
Bonggi [bdg],7.3,117.2,#99655A,Austronesian,North Borneo,Southeast Asia-Island
Bonggo [bpg],-2.28,139.6,#946F4A,Austronesian,North New Guinea,N Coast New Guinea
Bongili [bui-2],0.37,16.61,#505F6B,Niger-Kongo,Zone D50,S Africa
Bongili [bui],1.61,16.05,#624F73,Niger-Kongo,Zone D50,S Africa
Bongo [bot],7.5,28,#4B549B,Nilo-Saharan,Sara-Bongo-Bagirmi,African Savannah
Boni [bob],0.5,43,#759789,Afro-Asiatic,East Cushitic,Greater Abyssinia
Bonifacino [lij-3],41.39,9.16,#477B98,Indo-European,Romance,Europe
Bontoc_Guinaang [bnc-2],17.08,120.9,#B07A58,Austronesian,Northern Luzon,Southeast Asia-Island
Bontok [bnc],17.083,120.917,#B07854,Austronesian,Northern Luzon,Southeast Asia-Island
Bor [bvf],5.605,27.472,#AB64A7,Afro-Asiatic,East Chadic,African Savannah
Bora [boa-2],-2.25,-71.75,#6D8853,Boran,Bora,NE South America
Bori [adi-5],28.2,94.6,#805380,Tibeto-Burman,Macro-Tani,Indic
Bormiese [ita-16],46.47,10.375,#436D8D,Indo-European,Romance,Europe
Bornholmsk [scy],55,15,#406E78,Indo-European,Germanic,Europe
Boro [brx],26.75,92,#5D4A80,Tibeto-Burman,Bodo-Garo,Indic
Boro-Shinasha [bwo],10.66,35.34,#63526E,Afro-Asiatic,North Omotic,Greater Abyssinia
Borong Kosorong [ksr],-6.534,147.502,#A06B63,Trans New Guinea,Finisterre-Huon,N Coast New Guinea
Bororo-2 [bor-2],-16.6,-55.2,#A3704C,Macro-Je,Bororo,NE South America
Boruca [brn],9.001,-83.325,#526783,Chibchan,Isthmic Chibchan,Mesoamerica
Boróro [bor],-15,-52,#9C6F48,Macro-Je,Bororo,NE South America
Bosaka-Nkole [lol-17],-0.8,22.25,#4C488C,Niger-Kongo,Zone C30,S Africa
Bosanga [lol-21],-0.25,20.5,#474993,Niger-Kongo,Zone C30,S Africa
Bosavi [bco-2],-6.425,142.765,#747047,Trans New Guinea,Bosavi,Interior New Guinea
Bosnian [bos],44,18,#68A38C,Indo-European,Slavic,Europe
Botin_Samban [kbx-2],-4.33,144.17,#957357,ApMa,ApMa,N Coast New Guinea
Botlikh [bph],42.66,46.22,#4AB184,Nakh-Daghestanian,Avar-Andi,Greater Mesopotamia
Bourbonnais [fra-11],46.57,3.33,#575C80,Indo-European,Romance,Europe
Bouyei [pcc-5],25.817,107.55,#3A5EBE,Tai-Kadai,Northern Tai,Southeast Asia-mainland
Bouyei_Changshun Duncao [pcc-9],25.9,106.5,#355AC4,Tai-Kadai,Northern Tai,Southeast Asia-mainland
Bouyei_Dushan Huanghou [pcc-11],25.4,107.6,#3752C5,Tai-Kadai,Northern Tai,Southeast Asia-mainland
Bouyei_Guiding Houchang [pcc-13],26.4,107,#324FC2,Tai-Kadai,Northern Tai,Southeast Asia-mainland
Bouyei_Huishui Yashui [pcc-12],26,106.9,#3750C2,Tai-Kadai,Northern Tai,Southeast Asia-mainland
Bouyei_Libo Fucun [pcc-10],25.3,108,#394FB9,Tai-Kadai,Northern Tai,Southeast Asia-mainland
Bouyei_Luodian Bamao [pcc-8],25.3,106.95,#3555C6,Tai-Kadai,Northern Tai,Southeast Asia-mainland
Bouyei_Luodian Luokun [pcc-7],25.25,106.7,#3555BA,Tai-Kadai,Northern Tai,Southeast Asia-mainland
Bouyei_Pingtang Sizhai [pcc-14],25.65,107.4,#384DC5,Tai-Kadai,Northern Tai,Southeast Asia-mainland
Bouyei_Sandu Zhouqin [pcc-15],25.7,107.9,#315BC3,Tai-Kadai,Northern Tai,Southeast Asia-mainland
Bouyei_west [pcc-2],25.75,107.333,#4757C4,Tai-Kadai,Northern Tai,Southeast Asia-mainland
Boyela [yel],-2.46,22.59,#425865,Niger-Kongo,Zone C80,S Africa
Boze [jer-2],10.2,8.96,#3349AE,Niger-Kongo,Kainji,African Savannah
Brabants [nld-3],50.75,4.65,#51636D,Indo-European,Germanic,Europe
Brag-g.yab [khg-2],30.65,97.55,#6C6DC3,Tibeto-Burman,Tibetan,Inner Asia
Brahui (Jahlawān) [brh-4],25.81,66.49,#71A26A,Dravidian,North Dravidian,Indic
Brahui [brh],29,67,#A4A794,Dravidian,North Dravidian,Indic
Brahui_Jahlawan [brh-3],25.79,66.51,#6AA36C,Dravidian,North Dravidian,Indic
Brahui_Sarawan [brh-2],29,66.6,#67A169,Dravidian,North Dravidian,Indic
Brajbhasha [bra],27.49,77.67,#8088BA,Indo-European,Indo-Iranian,Indic
Brao [brb],14,107.001,#6877C1,Austroasiatic,Bahnaric,Southeast Asia-mainland
Brao_Krung [brb-2],13.8,107,#8883B5,Austroasiatic,Bahnaric,Southeast Asia-mainland
Breton [bre],47.65,-2.75,#3E859B,Indo-European,Brythonic,Europe
Breton_Grand Lorient [bre-6],47.75,-3.36,#5183BF,Indo-European,Brythonic,Europe
Breton_Kerneveg [bre-2],48,-4.1,#3D8899,Indo-European,Brythonic,Europe
Breton_Leoneg [bre-3],48.6,-4.3,#3F8A9B,Indo-European,Brythonic,Europe
Breton_Plozevet [bre-5],47.99,-4.42,#617AAF,Indo-European,Brythonic,Europe
Breton_Tregiereg [bre-4],48.5,-3.125,#3D8899,Indo-European,Brythonic,Europe
Bribri [bzd],9.5,-83,#415D92,Chibchan,Isthmic Chibchan,Mesoamerica
Brinken [zmd],-14.05,130.08,#EE7D8D,Western Daly,Western Daly,N Australia
Brokpa [sgt],27.33,92,#5167A9,Tibeto-Burman,Tibetan,Indic
Bru_Khok Sa-at [brv],17.25,103.75,#4F62A7,Austroasiatic,Katuic,Southeast Asia-mainland
Bru_Western [brv-2],16.75,104.75,#66659E,Austroasiatic,Katuic,Southeast Asia-mainland
Brugge [vls-3],51.22,3.23,#4D6A79,Indo-European,Germanic,Europe
Bruu [bru],17.167,104.333,#3D51A3,Austroasiatic,Katuic,Southeast Asia-mainland
Brønnøy [nob-8],65.48,12.4,#5F649F,Indo-European,Germanic,Europe
Bu [jid],9.05,8.66,#2E518D,Niger-Kongo,Plateau,African Savannah
Buamu [box],11.17,-3.5,#565972,Niger-Kongo,Gur,African Savannah
Buang_Central [bzh],-6.855,146.774,#71929E,Austronesian,North New Guinea,Interior New Guinea
Bube [bvb],3.5,8.7,#336189,Niger-Kongo,Mbam-Bubi-Jarawan,S Africa
Bubia [bbx-2],4.02,9.22,#425B87,Niger-Kongo,Zone A20,African Savannah
Budong-bundong [bdx],-2.171,119.328,#A07453,Austronesian,Greater South Sulawesi,Southeast Asia-Island
Budu [buu],2.01,27.95,#1E5AA8,Niger-Kongo,Zone D30,S Africa
Budu-2 [buu-3],2.011,27.949,#235896,Niger-Kongo,Zone D30,S Africa
Buduma [bdm],13.6,14,#4A5C80,Afro-Asiatic,Biu-Mandara,African Savannah
Budux [bdk],41.19,48.37,#3AAE90,Nakh-Daghestanian,Lezgic,Greater Mesopotamia
Bugan [bbh],23.75,105,#205EBF,Austroasiatic,Mangic,Southeast Asia-mainland
Bugan_Nala [bbh-2],23.487,105.15,#205DBF,Austroasiatic,Mangic,Southeast Asia-mainland
Bughotu [bgt],-8.478,159.808,#8D7D5A,Austronesian,Southeast Solomonic,Oceania
Bugis [bug],-4,120,#AE7071,Austronesian,Greater South Sulawesi,Southeast Asia-Island
Bugun [bgn],27.3,92.35,#4568A0,Tibeto-Burman,Kho-Bwa,Indic
Buhid [bku],12.574,121.25,#AF765B,Austronesian,Philippines,Southeast Asia-Island
Buin [buo],-6.75,155.833,#96544B,South Bougainville,Buin,Oceania
Buja-Yambuli [bja-2],2.5,22.5,#355284,Niger-Kongo,Zone C30,S Africa
Bukar_Sadong [sdo],0.97,110.66,#816789,Austronesian,Land Dayak,Southeast Asia-Island
Bukat [bvk],1.29,113.25,#B87E6B,Austronesian,North Borneo,Southeast Asia-Island
Bukawa [buk],-6.732,147.359,#51635D,Austronesian,North New Guinea,N Coast New Guinea
Buket [bvk-2],0.8,112.6,#9E6F55,Austronesian,North Borneo,Southeast Asia-Island
Bukhari [bhh-2],39.79,64.45,#57995D,Indo-European,Indo-Iranian,Inner Asia
Bukit [bvu],-2.75,115.64,#C77B75,Austronesian,Malayic,Southeast Asia-Island
Bukitan [bkn],2.35,114.89,#B47969,Austronesian,North Borneo,Southeast Asia-Island
Bukiyip_Arapesh [ape],-3.667,142.5,#81656B,Torricelli,Kombio-Arapesh,N Coast New Guinea
Bukusu [bxk],1.02,35,#A07459,Niger-Kongo,Zone E30,S Africa
Bularnu [yil],-21.5,137.5,#F07FA8,Pama-Nyungan,Warluwaric,S Australia
Bulgarian [bul],43,25,#4E9B73,Indo-European,Slavic,Europe
Bulgarian_Banat [bul-6],45.7,20.9,#4A8A84,Indo-European,Slavic,Europe
Bulgarian_Boboshevo [bul-4],42.15,23,#5BA16F,Indo-European,Slavic,Europe
Bulgarian_Erkech [bul-5],42.84,27.58,#579E6F,Indo-European,Slavic,Europe
Bulgarian_Gabare [bul-8],43.316,21.92,#5A9F73,Indo-European,Slavic,Europe
Bulgarian_Lovec [bul-9],43.14,24.71,#559B75,Indo-European,Slavic,Europe
Bulgarian_Moesian [bul-3],42.7,27.75,#5C889F,Indo-European,Slavic,Europe
Bulgarian_Momchilovci [bul-10],41.66,24.77,#50996E,Indo-European,Slavic,Europe
Bulgarian_North-west [bul-7],43.6,23.18,#4C9973,Indo-European,Slavic,Europe
Bulgarian_Nova Nadezda [bul-11],42.02,25.72,#61A271,Indo-European,Slavic,Europe
Buli [bzq],0.833,128.5,#A37668,Austronesian,South Halmahera-West New Guinea,Southeast Asia-Island
Bulu [bjl],-5.06,150.1,#91704A,Austronesian,Meso-Melanesian,N Coast New Guinea
Bulu [bum],2.917,11.15,#33638B,Niger-Kongo,Zone A70,African Savannah
Bulungan [bdb-2],0.89,117.58,#B16F6E,Austronesian,Basap,Southeast Asia-Island
Bulusu [bqr],3,116,#B27366,Austronesian,North Borneo,Southeast Asia-Island
Bum [bmv],6.49,10.42,#366281,Niger-Kongo,Grassfields,African Savannah
Buma [tkw-2],-11.615,166.966,#B67A86,Austronesian,Te Motu,Oceania
Buma [yns-2],-3.33,17.5,#3B60A9,Niger-Kongo,Zone H30,S Africa
Bumang [bvp],22.5,96.5,#264EB0,Austroasiatic,Palaungic,Southeast Asia-mainland
Bumbita_Arapesh [aon],-3.667,142.833,#957E5D,Torricelli,Kombio-Arapesh,N Coast New Guinea
Bumthang [kjz],27.802,90.8,#6462BF,Tibeto-Burman,East Bodish,Indic
Bumthang_Ura [kjz-2],27.48,90.905,#303ADB,Tibeto-Burman,East Bodish,Indic
Bunama [bdd],-10.064,151.075,#94965D,Austronesian,Papuan Tip,S New Guinea
Bunan [bfu],32.61,76.91,#4969B6,Tibeto-Burman,Western Himalayan,Indic
Bunaq [bfn],-9.1,125.15,#4B6B5F,Timor-Alor-Pantar,Bunaq,Southeast Asia-Island
Bunaq_Lolotoen [bfn-2],-9.161,125.26,#496B5E,Timor-Alor-Pantar,Bunaq,Southeast Asia-Island
Bunaq_South [bfn-3],-9.227,125.393,#516E5F,Timor-Alor-Pantar,Bunaq,Southeast Asia-Island
Bundeli [bns],23.18,79.95,#A186C2,Indo-European,Indo-Iranian,Indic
Bunganditj [xbg],-36.5,141,#F9819F,Pama-Nyungan,Kulinic,S Australia
Bungku [bkz],-3,122.33,#746D5C,Austronesian,Celebic,Southeast Asia-Island
Bungku_Tulambatu [bkz-2],-3.17,122.12,#6A6E5E,Austronesian,Celebic,Southeast Asia-Island
Bungu [wun],-8.33,32.88,#274BA7,Niger-Kongo,Zone F20,S Africa
Bunoge Dogon [dgb],14.43,-3.49,#67439C,Dogon,Dogon,African Savannah
Bunong [cmo],12.63,107.3,#6972B6,Austroasiatic,Bahnaric,Southeast Asia-mainland
Bunu [buh],25.5,108.7,#2756DE,Hmong-Mien,Hmongic,Southeast Asia-mainland
Bunu_Dahua [buh-4],23.74,107.99,#1054F5,Hmong-Mien,Hmongic,Southeast Asia-mainland
Bunu_Dongnu [bwx],23.88,108.08,#1458EC,Hmong-Mien,Hmongic,Southeast Asia-mainland
Bunu_Nunu [bwx-2],23.799,110.178,#2157C8,Hmong-Mien,Hmongic,Southeast Asia-mainland
Bunuba [bck],-17.75,125.75,#F77B9F,Bunuban,Bunuban,N Australia
Bunun [bnn],23.5,121,#928749,Austronesian,Bunun,Southeast Asia-Island
Bunun_Isbukun [bnn-2],23.459,121.056,#83A065,Austronesian,Bunun,Southeast Asia-Island
Buol [blf],1,121.5,#85646E,Austronesian,Philippines,Southeast Asia-Island
Bura [bwr],10.611,12.195,#3186A6,Afro-Asiatic,Biu-Mandara,African Savannah
Burak [bys],9.49,11.07,#324DAD,Niger-Kongo,Mbum-Day,African Savannah
Burarra [bvr],-12.25,134.667,#E5789E,Macro-Gunwinygu,Burarra,N Australia
Burji [bji],5.5,37.9,#689B68,Afro-Asiatic,East Cushitic,Greater Abyssinia
Burmbar [vrt],-16.372,167.749,#7B6556,Austronesian,Southern Oceanic,Oceania
Burmese [mya],20,96,#3C53D5,Tibeto-Burman,Burmish,Southeast Asia-mainland
Burmese_Arakan [rki],20.14,92.9,#3F5DCF,Tibeto-Burman,Burmish,Indic
Burmese_Intha [int],20.55,96.92,#415ABF,Tibeto-Burman,Burmish,Southeast Asia-mainland
Burmese_Myeik [tvn],12.43,98.6,#2D58AD,Tibeto-Burman,Burmish,Southeast Asia-mainland
Burmese_Palaw [tvn-3],13.12,98.68,#3756AE,Tibeto-Burman,Burmish,Southeast Asia-mainland
Burmese_Tavoyan [tvn-2],14.08,98.2,#3455DC,Tibeto-Burman,Burmish,Southeast Asia-mainland
Burmeso [bzu],-2.447,138.209,#798442,Burmeso,Burmeso,Interior New Guinea
Buru [mhs],-3.7,126.4,#A67960,Austronesian,Central Maluku,Southeast Asia-Island
Burum [bmu],-6.484,147.311,#B38672,Trans New Guinea,Finisterre-Huon,N Coast New Guinea
Burum_Mindik [bmu-3],-6.47,147.44,#7F9C6A,Trans New Guinea,Finisterre-Huon,N Coast New Guinea
Burun [bdi-2],10.8,33.8,#A25096,Nilo-Saharan,Luo-Burun,African Savannah
Burushaski [bsk],36.5,74.5,#5A94B4,Burushaski,Burushaski,Indic
Burushaski_Hunza [bsk-3],36.33,74.64,#709AB2,Burushaski,Burushaski,Indic
Burushaski_Jammu-Kashmir [bsk-4],34.11,74.82,#6B89BF,Burushaski,Burushaski,Indic
Burushaski_eastern [bsk-2],36.32,74.65,#497CBE,Burushaski,Burushaski,Indic
Buruwai [asi-2],-3.55,133.33,#8C7443,Trans New Guinea,Asmat-Kamoro,N Coast New Guinea
Buryat [bxm],52,108,#737952,Mongolic,Mongolic,Inner Asia
Busa [bqp],9.67,4,#266874,Mande,Eastern Mande,African Savannah
Busa-2 [bqp-2],9.91,4.4,#40585A,Mande,Eastern Mande,African Savannah
Busami [bsm],-1.8,135.95,#947142,Austronesian,South Halmahera-West New Guinea,N Coast New Guinea
Bushong [buf],-4.67,21.3,#48499D,Niger-Kongo,Zone C80,S Africa
Busoa [bup],-5.62,122.616,#4D7E78,Austronesian,Celebic,Southeast Asia-Island
Bussa [dox-2],5.76,37.19,#6E9056,Afro-Asiatic,East Cushitic,Greater Abyssinia
Butmas_Tur [bnr],-15.376,167.028,#A86C60,Austronesian,Southern Oceanic,Oceania
Butuanon [btw],8.87,125.42,#B6885D,Austronesian,Barito,Southeast Asia-Island
Buwal [bhs],10.5,13.86,#3793B5,Afro-Asiatic,Biu-Mandara,African Savannah
Buxing [bgk],21.48,101.57,#426CA5,Austroasiatic,Palaungic,Southeast Asia-mainland
Buyang [yha],24,104.8,#3163D8,Tai-Kadai,Kadaic,Southeast Asia-mainland
Buyi_Hezhang [pcc-3],27.12,104.73,#265AC1,Tai-Kadai,Northern Tai,Southeast Asia-mainland
Buyuan_Jino [jiy],22.05,101,#3247AC,Tibeto-Burman,Hani-Jino,Southeast Asia-mainland
Bwaidoka [bwd],-9.479,150.311,#7D8E51,Austronesian,Papuan Tip,S New Guinea
Bwala [xxx-121],-4.45,16.2,#2A679E,Niger-Kongo,Zone B70,S Africa
Bwamu Laa [bwj],11.65,-3.18,#426280,Niger-Kongo,Gur,African Savannah
Byali [beh],11.04,1.08,#6C5489,Niger-Kongo,Gur,African Savannah
Byambe [lol-6],-0.27,21.6,#5D3F85,Niger-Kongo,Zone C30,S Africa
Byansi [bee],30.17,80.5,#6A66C2,Tibeto-Burman,Western Himalayan,Indic
Bésiro [cax-2],-16.6375,-61.9271,#807748,Arawak,Southern Maipuran,NE South America
C'lela [dri],11.47,5.27,#36A4BC,Niger-Kongo,Kainji,African Savannah
Caac [msq],-20.42,164.42,#9D7DC3,Austronesian,Southern Oceanic,Oceania
Cabecar [cjp],9.91,-83.68,#4C4F9A,Chibchan,Isthmic Chibchan,Mesoamerica
Cabiyarí [cbb],-0.1302,-70.6927,#A37D45,Arawak,Northern Maipuran,NE South America
Cacaopera [ccr],13.74,-88.11,#A68448,Misumalpan,Misumalpan,Mesoamerica
Caddo [cad],33.33,-93.5,#407F5F,Caddoan,Caddo,Basin and Plains
Cadorino [ita-21],46.445,12.39,#53677D,Indo-European,Romance,Europe
Cagayano [cgc-2],10.47,119.87,#AC8459,Austronesian,Philippines,Southeast Asia-Island
Cagliaritano [ita-55],39.225,9.15,#4A7288,Indo-European,Romance,Europe
Cahita [opt-2],27.9,-109,#5D705B,Uto-Aztecan,Cahitan,Mesoamerica
Cahuilla [chl],33.75,-117.75,#8BB38A,Uto-Aztecan,North Uto-Aztecan,California
Caijia_Niujiaojing [xxx-53],27.067,104.297,#2963C6,Tibeto-Burman,Caijia,Southeast Asia-mainland
Caijia_Xingfa [xxx-47],26.934,104.863,#2E5BB6,Tibeto-Burman,Caijia,Southeast Asia-mainland
Cak [ckh],21.41,92.6,#4966A1,Tibeto-Burman,Jingpho-Luish,Indic
Cakchiquel [ckf],14.5,-91,#62AA71,Mayan,Core Mayan,Mesoamerica
Calabrian [scn-4],38.148,16.18,#4580A8,Indo-European,Romance,Europe
Calabrian-2 [scn-3],38.92,16.6,#5A82A4,Indo-European,Romance,Europe
Callahuaya [caw],-15,-69,#94A88B,Puquina,Puquina,Andean
Calusa [xxx-105],27.76,-82.55,#AA805E,Tunica,Tunica,E North America
Camling [rab],27.3,86.8,#697EB3,Tibeto-Burman,Central Kiranti,Indic
Campa [cni],-12,-74,#939050,Arawak,Southern Maipuran,Andean
Campalagian [cml],-4.02,119.62,#B87376,Austronesian,Greater South Sulawesi,Southeast Asia-Island
Campobassano [ita-45],41.6,14.66,#596F94,Indo-European,Romance,Europe
Camsá [kbh],1,-77,#3F787B,Camsá,Camsá,Andean
Camuno [lmo-7],45.943,10.28,#575F84,Indo-European,Romance,Europe
Canamari [knm-2],-6.46,-68.78,#B37457,Katukinan,Katukinan,NE South America
Candoshi [cbu],-4.17,-77,#709C5B,Candoshi,Candoshi,Andean
Canela-Krahô [ram],-6.5,-45,#875D66,Macro-Je,Je,NE South America
Canichana [caz],-14.31,-64.94,#818A4A,Canichana-Tequiraca,Canichana-Tequiraca,NE South America
Cantabrian_East [spa-7],43.3,-3.9,#8C6C65,Indo-European,Romance,Europe
Cantabrian_West [spa-8],43.3,-4.1,#8C6864,Indo-European,Romance,Europe
Cantonese [yue],22.333,114,#3C54A7,Tibeto-Burman,Yue,Southeast Asia-mainland
Cantonese_Bin'an_賓安 [yue-67],23.025,113.99,#344DA7,Tibeto-Burman,Yue,Southeast Asia-mainland
Cantonese_Bin'an_賓安沙井_Shajing [yue-7],22.7,113.83,#3B4AA7,Tibeto-Burman,Yue,Southeast Asia-mainland
Cantonese_Conghua-Lütian_從化呂田 [yue-70],23.8,113.95,#304B99,Tibeto-Burman,Yue,Southeast Asia-mainland
Cantonese_Conghua-city-從化城内 [yue-60],23.55,113.6,#3D47A2,Tibeto-Burman,Yue,Southeast Asia-mainland
Cantonese_Doumen_1_斗門 [yue-11],22.2,113.3,#3B43AD,Tibeto-Burman,Yue,Southeast Asia-mainland
Cantonese_Foshan_佛山 [yue-62],23.02,113.12,#3B45A9,Tibeto-Burman,Yue,Southeast Asia-mainland
Cantonese_Gaoming_高明 [yue-65],22.9,112.89,#3F43AA,Tibeto-Burman,Yue,Southeast Asia-mainland
Cantonese_Guangzhou_Xinjie_Kam Tim_新界錦田 [yue-71],22.44,114.065,#3E44AC,Tibeto-Burman,Yue,Southeast Asia-mainland
Cantonese_Huaxian_花縣 [yue-74],23.49,113.33,#3846AB,Tibeto-Burman,Yue,Southeast Asia-mainland
Cantonese_Jiangmen_江門 [yue-66],22.58,113.08,#434BA5,Tibeto-Burman,Yue,Southeast Asia-mainland
Cantonese_Macau_ 澳門 [yue-72],22.15,113.56,#354894,Tibeto-Burman,Yue,Southeast Asia-mainland
Cantonese_Nanning [yue-15],22.817,108.317,#2F57A4,Tibeto-Burman,Yue,Southeast Asia-mainland
Cantonese_Panyu_番禺 [yue-73],22.94,113.38,#30459B,Tibeto-Burman,Yue,Southeast Asia-mainland
Cantonese_Sanshui_三水 [yue-64],23.16,112.9,#3B46A4,Tibeto-Burman,Yue,Southeast Asia-mainland
Cantonese_Shunde_順德 [yue-63],22.8,113.25,#3B43B1,Tibeto-Burman,Yue,Southeast Asia-mainland
Cantonese_Zengcheng_增城 [yue-61],23.29,113.83,#3D49A3,Tibeto-Burman,Yue,Southeast Asia-mainland
Cantonese_Zhongshan-Longdu_中山隆都 [yue-26],22.5,113.3,#404BA0,Tibeto-Burman,Yue,Southeast Asia-mainland
Cantonese_Zhongshan-Nanlang-Heshui中山南良合水 [yue-8],22.4,113.5,#384CA0,Tibeto-Burman,Yue,Southeast Asia-mainland
Cantonese_Zhuhai_珠海 [yue-12],22.27,113.58,#414A9F,Tibeto-Burman,Yue,Southeast Asia-mainland
Cantonese_東萖-清溪_Dongguan-Qingxi [yue-68],22.8,114.13,#335095,Tibeto-Burman,Yue,Southeast Asia-mainland
Cantonese_東萖萖城_Dongguan-city [yue-10],23.02,113.75,#3C42AC,Tibeto-Burman,Yue,Southeast Asia-mainland
Cantonese_深圳沙頭角_Shenzhen_Shatoujie [yue-69],22.6,114.2,#335095,Tibeto-Burman,Yue,Southeast Asia-mainland
Canzés [lmo-6],45.85,9.27,#4E679A,Indo-European,Romance,Europe
Cao Bang [zyg-2],23.18,105.41,#334CBA,Tai-Kadai,Daic,Southeast Asia-mainland
Caodeng_rGyalrong [jya-4],32.2,101.8,#3272BC,Tibeto-Burman,Qiangic,Inner Asia
Capanahua [kaq],-7,-74,#4E7C5A,Panoan,Pano Nawa,NE South America
Cappadocian [cpg],38.66,34.85,#6592AF,Indo-European,Graeco-Phrygian,Greater Mesopotamia
Caquinte [cot],-11.7092,-73.9252,#A48D68,Arawak,Southern Maipuran,Andean
Car [caq],9.167,92.75,#9E6480,Austroasiatic,Nicobar,Southeast Asia-mainland
Cara [cfd],10.13,8.75,#465F9D,Niger-Kongo,Plateau,African Savannah
Carapana [cbc],0.45,-71,#5C6337,Tucanoan,East Tucanoan,NE South America
Carib [car],7.85,-59,#756C53,Cariban,Guianan Carib,NE South America
Carib_Suriname [crb-2],5.7,-55.932,#9E6E43,Arawak,Northern Maipuran,NE South America
Carib_Venezuela [crb-3],7.969,-65.67,#A27142,Arawak,Northern Maipuran,NE South America
Carijona [cbd],0.148,-70.708,#857147,Cariban,Guianan Carib,NE South America
Carolinian [cal],15,146,#7285A2,Austronesian,Micronesian,Oceania
Carrarese [ita-29],44.08,10.1,#5E6A97,Indo-European,Romance,Europe
Cashibo-Cacataibo [cbr],-9.1,-75.5,#567654,Panoan,Cashibo-Cacataibo,NE South America
Cashinahua [cbs],-10.5,-71.75,#417955,Panoan,Pano Nawa,NE South America
Castagniers [frp-4],43.79,7.23,#5B667E,Indo-European,Romance,Europe
Castellanese [sdc-2],40.913,8.71,#6975A5,Indo-European,Romance,Europe
Catalan [cat],41.4,2.02,#7970AA,Indo-European,Romance,Europe
Catalan_Northern [cat-6],42.7,2.9,#8A77AA,Indo-European,Romance,Europe
Catalan_Northwestern [cat-5],42.5,1.5,#8778AB,Indo-European,Romance,Europe
Catanese [ita-52],37.5,15.1,#5F7C9A,Indo-European,Romance,Europe
Catanzarese [ita-51],38.9,16.6,#717AA2,Indo-European,Romance,Europe
Catawba [chc],34,-81,#788747,Siouan,Siouan,E North America
Cauho [pho-6],21.4,102,#384CBB,Tibeto-Burman,Hani-Jino,Southeast Asia-mainland
Cavineña [cav],-12.25,-67.5,#9C9164,Tacanan,Tacanan,NE South America
Cayapa [cbi],1.2,-78.75,#9E958A,Barbacoan,Southern Barbacoan,Andean
Cayapo [txu-2],-7.77,-51.67,#A25472,Macro-Je,Je,NE South America
Cayuga [cay],42.75,-76.75,#5A6D43,Iroquoian,Northern Iroquoian,E North America
Cayuse [xcy],46.11,-117.94,#6BA466,Cayuse,Cayuse,Basin and Plains
Cayuvava [cyb],-12.5,-67,#687450,Cayuvava,Cayuvava,NE South America
Ce [ruk],10,8.67,#4349AB,Niger-Kongo,Plateau,African Savannah
Cebuano [ceb],10,124,#BA8C6E,Austronesian,Philippines,Southeast Asia-Island
Cemuhi [cam],-20.833,165,#5E5A97,Austronesian,Southern Oceanic,Oceania
Central !Kung [nmn-3],-19.57,18.12,#3578CB,Tuu,Tuu,S Africa
Central Banda [tor],6.64,22.76,#245999,Ubangian,Ubangian,African Savannah
Central-Eastern Niger Fulfulde [fuq],15.09,8.43,#5D66A7,Niger-Kongo,North-Central Atlantic,African Savannah
Cerma [cme],10.249,-4.85,#926489,Niger-Kongo,Gur,African Savannah
Ch'ol [cti],17.49,-92.47,#658E5A,Mayan,Core Mayan,Mesoamerica
Cha'palaachi [cbi-2],0.838,-78.877,#74A88A,Barbacoan,Southern Barbacoan,Andean
Chachapuya [xxx-114],-6.42,-77.92,#7F9164,Chachapoya,Chachapoya,Andean
Chacobo [cao],-12.25,-65,#799649,Panoan,Pano Nawa,NE South America
Chadong [cdy],25.2,110.2,#3060D6,Tai-Kadai,Maonan-Chadong,Southeast Asia-mainland
Chaga-Kiwoso [old],-3.29,37.57,#565B94,Niger-Kongo,Zone E60,S Africa
Chaga-Ng'uni [jmc-2],-3.18,37.2,#56527F,Niger-Kongo,Zone E60,S Africa
Chaga-Rombo-North [rof],-3.08,37.54,#55598F,Niger-Kongo,Zone E60,S Africa
Chaga-Rombo-South [rof-2],-3.21,37.54,#5C5B99,Niger-Kongo,Zone E60,S Africa
Chaga-Siha [jmc],-3.36,36.92,#5F5277,Niger-Kongo,Zone E60,S Africa
Chaga-Vunjo [wun-2],-3.43,37.58,#4B69AD,Niger-Kongo,Zone E60,S Africa
Chaha [sgw],8.2,38,#478F5E,Afro-Asiatic,Ethiopian,Greater Abyssinia
Chakali [cli],9.83,-1.9,#3C3EAD,Niger-Kongo,Gur,African Savannah
Chakavian [hrv-2],45.17,14.85,#3E5F93,Indo-European,Slavic,Europe
Chakavian_Susak [hrv-4],44.52,14.3,#54A171,Indo-European,,Europe
Chakhar [mon-6],44.94,115.38,#7F735A,Mongolic,Mongolic,Inner Asia
Chakhar-2 [mon-7],43,115,#8D9A6D,Mongolic,Mongolic,Inner Asia
Chakma [ccp],22.9,92.23,#536191,Indo-European,Indo-Iranian,Indic
Chakosi [cko-2],10.36,0.48,#585099,Niger-Kongo,Kwa,African Savannah
Chali [tgf],27.3,91.26,#636AC0,Tibeto-Burman,East Bodish,Indic
Chaling [gan-21],28.81,113.64,#2851B2,Tibeto-Burman,Gan,Southeast Asia-mainland
Cham_Eastern [cjm],10.93,108.1,#6758A8,Austronesian,Nuclear Chamic,Southeast Asia-mainland
