name,latitude,longitude,color,family,subgroup,country
!Xoon [nmn],-24,21.5,#1777C6,Tuu,Hua,Botswana
’Weenhayek [mtp],-21.99,-63.6,#504D94,Matacoan,Mataguayo II,Bolivia
||Ana [gnk],-22.2,22.4,#208983,Khoe,Khoe,Botswana
||Ani [hnh],-19.3,22.5,#287E97,Khoe,Khoe,Botswana
||Gana [gnk-2],-19,22.5,#249D89,Khoe,Khoe,Botswana
||Xekwi [xeg],-23,22,#2F5AA8,Tuu,!Kwi,Botswana
|Gwi [gwj],-22.435,21.654,#2081A5,Khoe,Khoe,Botswana
|Xam [xam],-30.34,21.82,#3784A2,Tuu,/Xam,South Africa
A-Hmao [hmd],25.75,106.08,#3571FF,Hmong-Mien,Hmongic,China
A'iwa [ash],-2,-74.5,#757350,A'iwa,,Peru
A'jië [aji],-21.342,165.459,#A37DB2,Oceanic,Southern Oceanic,New Caledonia
Aari [aiw],6,36.6,#2D7D8F,Afro-Asiatic,Omotic,Ethiopia
Aashing [adi-10],28.99,94.9,#A88F87,Tibeto-Burman,Macro-Tani,India
Abanyom [abm],6.499,8.647,#6AA5AA,Niger-Kongo,Atlantic-Congo,Nigeria
Abar [mij-3],6.59,10.26,#4791B5,Niger-Kongo,Atlantic-Congo,Cameroon
Abau [aau],-4,141.167,#6FB35C,Sepik,Abau,Papua New Guinea
Abawiri [flh],-3.05,139.21,#36B767,Lakes Plains,Eastern Lakes Plains,Indonesia-Papua
Abaza [abq],44.34,41.67,#2F137B,Northwest Caucasus,Abaza-Abkhaz,Russia
Abduyi [pes-4],29.7,52.07,#4D7D5C,Indo-European,Indo-Iranian,Iran
Abelam [abt-2],-3.83,143.17,#C57D7B,Ndu,Nuclear Ndu,Papua New Guinea
Abellen [abp],15.41,120.2,#A68C5A,Malayo-Polynesian,Philippines,Philippines
Abenaki_Western [abe],44,-72.25,#708D52,Algic,Algonquian,USA
Aberdeenshire_English [sco-4],57.3,-2,#3F8680,Indo-European,Germanic,Britain
Abidji [abi],5.66,-4.58,#509D96,Niger-Kongo,Atlantic-Congo,Côte d'Ivoire
Abinomn [bsa],-3,138.8,#6D914D,Abinomn,,Indonesia-Papua
Abipon [axb],-26,-61,#9E7957,Guaicuruan,Southern Guaicuruan,Argentina
Abkhaz [abk],43,41.03,#391C7C,Northwest Caucasus,Abaza-Abkhaz,Abkhazia
Abkhaz_Bzyp [ady-14],43.32,40.41,#2F1384,Northwest Caucasus,Abaza-Abkhaz,Abkhazia
Abkhaz_Sadz [ady-13],43.33,40.22,#37157C,Northwest Caucasus,Abaza-Abkhaz,Abkhazia
Abron [abr],8.03,-2.8,#41B589,Niger-Kongo,Atlantic-Congo,Ghana
Abruzzo [nap],42.66,13.7,#637FB2,Indo-European,Romance,Italy
Abua [abn],4.8,6.654167,#4F9CB2,Niger-Kongo,Atlantic-Congo,Nigeria
Abui [abz],-8.417,124.6,#7DA964,Timor-Alor-Pantar,Alor-Pantar,Indonesia-NTT
Abujh_Maria [mrr-2],18.75,80.68,#B67E6A,Dravidian,South-Central Dravidian,India
Abun [kgr],-0.833,132,#4CA48A,West Papuan,Birds Head,Indonesia-Papua
Abure [abu],5.22,-3.64,#5CA2A0,Niger-Kongo,Atlantic-Congo,Côte d'Ivoire
Acatec [agu-2],15.7,-91.617,#515F66,Mayan,Core Mayan,Guatemala
Aceh_Lhokseumawe [ace-7],5.19,97.14,#6A89C5,Malayo-Polynesian,Malayo-Sumbawan,Indonesia-Sumatra
Aceh_Pidie [ace-2],5.38,95.96,#6B89C3,Malayo-Polynesian,Malayo-Sumbawan,Indonesia-Sumatra
Acehnese [ace],5.333,96.167,#608BBD,Malayo-Polynesian,Malayo-Sumbawan,Indonesia-Sumatra
Acehnese_Northeast [ace-6],4.62,97.62,#568BBA,Malayo-Polynesian,Malayo-Sumbawan,Indonesia-Sumatra
Acehnese_South [ace-4],4.1,96.23,#578DB9,Malayo-Polynesian,Malayo-Sumbawan,Indonesia-Sumatra
Acehnese_Southwest [ace-3],5.05,95.34,#588DB8,Malayo-Polynesian,Malayo-Sumbawan,Indonesia-Sumatra
Acehnese_West [ace-5],5.47,95.26,#568EB9,Malayo-Polynesian,Malayo-Sumbawan,Indonesia-Sumatra
Achagua [aca],4.002,-72.814,#767958,Arawak,Northern Maipuran,Colombia
Achang_Lianghe [acn-2],24.8,98.3,#5081D4,Tibeto-Burman,Lolo-Burmese,China
Achang_Longchuan [can-2],24.25,97.833,#4678E5,Tibeto-Burman,Lolo-Burmese,China
Achang_Luxi [can-3],24.527,103.764,#4595C0,Tibeto-Burman,Lolo-Burmese,China
Aćharêtâʹ [phl-2],35.4,71.75,#557FBD,Indo-European,Indo-Iranian,Afghanistan
Aché [guq],-25.25,-55.17,#7C9D66,Tupian,Tupi-Guarani,Paraguay
Achi [acr],15.25,-90.5,#66695B,Mayan,Core Mayan,Guatemala
Achuar [acu],-3,-76,#998055,Jivaroan,Shuaric,Peru
Achumawi [acv],41.5,-121,#474D84,Palaihnihan,,USA
Acipa [acp],10.71,6.01,#1F6E98,Niger-Kongo,Atlantic-Congo,Nigeria
Acoma [kjq-2],34.92,-107.58,#365CB3,Keresan,Western Keresan,USA
Acooli [ach],3.293,32.871,#938FB3,Nilo-Saharan,Eastern Sudanic,Uganda
Adamawa Fulfulde [fub],8.9,15.84,#5E92AE,Niger-Kongo,Atlantic-Congo,Cameroon
Adang [adn],-8.163,124.456,#899E63,Timor-Alor-Pantar,Alor-Pantar,Indonesia-NTT
Adangme [ada],5.8,0.33,#4A9CAC,Niger-Kongo,Atlantic-Congo,Ghana
Adim [yay],5.81,8.03,#408D7B,Niger-Kongo,Atlantic-Congo,Nigeria
Adyghe [ady],44.1,39.08,#312574,Northwest Caucasus,Ubykh-Circassian,Russia
Adyghe_Abzakh [ady-12],44.7,38.9,#28227B,Northwest Caucasus,Ubykh-Circassian,Russia
Adyghe_Besleney [ady-6],44.7,40.75,#2E1F77,Northwest Caucasus,Ubykh-Circassian,Russia
Adyghe_Black Sea Shapsugh [ady-2],44.375,38.4,#221385,Northwest Caucasus,Ubykh-Circassian,Abkhazia
Adyghe_Bzhedug [ady-7],45,39.3,#251D83,Northwest Caucasus,Ubykh-Circassian,Russia
Adyghe_Cherkess [ady-10],44.25,42.05,#312274,Northwest Caucasus,Ubykh-Circassian,Russia
Adyghe_Hakuchi [ady-9],44.88,38,#312274,Northwest Caucasus,Ubykh-Circassian,Russia
Adyghe_Natukai [ady-4],44.4,38.35,#2C157A,Northwest Caucasus,Ubykh-Circassian,Russia
Adyghe_Shapsugh [ady-3],44.3,39,#221385,Northwest Caucasus,Ubykh-Circassian,Russia
Adyghe_Temirgoy [ady-11],45.125,39.83,#322474,Northwest Caucasus,Ubykh-Circassian,Russia
Adyghe_Uzunyayla [ady-5],44.25,38.77,#312077,Northwest Caucasus,Ubykh-Circassian,Russia
Adynyamathanha [adt],-31,139.5,#F0709A,Pama-Nyungan,Thura-Yura,Australia
Adyukru [adj],5.38,-4.53,#76A3B2,Niger-Kongo,Atlantic-Congo,Ghana
Adzera [azr],-6.417,146.25,#899567,Oceanic,Western Oceanic,Papua New Guinea
Aeka [aez],-8.601,147.994,#70A768,Trans New Guinea,Oro-Wharton,Papua New Guinea
Afar [aar],11.85,42,#7F8950,Afro-Asiatic,Cushitic,Djibouti
Afitti [aft-2],12.44,31,#899D9A,Nilo-Saharan,Eastern Sudanic,Sudan
Afrikaans [afr],-33.9,18.5,#6DA186,Indo-European,Germanic,South Africa
Afshar [azj-2],37.475,57.33,#507484,Turkic,Common Turkic,Iran
Agabag [mvv-3],3.965,117.095,#AF9380,Malayo-Polynesian,North Borneo,Indonesia-Kalimantan
Agarabi [agd],-6.25,145.917,#8AB467,Trans New Guinea,Morobe-Eastern Highlands,Papua New Guinea
Agatu [agc],7.98,7.72,#5687B3,Niger-Kongo,Atlantic-Congo,Nigeria
Aghem [agq],6.39,10.12,#399ACE,Niger-Kongo,Atlantic-Congo,Cameroon
Aghu [ahh],-6.333,140,#55A554,Trans New Guinea,Awyu-Dumut,Indonesia-Papua
Aghu-Tharrnggala [gtu],-13.73,142.43,#D07FAB,Pama-Nyungan,Paman,Australia
Aghul_Huppuq’ [agx-6],41.836,47.6602,#2E5E78,Nakh-Daghestanian,Lezgic,Russia
Aglla [idu-3],6.8,7.95,#5A7AC7,Niger-Kongo,Atlantic-Congo,Nigeria
Agöb [kit],-9.09,142.53,#A09492,South New Guinea,East Morehead,Papua New Guinea
Agta [agt],17.967,121.833,#849761,Malayo-Polynesian,Philippines,Philippines
Aguaruna [agr],-5.25,-78,#8A8247,Jivaroan,Aguaruna,Peru
Aguatec [agu],15.4,-91.4,#4E6567,Mayan,Core Mayan,Guatemala
Agul [agx],41.78,47.59,#345F72,Nakh-Daghestanian,Lezgic,Russia
Agul_Burkixan [agx-2],41.78,47.6,#34537B,Nakh-Daghestanian,Lezgic,Russia
Agul_Burshag [agx-3],41.86,47.62,#384F77,Nakh-Daghestanian,Lezgic,Russia
Agul_Fite [agx-4],41.79,47.59,#315081,Nakh-Daghestanian,Lezgic,Russia
Agul_Richa [agx-5],41.78,47.61,#2F487D,Nakh-Daghestanian,Lezgic,Russia
Agusan [mbb-2],8.68,125.79,#A28F5C,Malayo-Polynesian,Philippines,Philippines
Agusan_Manobo [msm],8.63,125.74,#9F9364,Malayo-Polynesian,Philippines,Philippines
Agutaynen [agn],11.15,120.95,#B58062,Malayo-Polynesian,Philippines,Philippines
Agwamin [wmi],-16.986,143.001,#DF898D,Pama-Nyungan,Paman,Australia
Ahamb [ahb],-16.507,167.703,#739698,Oceanic,Southern Oceanic,Vanuatu
Ahan [ahn],7.44,6.01,#4E96A4,Niger-Kongo,Atlantic-Congo,Nigeria
Ahanta [aha],4.85,-1.95,#4D94A3,Niger-Kongo,Atlantic-Congo,Ghana
Ahi [yix],24.4,103.4,#2A88C3,Tibeto-Burman,Lolo-Burmese,China
Ahom [aho],25,95,#4DA3AC,Tai-Kadai,Kam-Tai,India
Ahtna [aht],62,-145,#386C6F,Dene-Yeniseic,Na-Dene,USA-Alaska
Ai-cham_Diwo [aih],25.8,107,#3694D0,Tai-Kadai,Kam-Tai,China
Aikaná [tba],-12.1,-60.6,#9DA47C,Aikaná,,Brazil
Aikaná_Masacá [tba-2],-12.7,-60.8,#A0A37B,Aikaná,,Brazil
Aimaq [aiq],35.28,59.18,#4B745E,Indo-European,Indo-Iranian,Iran
Ainu [ain],42.4,142.5,#729C55,Ainu,Hokkaido-Kuril,Japan
Ainu_Kuril [ain-2],46.5,151.5,#8A914A,Ainu,Hokkaido-Kuril,Japan
Ainu_Sakhalin [ain-3],47.975,142.2,#779F4F,Ainu,Sakhalin,Japan
Ainu_Saru [ain-4],42.88,142.4,#8A914A,Ainu,Hokkaido-Kuril,Japan
Air Tamajeq_Tayart [thz],16.92,7.67,#44508D,Afro-Asiatic,Berber,Mauritania
Airoran [air],-1.7,138.15,#828B48,Tor-Kwerba,West Foya Range,Indonesia-Papua
Aisi [mmq],-5.35,145.15,#9D9E60,Trans New Guinea,Madang,Papua New Guinea
Ait_Seghrouchen [tzm-2],33,-5,#5A4F5E,Afro-Asiatic,Berber,Morocco
Aita_Rotokas [roo-2],-6,155.08,#A7A253,North Bougainville,Rotokas,Papua New Guinea-Bougainville
Aiton [aio-2],24,94,#5BA6B8,Tai-Kadai,Kam-Tai,India
Aitutaki [rar-2],-18.872,-159.782,#A99C52,Oceanic,Central Pacific,Cook Islands
Aiwoo [nfl],-10.5,166.5,#8077A6,Oceanic,Te Motu,Solomons_East
Aizi [ahp],5.25,-4.5,#509AA4,Niger-Kongo,Atlantic-Congo,Côte d'Ivoire
Aja [ajg],7.06,1.66,#517DC9,Niger-Kongo,Atlantic-Congo,Benin
Ajagbe [ajg-2],7.08,1.64,#597E99,Niger-Kongo,Atlantic-Congo,Benin
Ajumbu [muc-2],6.55,10.27,#3B98C2,Niger-Kongo,Atlantic-Congo,Cameroon
Aka [axk],3.46,15.73,#30A39F,Ubangian,,Central African Republic
Aka [hru-2],27.2,92.9,#346CA1,Tibeto-Burman,Hrusish,India
Akabea [abj-2],12.38,92.78,#D1859A,Andaman,,India_Andaman-Nicobars
Akan [aka],6.5,-1.25,#349580,Niger-Kongo,Atlantic-Congo,Ghana
Akaselem [aks],8.89,1.37,#62A3AC,Niger-Kongo,Atlantic-Congo,Togo
Akawaio [ake],6,-59.5,#889B50,Cariban,Venezuelan,Guyana
Ake [aik],8.6,8.76,#3EA2A5,Niger-Kongo,Atlantic-Congo,Nigeria
Akei [tsr],-15.49,166.75,#98924F,Oceanic,Southern Oceanic,Vanuatu
Akha [ahk],20.3,99.6,#369D92,Tibeto-Burman,Lolo-Burmese,Thailand
Akha_Akhe [ahk-8],21.916,100.465,#3692C4,Tibeto-Burman,Lolo-Burmese,Thailand
Akha_Buli [ahk-4],21.2,101.15,#3B95C0,Tibeto-Burman,Lolo-Burmese,Laos
Akha_Chicho [ahk-2],20.92,101.4,#3B96CD,Tibeto-Burman,Lolo-Burmese,Laos
Akha_Senchai [ahk-3],26.9,99,#3193B4,Tibeto-Burman,Lolo-Burmese,Myanmar
Akhvakh [akv],42.379,46.384,#181D74,Nakh-Daghestanian,Avar-Andi,Russia
Akie [oki],-5.43,37.19,#7CA4B4,Nilo-Saharan,Eastern Sudanic,Kenya
Aklanon [akl],11.58,122.33,#8F885B,Malayo-Polynesian,Philippines,Philippines
Akosse [bss],5,9.7,#46A497,Niger-Kongo,Atlantic-Congo,Cameroon
Akoye [miw-2],-7.645,145.65,#5FB86B,Trans New Guinea,Morobe-Eastern Highlands,Papua New Guinea
Akpes [ibe],7.5,5.96,#479894,Niger-Kongo,Atlantic-Congo,Nigeria
Akuntsu [aqz],-12.74,-60.8,#B49659,Tupian,Tupari,Brazil
Akurio [ako],3.0132,-55.6434,#A4984E,Cariban,Guianan Carib,Suriname
Akwa [akw],-0.005,15.612,#43A6A6,Niger-Kongo,Atlantic-Congo,Congo
Akweya [akf],7.33,8.02,#7977CC,Niger-Kongo,Atlantic-Congo,Nigeria
Akye-Gnan [ati-2],5.48,-4.09,#1FA6AD,Niger-Kongo,Atlantic-Congo,Côte d'Ivoire
Alaaba [alw],7.31,38.09,#447F78,Afro-Asiatic,Cushitic,Ethiopia
Alaala [nrz],-9,146.667,#A09E66,Oceanic,Western Oceanic,Papua New Guinea
Alaba-K'abeena [alw-2],7.39,38.17,#448891,Afro-Asiatic,Cushitic,Ethiopia
Alabama [akz],32.7,-86.1,#6A8C4E,Muskogean,Alabama-Koasati,USA
Alacalufe_Central [alc-2],-53.528,-70.9573,#66844A,Alaculufan,,Chile
Alacalufe_Southern [alc-3],-55.2,-69.4,#687C56,Alaculufan,,Chile
Alagwa [wbj],-4.64,35.72,#5B4780,Afro-Asiatic,Cushitic,Tanzania
Alamblak [amp],-4.667,143.25,#70914C,Sepik,Sepik Hill,Papua New Guinea
Alangan-Mangyan [alj],13.1,121.02,#A38F5D,Malayo-Polynesian,Philippines,Philippines
Alas_Batak [btz],2.64,98,#8B9A78,Malayo-Polynesian,Batak-Barrier Islands,Indonesia-Sumatra
Alawa [alh],-15.75,134.333,#E87A9A,Macro-Gunwinygu,Marran,Australia
Albanian_Cham [als-4],39.6,20.8,#537BA5,Indo-European,Albanian,Greece
Albanian_Gheg [aln-2],42.43,20.73,#448B96,Indo-European,Albanian,Albania
Albanian_Gheg_Kosovo [aln],42.58,21,#497E70,Indo-European,Albanian,Kosovo
Albanian_Lab [als-5],40.17,19.83,#4D81A9,Indo-European,Albanian,Albania
Albanian_Mandritsa [aln-5],41.38,26.13,#5683AB,Indo-European,Albanian,Bulgaria
Albanian_Tosk [als],40.5,20,#487CB1,Indo-European,Albanian,Albania
Albanian_Upper_Reka [aln-4],41.72,20.57,#487998,Indo-European,Albanian,Montenegro
Albanian_Vaccarizzo [als-6],39.58,16.43,#556AB1,Indo-European,Albanian,Italy
Albese [ita-14],44.7,8.04,#689AAD,Indo-European,Romance,Italy
Ale [gwd],5.38,37.27,#566D5B,Afro-Asiatic,Cushitic,Ethiopia
Alekano [gah-2],-6,145.4,#57A25E,Trans New Guinea,Morobe-Eastern Highlands,Papua New Guinea
Aleut [ale],54,-166,#674E89,Eskimo-Aleut,Aleut,USA-Alaska
Aleut_Atkan [ale-2],52,-174,#664C7F,Eskimo-Aleut,Aleut,USA-Alaska
Aleut_Attuan [ale-3],52.85,172.9,#6A4A84,Eskimo-Aleut,Aleut,USA-Alaska
Aleut_Eastern [ale-4],54.75,-164,#684B7F,Eskimo-Aleut,Aleut,USA-Alaska
Aleut_Unangas [ale-5],55.3,166,#A65872,Eskimo-Aleut,Aleut,USA-Alaska
Algherese [cat-3],40.55,8.32,#7B83AB,Indo-European,Romance,Italy-Sardinia
Algonquin [alq],46,-82,#598D4A,Algic,Algonquian,Canada
Ali [ykm],-3.17,142.25,#BC8B6E,Oceanic,Western Oceanic,Papua New Guinea
Alladian [ald],5.17,-4.33,#3D929B,Niger-Kongo,Atlantic-Congo,Côte d'Ivoire
Allentiac [qbt],-32,-66,#80785C,Huarpe,,Argentina
Alngith [aid],-12.5,142.17,#CC74A7,Pama-Nyungan,Paman,Australia
Alo-Teqel [tql-2],-13.8,167.47,#A18F6C,Oceanic,Southern Oceanic,Vanuatu
Alor [aol],-8.245,124.412,#8C935F,Malayo-Polynesian,Timoric,Indonesia-NTT
Alsatian [gsw-2],48.32,7.44,#4C8A99,Indo-European,Germanic,France
Alsea [aes],44.67,-123.93,#3B3078,Alsean,,USA
Altai [alt],51,87,#566D8F,Turkic,Common Turkic,Russia
Altai_Kumandy [atv],51.3,87.7,#609A7F,Turkic,Common Turkic,Russia
Alumbis_Murut [mvv],4.799,115.496,#A88F62,Malayo-Polynesian,North Borneo,Malaysia-Borneo
Alune [alp],-3.167,128.333,#7D8F45,Malayo-Polynesian,Central Maluku,Indonesia-Maluku-north
Alur [alz],2.5,31.25,#5795B6,Nilo-Saharan,Eastern Sudanic,Uganda
Alutiiq [ems],58.015,-152.765,#634273,Eskimo-Aleut,Eskimo,USA-Alaska
Alyawarr [aly],-24.6,134.5,#F367A9,Pama-Nyungan,Arandic,Australia
Alyutor [alr],61,165,#BC6473,Chukotko-Kamchatkan,Main Chukotko-Kamchatkan,Russia
Ama [amm],-4.168,141.671,#58AC6F,Left May,,Papua New Guinea
Amahai_Soahuku [amq],-3.332,128.949,#A69154,Malayo-Polynesian,Central Maluku,Indonesia-Maluku-north
Amahuaca [amc],-10.8,-73.5,#5B8550,Panoan,Southern Panoan,Peru
Amaimon [ali],-5.193,145.325,#A09162,Trans New Guinea,Madang,Papua New Guinea
Amam [wer-2],-7.85,146.95,#A39D55,Trans New Guinea,Oro-Wharton,Papua New Guinea
Amami_Ryukyu [ams],28,129,#408D94,Japonic,Ryukyuan,Japan-Ryukyu
Amanab [amn],-3.5,141.167,#8CA563,Trans New Guinea,Border,Papua New Guinea
Amanuban [aoz-2],-9.82,124.47,#7E9444,Malayo-Polynesian,Timoric,Indonesia-NTT
Amanutun [aoz-4],-9.69,124.83,#82884D,Malayo-Polynesian,Timoric,Indonesia-NTT
Amara [aie],-5.533,148.667,#ADA073,Oceanic,Western Oceanic,Papua New Guinea-Bismarcks
Amarakaeri [amr-2],-12.6938,-70.3235,#8D9757,Harakmbet,Harakmbut,Peru
Amarasi [aaz],-10.08,124.33,#7F8F49,Malayo-Polynesian,Timoric,Indonesia-NTT
Amba_Nembao [utp-2],-11.27,166.48,#739570,Oceanic,Te Motu,Solomons_East
Ambae_West [omb],-15.5,167.75,#9E8D63,Oceanic,Southern Oceanic,Vanuatu
Ambai [amk],-1.917,136.533,#7A9A4A,Malayo-Polynesian,Eastern Malayo-Polynesian,Indonesia-Papua
Ambel [xmt-2],-0.05,130.7,#7FA36C,Malayo-Polynesian,Eastern Malayo-Polynesian,Indonesia-Papua
Ambelau [mhs-4],-3.89,127.205,#7EA584,Malayo-Polynesian,Central Maluku,Indonesia-Maluku-north
Ambele [ael],5.94,9.62,#479BB1,Niger-Kongo,Atlantic-Congo,Cameroon
Amblong [alm],-15.497,166.926,#869855,Oceanic,Southern Oceanic,Vanuatu
Ambonese Malay [abs],-3.7,128.2,#AC9080,Malayo-Polynesian,Malayo-Sumbawan,Indonesia-Maluku-north
Ambrym_Southeast [tvk-2],-16.33,168.08,#7D9A63,Oceanic,Southern Oceanic,Vanuatu
Ambulas [abt],-3.75,143.083,#A49A7F,Ndu,Nuclear Ndu,Papua New Guinea
Amdo [adx],36,94,#5B6DB8,Tibeto-Burman,Bodic,China
Ameland [frs-3],53.45,5.77,#4B9E86,Indo-European,Germanic,Netherlands
Amele_Haija [aey],-5.25,145.75,#6D9948,Trans New Guinea,Madang,Papua New Guinea
Amele_Huar [aey-3],-5.287,145.718,#83994D,Trans New Guinea,Madang,Papua New Guinea
Amele_Jagahala [aey-2],-5.264,145.642,#799848,Trans New Guinea,Madang,Papua New Guinea
Amfo'an [aoz-3],-9.45,123.9,#6F8945,Malayo-Polynesian,Timoric,Indonesia-NTT
Amharic [amh],10,38,#4E7877,Afro-Asiatic,Semitic,Ethiopia
Ami [amy],-14,130,#DB8979,Western Daly,Maranunggu-Ame-Manda,Australia
Amis [ami],23.333,121.333,#907055,Austronesian,East Formosan,Taiwan
Amo [amo],10.33,8.67,#4C989C,Niger-Kongo,Atlantic-Congo,Nigeria
Amonap / Apalakiri / Matipu [mzo],-12.05,-53.4,#8B8C62,Cariban,Nahukwa,Brazil
Amoy [nan],24.5,118,#2CB087,Tibeto-Burman,Sinitic,China
Ampale [apz],-6.753,146.107,#5EA28D,Trans New Guinea,Morobe-Eastern Highlands,Papua New Guinea
Ampibabo [law-2],-0.46,120.06,#B48E6B,Malayo-Polynesian,Celebic,Indonesia-Sulawesi
Amu [swh-9],-2.27,40.9,#616CA3,Niger-Kongo,Atlantic-Congo,Tanzania
Amuesha [ame],-10,-73,#804F89,Arawak,Western Maipuran,Peru
Amundava [adw],-10.9942,-63.0642,#9A9D57,Tupian,Tupi-Guarani,Brazil
Amurdak [amg],-12.022,132.892,#FC7396,Iwaidjan,Amurdak,Australia
Amuzgo [amu],16.83,-98,#3B97BD,Otomanguean,Eastern Otomanguean,Mexico
Amuzgo_Huixtepec [amu-2],16.5,-98.1,#4B926A,Otomanguean,Eastern Otomanguean,Mexico
Amuzgo_San_Pedro [azg],16.85,-98,#4AA174,Otomanguean,Eastern Otomanguean,Mexico
Amuzgo_Xochistlahuaca [amu-3],16.79,-98.24,#4991B4,Otomanguean,Eastern Otomanguean,Mexico
Amwi [aml],25.209,92.068,#4B9CA2,Austroasiatic,Khasi-Palaung,India
Anaguta [nar],9.964,8.731,#5B8DA5,Niger-Kongo,Atlantic-Congo,Nigeria
Anakalang [akg],-9.67,119.67,#9E977B,Malayo-Polynesian,Flores-Sawu-Sumba,Indonesia-NTT
Anal [anm],24.33,93.99,#5A82BD,Tibeto-Burman,Kuki-Chin-Naga,India
Anamuxra [imi],-4.667,145,#738648,Trans New Guinea,Madang,Papua New Guinea
Andalusian [spa-4],37.5,-3.6,#6E9C5D,Indo-European,Romance,Spain
Andi [ani],42.79,46.27,#31597F,Nakh-Daghestanian,Avar-Andi,Russia
Andi_Tad-Magitil [ani-2],42.75,46.25,#2F5D7C,Nakh-Daghestanian,Avar-Andi,Russia
Andoa [anb],-2.9,-76.4051,#7C6362,Zaparoan,Iquito-Arabela,Peru
Andoké [ano],0,-72,#46AB58,Andoké,,Colombia
Anejom [aty],-20.25,169.833,#82749B,Oceanic,Southern Oceanic,Vanuatu
Anem [anz],-5.667,149,#9BA37D,Anem,,Papua New Guinea-Bismarcks
Aneme_Wake [aby],-9.733,148.52,#78A540,Southeast Papuan,Owen Stanley Ranges,Papua New Guinea
Anfillo [myo],8.57,34.65,#528162,Afro-Asiatic,Omotic,Ethiopia
Anfu [gan-21],27.38,114.62,#3AA8C8,Tibeto-Burman,Sinitic,China
Angaatiha [agm],-7.22,146.25,#BA9970,Trans New Guinea,Morobe-Eastern Highlands,Papua New Guinea
Angal [age],-6,143.6,#769D61,Trans New Guinea,Engan,Papua New Guinea
Angal_Heneng [akh],-6.13,143.42,#80A85B,Trans New Guinea,Engan,Papua New Guinea
Angali [pes-2],29.75,50.96,#4A6C72,Indo-European,Indo-Iranian,Iran
Angami [njm],25.667,94.5,#596CC9,Tibeto-Burman,Kuki-Chin-Naga,India
Angas [anc],9.75,8.75,#3D8BAB,Afro-Asiatic,Chadic,Nigeria
Anggor [agg],-3.667,141.167,#6DA160,Trans New Guinea,Border,Papua New Guinea
Anggreso [kwe-2],-2.17,138.25,#928B4A,Tor-Kwerba,West Foya Range,Indonesia-Papua
Angkamuthi [avm],-11.5,142.25,#CC7B9A,Pama-Nyungan,Paman,Australia
Angkola_Batak [akb],1.518,99.531,#AF9174,Malayo-Polynesian,Batak-Barrier Islands,Indonesia-Sumatra
Anguthimri [awg],-12.333,141.833,#AF80BA,Pama-Nyungan,Paman,Australia
Ani_Phowa [ypn],23.6,103.3,#1877B7,Tibeto-Burman,Lolo-Burmese,China
Anib [kni],9.55,8.6,#319EA6,Niger-Kongo,Atlantic-Congo,Nigeria
Anii [blo],9.003,1.669,#5799C0,Niger-Kongo,Atlantic-Congo,Benin
Anindilyagwa [aoi],-14,136.5,#EC62A7,Macro-Gunwinygu,East Arnhem,Australia
Anindilyagwa_East [aoi-2],-13.86,136.81,#E06BAF,Macro-Gunwinygu,East Arnhem,Australia
Aniwa [fut-2],-19.256,169.6,#959F4E,Oceanic,Central Pacific,Vanuatu
Anjam [boj],-5.441,145.737,#AC8E85,Trans New Guinea,Madang,Papua New Guinea
Ankave [aak],-7.137,145.744,#A49A53,Trans New Guinea,Morobe-Eastern Highlands,Papua New Guinea
Anlong [pcc-6],25.1,105.44,#477FC9,Tai-Kadai,Kam-Tai,China
Anmatyerr_East [amx],-22.256,131.5,#FA74A0,Pama-Nyungan,Arandic,Australia
Anmatyerr_West [amx-2],-21,135,#FF6B8F,Pama-Nyungan,Arandic,Australia
Anong [nun],27.2,98.8,#4D7DDF,Tibeto-Burman,Nungish,China
Ansus [and],-1.73,135.806,#879C49,Malayo-Polynesian,Eastern Malayo-Polynesian,Indonesia-Papua
Anta [tci-3],-8.65,141.52,#699465,South New Guinea,East Morehead,Indonesia-Papua
Antakarinya [ant],-27.11,134.85,#F77A8A,Pama-Nyungan,Wati,Australia
Antakirinya [ant-2],-27.13,134.83,#F3788B,Pama-Nyungan,Wati,Australia
Antekerrepinhe [adg],-22.52,137.34,#EE6CB0,Pama-Nyungan,Arandic,Australia
Antioquian [xxx-107],7,-73,#7D9D4F,Chibchan,Core Chibchan,Colombia
Antwerps [nld-2],51.22,4.4,#4A8B95,Indo-European,Germanic,Belgium
Añú [pbg],11,-71.62,#8A9A50,Arawak,Northern Maipuran,Venezuela
Anuak [anu],7.18,34.097,#B19B99,Nilo-Saharan,Eastern Sudanic,South Sudan
Anufo [cko],10.218,0.33,#66A6A2,Niger-Kongo,Atlantic-Congo,Ghana
Anus [auq],-2.13,139.51,#89A159,Oceanic,Western Oceanic,Indonesia-Papua
Anuta [aud],-11.611,169.85,#9CA34D,Oceanic,Central Pacific,Solomons_East
Anyi [gan-18],28.84,115.6,#44A2C0,Tibeto-Burman,Sinitic,China
Anyin [any],5.9,-2.9,#47A76D,Niger-Kongo,Atlantic-Congo,Côte d'Ivoire
Anywa [anu-2],7.3,33,#B099AD,Nilo-Saharan,Eastern Sudanic,South Sudan
Aoheng [pni],1.025,114.175,#9EA172,Malayo-Polynesian,North Borneo,Indonesia-Kalimantan
Aore [aor],-15.577,167.181,#9F986C,Oceanic,Southern Oceanic,Vanuatu
Apache_Western [apw],33.9,-109.55,#276973,Dene-Yeniseic,Na-Dene,USA
Apalachee [xap],30.04,-84.17,#868147,Muskogean,Alabama-Koasati,USA
Apalai [apy],0,-54,#7A9546,Cariban,Apalai,Brazil
Apali [ena],-5.088,145.017,#7C8D5C,Trans New Guinea,Madang,Papua New Guinea
Apatani [apt],27.4,93.8,#63A0B0,Tibeto-Burman,Macro-Tani,India
Apiaká [api],-7.9484,-57.7365,#999F57,Tupian,Tupi-Guarani,Brazil
Apinaye [apn],-6.25,-48,#6DA991,Macro-Je,Je,Brazil
Apma [app],-15.775,168.158,#78986C,Oceanic,Southern Oceanic,Vanuatu
Apma_Suru Kavian [app-2],-15.61,168.14,#739878,Oceanic,Southern Oceanic,Vanuatu
Apurinã [apu],-7.26,-64.8,#87904F,Arawak,Southern Maipuran,Brazil
Apurinã-2 [apu-2],-5.63,-63.17,#8C8853,Arawak,Southern Maipuran,Brazil
Aputai [apx],-7.888,126.505,#86914D,Malayo-Polynesian,Timoric,Indonesia-NTT
Arabana [ard],-28,137,#FB719A,Pama-Nyungan,Karnic,Australia
Arabela [arl],-2,-75.17,#788F4B,Zaparoan,Iquito-Arabela,Peru
Arabic [arb],29.5,42.5,#5E4F5A,Afro-Asiatic,Semitic,Saudi Arabia
Arabic_Abéché [ayl-4],13.83,20.83,#5C4888,Afro-Asiatic,Semitic,Chad
Arabic_Abha [acw-2],18.22,42.51,#486158,Afro-Asiatic,Semitic,Saudi Arabia
Arabic_Afghanistan [acm-3],36.7,67.12,#646953,Afro-Asiatic,Semitic,Afghanistan
Arabic_Algerian [arq],36.7,3.1,#956658,Afro-Asiatic,Semitic,Algeria
Arabic_Andalusian [xaa],35.767,-5.8,#534F68,Afro-Asiatic,Semitic,Spain
Arabic_Attuwair [acw-3],29.9,40.1,#594471,Afro-Asiatic,Semitic,Saudi Arabia
Arabic_Baghdad [acm-4],33.33,44.38,#5A5C52,Afro-Asiatic,Semitic,Iran
Arabic_Bareqi [acw-7],18.93,41.94,#605555,Afro-Asiatic,Semitic,Saudi Arabia
Arabic_Basra [acm],30.5,47.825,#4A486C,Afro-Asiatic,Semitic,Iraq
Arabic_Bedouin_Sinai_Ǧbāliyyah [avl-2],28.557,33.943,#45605B,Afro-Asiatic,Semitic,Egypt
Arabic_Bedouin_Sinai_Mzēnah [avl],28.135,34.1,#455E5B,Afro-Asiatic,Semitic,Egypt
Arabic_Bedouin_Sinai_Taṛābīn [avl-3],31,34.2,#46625A,Afro-Asiatic,Semitic,Egypt
Arabic_Bukhara [abh],39.76,64.42,#5E635B,Afro-Asiatic,Semitic,Uzbekistan
Arabic_Chad [shu-3],14,19,#5E6E67,Afro-Asiatic,Semitic,Chad
Arabic_Chowa [shu-4],12.5,14.5,#5E735F,Afro-Asiatic,Semitic,Nigeria
Arabic_Coastal-Dhofari [acx],20.7,58.2,#4B6356,Afro-Asiatic,Semitic,Oman
Arabic_Cypriot [acy],34.343,33.011,#506E62,Afro-Asiatic,Semitic,Cyprus
Arabic_Egyptian [arz],30,30,#4D6D55,Afro-Asiatic,Semitic,Egypt
Arabic_Faifa [jye-3],17.25,43.1,#4D5A62,Afro-Asiatic,Semitic,Yemen
Arabic_Fezzan [ayl-3],26.33,13.43,#643E6A,Afro-Asiatic,Semitic,Libya
Arabic_Gulf [afb],24,54,#485963,Afro-Asiatic,Semitic,United Arab Emirates
Arabic_Hadhrami_coast [jye-5],14.95,50.34,#635F52,Afro-Asiatic,Semitic,Yemen
Arabic_Hadhrami_wadi [jye-6],16.05,49,#5E5D53,Afro-Asiatic,Semitic,Yemen
Arabic_Harb [acw],25.81,42.87,#375D6C,Afro-Asiatic,Semitic,Saudi Arabia
Arabic_Hassaniya [mey],16.6,-7.25,#654C71,Afro-Asiatic,Semitic,Mauritania
Arabic_Hejazi [acw-4],21.543,41.173,#44675A,Afro-Asiatic,Semitic,Saudi Arabia
Arabic_Hejazi_Al'Ula [acw-5],26.627,37.917,#476957,Afro-Asiatic,Semitic,Saudi Arabia
Arabic_Hejazi_Badr [acw-8],23.78,38.79,#506B57,Afro-Asiatic,Semitic,Saudi Arabia
Arabic_Ilbahariyya [arz-2],28.35,28.93,#575B54,Afro-Asiatic,Semitic,Egypt
Arabic_Jijel [ary-3],36.821,5.75,#996857,Afro-Asiatic,Semitic,Algeria
Arabic_Jordanian [ajp-5],32,36,#3C5E5D,Afro-Asiatic,Semitic,Jordan
Arabic_Judeo-Tunisian [ajt],33.87,10.85,#51506E,Afro-Asiatic,Semitic,Tunisia
Arabic_Khawetna [arb-3],36.42,41.225,#554A6C,Afro-Asiatic,Semitic,Turkey
Arabic_Khuzestan [acm-2],31.33,48.69,#4A5D5F,Afro-Asiatic,Semitic,Iran
Arabic_Lebanese [apc-2],33.883,35.502,#7F8A4D,Afro-Asiatic,Semitic,Lebanon
Arabic_Levantine_al-Karak [ajp-10],31.2,35.7,#4A6C5B,Afro-Asiatic,Semitic,Jordan
Arabic_Levantine_Amman [ajp-9],31.9,35.9,#4A6C5B,Afro-Asiatic,Semitic,Jordan
Arabic_Levantine_Homs [ajp-7],34.7,36.7,#4D6C58,Afro-Asiatic,Semitic,Syria
Arabic_Levantine_Jerusalem [ajp-8],31.8,35.2,#517354,Afro-Asiatic,Semitic,Israel
Arabic_Levantine_Northern_coast [ajp-11],34.9,35.9,#5C7251,Afro-Asiatic,Semitic,Syria
Arabic_Levantine_Northern_inland [ajp-12],33.1,35.7,#536E56,Afro-Asiatic,Semitic,Syria
Arabic_Levantine_Outer-south [ajp-14],31.3,34.6,#646F53,Afro-Asiatic,Semitic,Israel
Arabic_Levantine_Southern [ajp-13],31.7,34.9,#636257,Afro-Asiatic,Semitic,Israel
Arabic_Libyan [ayl],32,20.25,#3B5E60,Afro-Asiatic,Semitic,Libya
Arabic_Libyan_Western [ayl-2],32.5,13,#535B58,Afro-Asiatic,Semitic,Libya
Arabic_Mardin [apc-3],37.363,40.91,#455B63,Afro-Asiatic,Semitic,Turkey
Arabic_Mauritanian [ary-2],20.92,-11.62,#9F587B,Afro-Asiatic,Semitic,Mauritania
Arabic_Mesopotamian [acm-5],33,44,#555953,Afro-Asiatic,Semitic,Israel
Arabic_Moroccan [ary],34,-7,#624C5C,Afro-Asiatic,Semitic,Morocco
Arabic_Muscat [acx-2],23.63,58.55,#485659,Afro-Asiatic,Semitic,Oman
Arabic_Najdi [acw-6],23,45.5,#526156,Afro-Asiatic,Semitic,Saudi Arabia
Arabic_Negev [ajp-15],31.386,34.758,#50515E,Afro-Asiatic,Semitic,Syria
Arabic_Omani [acx-3],23.589,58.556,#416964,Afro-Asiatic,Semitic,Oman
Arabic_Omani_Shawawi [acx-4],22.92,57.79,#54625A,Afro-Asiatic,Semitic,Syria
Arabic_Oran [arq-2],35.7,-0.63,#545561,Afro-Asiatic,Semitic,Algeria
Arabic_Palestinian_Urban [ajp-3],31.52,34.45,#4A6960,Afro-Asiatic,Semitic,Palestine
Arabic_Qatari [afb-3],25.3,51.52,#515567,Afro-Asiatic,Semitic,Qatar
Arabic_Sa'idi [aec],25,32.75,#70604D,Afro-Asiatic,Semitic,Egypt
Arabic_Sason [arb-2],38.333,41.42,#525E74,Afro-Asiatic,Semitic,Turkey
Arabic_Saudi [ars],24.48,40,#4B6656,Afro-Asiatic,Semitic,Saudi Arabia
Arabic_Sudanese [apd-2],15.5,32.56,#3C6667,Afro-Asiatic,Semitic,Sudan
Arabic_Syrian [apc],33,37,#4C506F,Afro-Asiatic,Semitic,Syria
Arabic_Ta'izzi_Adeni [acq],11.502,43,#754F56,Afro-Asiatic,Semitic,Djibouti
Arabic_Tillo [arb-4],37.95,42.013,#4C457E,Afro-Asiatic,Semitic,Turkey
Arabic_Traras-Msirda [ary-4],35.18,-1.65,#976D54,Afro-Asiatic,Semitic,Algeria
Arabic_Tunisian [aeb],36,10,#4A4B6F,Afro-Asiatic,Semitic,Tunisia
Arabic_Wadi Mousa [ajp-2],30.32,35.48,#536D53,Afro-Asiatic,Semitic,Jordan
Arabic_Yemeni [jye-2],14,47,#6F5251,Afro-Asiatic,Semitic,Yemen
Arabic_Yemeni_Hadhrami [ayh],16.67,49.5,#655C50,Afro-Asiatic,Semitic,Yemen
Arabic_Yemeni_Tihamiyya [arb-6],13.083,43.833,#7B544E,Afro-Asiatic,Semitic,Yemen
Arabic_Yemeni_Zabidi [acq-2],14.2,43.317,#635654,Afro-Asiatic,Semitic,Yemen
Arabic; North Israel Bedouin [ajp-4],32.83,35.33,#3B4979,Afro-Asiatic,Semitic,Israel
Aragonese [arg],41,-1,#9D8360,Indo-European,Romance,Spain
Araki [akr],-15.629,166.957,#AC9163,Oceanic,Southern Oceanic,Vanuatu
Arakmbut [hug],-13.27,-71.21,#A6A45C,Harakmbet,Harakmbut,Peru
Aralle-Tabulahan [atq],-2.756,119.203,#989957,Malayo-Polynesian,Greater South Sulawesi,Indonesia-Sulawesi
Arammba [stk],-8.25,141.5,#489B8E,South New Guinea,East Morehead,Papua New Guinea
Arandai [jbj],-2.17,133,#829653,Trans New Guinea,South Birds Head,Indonesia-Papua
Aranese [oci-4],42.7,0.795,#497C8A,Indo-European,Romance,Spain
Araona [aro],-12.333,-67.75,#687F4D,Tacanan,Takanik-Chamik,Bolivia
Arapaho [arp],39.565,-105.345,#54903E,Algic,Algonquian,USA
Arapesh_Muhiang [aoj],-3.564,142.9,#6E7B4E,Torricelli,Kombio-Arapesh,Papua New Guinea
Arara_do_Acre [adc],-8.841,-72.315,#6B8E49,Panoan,Southern Panoan,Brazil
Arara_do_Mato_Grosso [axg],-9.5,-60,#639E7F,Arara_do_Mato_Grosso,,Brazil
Arara_do_Para [aap-2],-4.24,-53.34,#C39764,Cariban,Pekodian,Brazil
Arára_Pará [aap],-4.2422,-53.3745,#C19262,Cariban,Pekodian,Brazil
Araucanian lg [arn-2],-43,-73.5,#B87795,Araucanian,,Chile
Arawak [arw],5.64,-56.92,#829B55,Arawak,Northern Maipuran,Guyana
Araweté [awt],-4.142017,-52.416914,#8E9648,Tupian,Tupi-Guarani,Brazil
Arbanasi [aln-3],44.11,15.23,#418F90,Indo-European,Albanian,Croatia
Arbëresh [als-2],37.995,13.283,#4363A4,Indo-European,Albanian,Italy
Arbëresh Kundisa [als-10],37.73,13.18,#4F6397,Indo-European,Albanian,Italy
Arbëresh_Pianese [als-8],37.8,12.8,#50649C,Indo-European,Albanian,Italy
Arbore [arv],4.92,36.8,#448B99,Afro-Asiatic,Cushitic,Ethiopia
Archi [aqc],42.07,46.86,#24377D,Nakh-Daghestanian,Lezgic,Russia
Arctic Bay_Inuit [ikt],73.036,-85.15,#94784B,Eskimo-Aleut,Eskimo,Canada
Are [mwc],-9.67,150,#89904B,Oceanic,Western Oceanic,Papua New Guinea
Are'are [alu],-9.342,161.203,#8F9746,Oceanic,Southeast Solomonic,Solomons
Arem [aem],18.15,105.5,#3D94CE,Austroasiatic,Vietic,Laos
Argobba [agj],10.66,39.76,#457575,Afro-Asiatic,Semitic,Ethiopia
Arguni [agf],-2.667,132.5,#999698,Malayo-Polynesian,Eastern Malayo-Polynesian,Indonesia-Papua
Ari [aac],-7.916,142.34,#87A34E,Papuan Gulf,Gogodala-Suki,Papua New Guinea
Aribwatsa [laz],-6.667,146.917,#888F61,Oceanic,Western Oceanic,Papua New Guinea
Aribwaungg [ylu],-6.592,146.874,#498586,Oceanic,Western Oceanic,Papua New Guinea
Arifama-Miniafia [aai],-9.142,149.279,#7E9F44,Oceanic,Western Oceanic,Papua New Guinea
Arikapu [ark],-13,-62.5,#7B9E55,Macro-Je,Jabutí,Brazil
Arikara [ari],40,-97,#708C3C,Caddoan,Northern Caddoan,USA
Aringa [luc],3,31,#479DB8,Nilo-Saharan,Central Sudanic,Uganda
Aritinngithigh [rrt],-13,141.67,#D68294,Pama-Nyungan,Paman,Australia
Arizona Tewa [tew],35.8,-110.4,#3D9473,Kiowa-Tanoan,Tewa,USA
Armenian [hye],40,45,#406C71,Indo-European,Armenian,Armenia
Armenian_Agulis [hye-2],38.95,45.98,#3B6E71,Indo-European,Armenian,Azerbaijan
Armenian_Aslanberg [hyw-7],41.2,30.5,#3D7C66,Indo-European,Armenian,Turkey
Armenian_Karabakh [hye-4],39.76,46.75,#306B88,Indo-European,Armenian,Azerbaijan
Armenian_Karin [hye-5],40.79,43.85,#3C7571,Indo-European,Armenian,Azerbaijan
Armenian_Kharpert [hyw-6],38.67,39.22,#3B6E71,Indo-European,Armenian,Armenia
Armenian_Khodorjur [hyw-3],40.73,41.2,#357870,Indo-European,Armenian,Turkey
Armenian_Malatya [hyw-5],38.35,38.3,#37826B,Indo-European,Armenian,Turkey
Armenian_Sebastia [hyw-4],39.75,37.02,#387573,Indo-European,Armenian,Armenia
Armenian_Van [hyw-8],38.49,43.38,#467066,Indo-European,Armenian,Turkey
Armenian_Western [hyw],40,40,#37836C,Indo-European,Armenian,Turkey
Armenian_Yerevan [hye-3],40.18,44.52,#39736C,Indo-European,Armenian,Armenia
Aromanian [rup],42,23,#407B68,Indo-European,Romance,Bulgaria
Aromanian-2 [rup-2],39.77,21.1,#4E7798,Indo-European,Romance,Greece
Arop-Lokep [apr],-5.333,147.083,#9F9F67,Oceanic,Western Oceanic,Papua New Guinea
Arosi [aia],-10.333,161.5,#94905C,Oceanic,Southeast Solomonic,Solomons
Arpitan [frp-3],45.17,5.72,#598AA4,Indo-European,Romance,France
Arrernte_Central [are],-22.85,133.7,#F8639C,Pama-Nyungan,Arandic,Australia
Arrernte_Eastern [are-2],-23.292,134.445,#F271AE,Pama-Nyungan,Arandic,Australia
Arrernte_Mparntwe [aer],-24,136,#F16AA5,Pama-Nyungan,Arandic,Australia
Arrernte_Pertame [xxx-57],-24.5,132,#F570AE,Pama-Nyungan,Arandic,Australia
Arta [atz],16.42,121.66,#A28A64,Malayo-Polynesian,Philippines,Philippines
Arutani [atx],4.06,-62.88,#839146,Arutani–Sape,,Brazil
Arvanitika [als-3],38.42,23.08,#4F7CAB,Indo-European,Albanian,Greece
As [asz],-0.722,131.787,#839B58,Malayo-Polynesian,Eastern Malayo-Polynesian,Indonesia-Papua
Asaro_Upper [aso],-5.967,145.292,#56975E,Trans New Guinea,Morobe-Eastern Highlands,Papua New Guinea
Asharon [acz],10.8,30.3,#AD89A7,Talodi-Heiban,Talodi,Sudan
Ashe [ahs],9.37,7.39,#4F9BA5,Niger-Kongo,Atlantic-Congo,Nigeria
Asheninka_Apurucayali [cpc],-10.018,-74.793,#977A54,Arawak,Southern Maipuran,Peru
Ashéninka_Perené [prq],-10.8734,-75.245,#8E7B57,Arawak,Southern Maipuran,Peru
Ashéninka_Pichis [cpu],-9.9833,-74.9833,#976E6A,Arawak,Southern Maipuran,Peru
Ashéninka_Ucayali-Yurúa [cpb],-10.1619,-74.0234,#6A646A,Arawak,Southern Maipuran,Brazil
Ashkun [ask],34.84,70.37,#B8798E,Indo-European,Indo-Iranian,Afghanistan
Asho [csh-3],22.91,93.68,#4B8CC9,Tibeto-Burman,Kuki-Chin-Naga,Myanmar
Ashuku [nza-2],6.98,10.71,#4FA59F,Niger-Kongo,Atlantic-Congo,Nigeria
Ashuslay [cag-2],-23.5,-60.5,#466773,Matacoan,Mataguayo I,Paraguay
Asi [bno-2],12.95,122.08,#B08857,Malayo-Polynesian,Philippines,Philippines
Asienara [asi],-3.75,133.33,#7D9849,Trans New Guinea,Asmat-Kamoro,Indonesia-Papua
Asilulu [asl],-3.67,127.95,#969247,Malayo-Polynesian,Central Maluku,Indonesia-Maluku-north
Asmat [asc],-5.3,138.3,#819C47,Trans New Guinea,Asmat-Kamoro,Indonesia-Papua
Asmat_North [nks],-5,138.5,#929A46,Trans New Guinea,Asmat-Kamoro,Indonesia-Papua
Assamese [asm],26.5,93,#59969C,Indo-European,Indo-Iranian,India
Assamese_Dudhnoi [asm-10],26,90.8,#5D8C9C,Indo-European,Indo-Iranian,India
Assiniboine [asb],49,-100,#3A7752,Siouan,Western Siouan,Canada
Asturian [ast],43.33,-6,#A0816A,Indo-European,Romance,Spain
Asumboa [aua],-11.296,166.496,#A8848C,Oceanic,Te Motu,Solomons_East
Asur [asr-2],21.57,83.46,#9D79A2,Austroasiatic,Munda,India
Asuri [asr],23.04,84.54,#A6806C,Austroasiatic,Munda,India
Asurini [asu],-3.3,-49.3,#899058,Tupian,Tupi-Guarani,Brazil
Asuriní_Tocantins [asu-2],-3.3,-50,#8B9947,Tupian,Tupi-Guarani,Brazil
Asuriní_Xingú [asn],-4.13,-52.32,#869059,Tupian,Tupi-Guarani,Brazil
Ata [ata],-5.667,151,#919250,Ata,,Papua New Guinea-Bismarcks
Ata_Manobo [atd],7.845,125.506,#A3925A,Malayo-Polynesian,Philippines,Philippines
Atacameño [kuz],-23,-69,#54615D,Atacameño,,Chile
Atadei [slp-3],-8.46,123.555,#A79C75,Malayo-Polynesian,Timoric,Indonesia-NTT
Atakapa [aqp],30,-93,#6B7E5C,Atakapa,,USA
Atamanu [jal],-3.396,129.313,#9B9860,Malayo-Polynesian,Central Maluku,Indonesia-Maluku-north
Atampaya [amz],-11.33,142.5,#CB7C98,Pama-Nyungan,Paman,Australia
Atayal [tay],24.5,121,#776A63,Austronesian,Atayalic,Taiwan
Atchin [upv],-16,167.333,#498D95,Oceanic,Southern Oceanic,Vanuatu
Ateso [teo],1.915,33.955,#5F95A6,Nilo-Saharan,Eastern Sudanic,Uganda
Athpare [aph],26.75,87.33,#758A94,Tibeto-Burman,Kiranti,Nepal
Atikamekw [atj],48,-74,#8D8C41,Algic,Algonquian,Canada
Atong [aot],25.5,90.5,#8B8F8A,Tibeto-Burman,Bodo-Garo,India
Atsawaka [atc],-14.17,-69.5,#6C8F4B,Panoan,Southern Panoan,Peru
Atsi [atb-2],28,93.5,#4C7FC3,Tibeto-Burman,Lolo-Burmese,India
Atsugewi [atw],40.75,-121,#5F4C6D,Palaihnihan,,USA
Atta_Pamplona-1 [att-2],18.46,121.341,#AB8C50,Malayo-Polynesian,Philippines,Philippines
Atta_Pamplona-2 [att],18.458,121.342,#B2805A,Malayo-Polynesian,Philippines,Philippines
Attie [ati],6,-3.82,#29A1B0,Niger-Kongo,Atlantic-Congo,Côte d'Ivoire
Au [avt],-3.5,142.083,#8E934B,Torricelli,Central Torricelli,Papua New Guinea
Auhelawa [kud],-10.284,151.02,#6D8051,Oceanic,Western Oceanic,Papua New Guinea
Aujila [auj],29.23,21.18,#475B5A,Afro-Asiatic,Berber,Libya
Aulua [aul],-16.33,167.694,#847EA6,Oceanic,Southern Oceanic,Vanuatu
Aurland [nob-3],60.87,7.23,#4293B5,Indo-European,Germanic,Norway
Austral [aut],-23.377,-149.498,#7F994D,Oceanic,Central Pacific,French Polynesia
Auyana [auy],-6.523,145.708,#6AA961,Trans New Guinea,Morobe-Eastern Highlands,Papua New Guinea
Auye [auu],-3.495,136.002,#7BAF5B,Trans New Guinea,Western Trans New Guinea,Indonesia-Papua
Avá-Canoeiro [avv],-13.166403,-47.928611,#BA9662,Tupian,Tupi-Guarani,Brazil
Avar [ava],42.54,46.7,#3A5466,Nakh-Daghestanian,Avar-Andi,Russia
Avatime [avn],6.85,0.44,#2B8CA9,Niger-Kongo,Atlantic-Congo,Ghana
Avava [tmb],-16.224,167.523,#928C8A,Oceanic,Southern Oceanic,Vanuatu
Aveteian [dix],-16.443,167.43,#9F938B,Oceanic,Southern Oceanic,Vanuatu
Avikam [avi],5.16,-5.25,#2EAB6E,Niger-Kongo,Atlantic-Congo,Côte d'Ivoire
Avok [xxx-59],-16.53,167.7,#5287A9,Oceanic,Southern Oceanic,Vanuatu
Avok_Maxbaxo [xxx-103],-16.496,167.665,#677FA7,Oceanic,Southern Oceanic,Vanuatu
Avokaya [avu],5,30.2,#499EBE,Nilo-Saharan,Central Sudanic,South Sudan
Awa [awb],-6.75,145.667,#72B668,Trans New Guinea,Morobe-Eastern Highlands,Papua New Guinea
Awa Pit [kwi],0.75,-78.5,#527476,Barbacoan,Northern Barbacoan,Ecuador
Awabakal [awk],-33.05,151.55,#DD8570,Pama-Nyungan,Yuin-Kuri,Australia
Awad Bing [bcu],-5.584,146.349,#99965F,Oceanic,Western Oceanic,Papua New Guinea
Awadhi [awa],27.5,81.5,#7F64B2,Indo-European,Indo-Iranian,India
Awak [awo],9.86,11.33,#3FA2BD,Niger-Kongo,Atlantic-Congo,Nigeria
Awar [aya],-4,144.625,#579F85,Lower Sepik-Ramu,Ramu,Papua New Guinea
Awara [awx],-6.094,146.441,#6C8964,Trans New Guinea,Morobe-Eastern Highlands,Papua New Guinea
Awbono [awh],-5.119,139.201,#6A9A4E,Bayono-Awbono,,Indonesia-Papua
Aweer [orm],-1.717,40.967,#BB897E,Afro-Asiatic,Cushitic,Kenya
Awera [awr],-2.677,136.242,#99A243,Lakes Plains,Western Lakes Plains,Indonesia-Papua
Awetí [awe],-12.926,-54.277,#BC9569,Tupian,Aweti,Brazil
Awiakay [afp],-4.672,143.712,#BD907B,Arafundi,,Papua New Guinea
Awin [awi],-5.833,142.5,#6FA672,Trans New Guinea,Awin-Pa,Papua New Guinea
Awing [azo],5.88,10.24,#4FA573,Niger-Kongo,Atlantic-Congo,Cameroon
Awiya [som-2],10.851,36.892,#4F86BA,Afro-Asiatic,Cushitic,Ethiopia
Awngi [awn],10.83,36.67,#3F69A2,Afro-Asiatic,Cushitic,Ethiopia
Awngthim [gwm],-12.54,141.98,#B279AE,Pama-Nyungan,Paman,Australia
Awtuw [kmn],-3.5,141.917,#C79E77,Sepik,Ram,Papua New Guinea
Awu Alaya [typ-2],-14.83,143.32,#B384AA,Pama-Nyungan,Paman,Australia
Awutu [afu],5.42,-0.6,#6094C5,Niger-Kongo,Atlantic-Congo,Ghana
Awyi [auw],-3,140.75,#859F5D,Trans New Guinea,Border,Papua New Guinea
Axi [yix-2],24.4,103.44,#3282C0,Tibeto-Burman,Lolo-Burmese,China
Axininca [cpc-2],-9,-75,#826662,Arawak,Southern Maipuran,Peru
Ayapathu [ayd-2],-14.29,143.11,#DE8882,Pama-Nyungan,Paman,Australia
Ayere [aye],7.52,6.02,#4E96A4,Niger-Kongo,Atlantic-Congo,Nigeria
Ayerrerenge [axe],-22.5,137.36,#F7759A,Pama-Nyungan,Arandic,Australia
Aymara [ayr],-16,-69.5,#935869,Aymaran,Aymara,Peru
Aymara_Carangas [ayr-3],-18.45,-67.45,#A0577C,Aymaran,Aymara,Bolivia
Aymara_Chile [ayc],-19.15,-69.4,#985284,Aymaran,Aymara,Chile
Aymara_Muylaq' [ayr-2],-16.675,-70.712,#96566B,Aymaran,Aymara,Peru
Äynu [aib],38.069,76.227,#4D7B6F,Turkic,Common Turkic,China
Ayoré [ayo],-20.5,-59.25,#A68C82,Zamucoan,,Paraguay
Ayu [ayu],9.26,8.6,#43A1AB,Niger-Kongo,Atlantic-Congo,Nigeria
Azerbaijani [azj],40.5,48.5,#438075,Turkic,Common Turkic,Azerbaijan
Azerbaijani_Tabriz [azj-3],38.07,46.3,#448266,Turkic,Common Turkic,Azerbaijan
Azeri [azb],40.67,47.75,#3D7E77,Turkic,Common Turkic,Azerbaijan
Azha [aza],23.37,104.25,#2B87C1,Tibeto-Burman,Lolo-Burmese,China
Azhe [yiz],24.2,103.6,#347DC8,Tibeto-Burman,Lolo-Burmese,China
B'lit_Manobo [mta],6.39,124.23,#8E995C,Malayo-Polynesian,Philippines,Philippines
Ba:ngingi_Sama [sse],6.133,121.805,#A5886E,Malayo-Polynesian,Barito,Philippines
Baagandji [drl],-32,142.533,#FA7297,Pama-Nyungan,Yarli-Baagandji,Australia
Baale [koe],5,36,#5395A8,Nilo-Saharan,Eastern Sudanic,South Sudan
Baangi [bqx],10.81,5.73,#28879C,Niger-Kongo,Atlantic-Congo,Nigeria
Baarin [mon-2],43.53,118.67,#629880,Mongolic,Core Mongolic,China
Baatonum [bba-2],9.63,3,#57A572,Niger-Kongo,Atlantic-Congo,Benin
Baba [bbw],6.11,10.52,#668EAD,Niger-Kongo,Atlantic-Congo,Cameroon
Babanki [bbk],6.104,10.311,#2F94B2,Niger-Kongo,Atlantic-Congo,Cameroon
Babar_North [bcd],-7.83,129.58,#8CA150,Malayo-Polynesian,Southeast Maluku,Indonesia-Maluku-south
Babar_Southeast [vbb],-7.92,129.67,#7D8D50,Malayo-Polynesian,Southeast Maluku,Indonesia-Maluku-south
Babatana [baa],-7.397,157.37,#7A9B70,Oceanic,Western Oceanic,Solomons
Babine-Witsuwit'en [bcr],55,-127,#295378,Dene-Yeniseic,Na-Dene,Canada
Babungo [bav],6.12,10.42,#34ABB9,Niger-Kongo,Atlantic-Congo,Cameroon
Babuza [bzg-2],24,120.58,#788F54,Austronesian,Western Plains,Taiwan
Baca [baf],4.36,11.03,#52A4A7,Niger-Kongo,Atlantic-Congo,Cameroon
Bachamal [wdj-2],-13.17,130.17,#E876A1,Wagaydyic,Wadjiginy,Australia
Bada [bhz],-1.793,120.313,#72A080,Malayo-Polynesian,Celebic,Indonesia-Sulawesi
Badaga [bfq],11.31,76.6,#B974A1,Dravidian,South Dravidian,India
Bade [bde],12.79,10.66,#3872AC,Afro-Asiatic,Chadic,Nigeria
Bade-2 [bde-2],12,12,#4B687B,Afro-Asiatic,Chadic,Nigeria
Badeng [xkl-3],3.17,115.22,#919A76,Malayo-Polynesian,North Borneo,Malaysia-Borneo
Badimaya [bia],-27.667,119,#F9739A,Pama-Nyungan,Kardu,Australia
Badjala [xby],-25.084,152.529,#DD8781,Pama-Nyungan,Waka-Kabic,Australia
Badjiri [jbi],-28.79,145.47,#F171A0,Pama-Nyungan,Karnic,Australia
Badyara [pbp],11.633,-13.4,#908C9D,Niger-Kongo,Atlantic-Congo,Guinea
Baelelea [bvc],-8.453,160.66,#968565,Oceanic,Southeast Solomonic,Solomons
Baenggu [bvd],-8.506,160.706,#9D8D64,Oceanic,Southeast Solomonic,Solomons
Baetora [btr],-15.258,168.166,#7A8F53,Oceanic,Southern Oceanic,Vanuatu
Bafang [cmn-68],35.6,103.217,#3693C2,Tibeto-Burman,Sinitic,China
Bafanji [bfj-2],5.84,10.46,#4191B3,Niger-Kongo,Atlantic-Congo,Cameroon
Bafia [ksf],4.73,11.1,#4293B6,Niger-Kongo,Atlantic-Congo,Cameroon
Bafo [bwt],6.351,10.229,#3EA4A2,Niger-Kongo,Atlantic-Congo,Cameroon
Bafut [bfd],6.083,10.0999,#3181AE,Niger-Kongo,Atlantic-Congo,Cameroon
Baga tshi-Tem [bsp-2],10.65,-14.51,#478F89,Niger-Kongo,Atlantic-Congo,Guinea
Baga_Koga [bgo],10.13,-13.95,#7897A5,Niger-Kongo,Atlantic-Congo,Guinea
Baga_Mboteni [bcg],10.83,-14.55,#8E9A88,Niger-Kongo,Atlantic-Congo,Guinea
Baga_Sitemu [bsp],10.48,-14.48,#849E81,Niger-Kongo,Atlantic-Congo,Guinea
Bagheli [bfy],24.35,81.43,#7271B9,Indo-European,Indo-Iranian,India
Bagirmi [bmi],10.202,17,#958DBF,Nilo-Saharan,Central Sudanic,Chad
Bagri [bgq],29.6,74.3,#7E81C9,Indo-European,Indo-Iranian,India
Baguiro_Zangba [bmi-2],7.29,18.82,#629CC3,Nilo-Saharan,Central Sudanic,Central African Republic
Bagulal [kva],42.56,46.17,#435871,Nakh-Daghestanian,Avar-Andi,Russia
Bagusa [bqb],-1.905,137.932,#8A8A48,Tor-Kwerba,West Foya Range,Indonesia-Papua
Baharnah [afb-4],26.03,50.55,#5B6650,Afro-Asiatic,Semitic,Bahrain
Bahau [bhv],0.06,115.65,#838E61,Malayo-Polynesian,North Borneo,Indonesia-Kalimantan
Bahinemo [bjh],-4.435,142.726,#72994E,Sepik,Sepik Hill,Papua New Guinea
Bahing [bhj],27.27,86.56,#5395B1,Tibeto-Burman,Kiranti,Nepal
Bahnar [bdq],14,108.5,#A4719C,Austroasiatic,Bahnaric,Vietnam
Bahonsuai [bsu],-2.23,121.71,#799F65,Malayo-Polynesian,Celebic,Indonesia-Sulawesi
Bai [bca],26,100,#3493CB,Tibeto-Burman,Macro-Bai,China
Bai_Eryuan [bca-2],26.12,99.95,#3396CF,Tibeto-Burman,Macro-Bai,China
Bai_Heqing [bca-3],26.56,100.18,#2C9BC9,Tibeto-Burman,Macro-Bai,China
Bai_Lanping [bca-4],26.45,99.42,#319EC5,Tibeto-Burman,Macro-Bai,China
Bai_Luobenzhuo [bca-5],26.42,98.89,#3286DF,Tibeto-Burman,Macro-Bai,China
Bai_Qiliqiao [bca-6],25.65,100.18,#349FC4,Tibeto-Burman,Macro-Bai,China
Bai_Xiangyun [bca-7],25.48,100.55,#34A0C3,Tibeto-Burman,Macro-Bai,China
Bai_Xishan [bca-10],25.53,100.45,#2E99EA,Tibeto-Burman,Macro-Bai,China
Bai_Yunlong [bca-8],25.88,99.37,#359BCF,Tibeto-Burman,Macro-Bai,China
Bai_Zhoucheng [bca-9],24.48,101.34,#3A9ECA,Tibeto-Burman,Macro-Bai,China
Baikeno [bkx],-9.3,124.32,#788F46,Malayo-Polynesian,Timoric,Timor leste
Baima [bqh],30.32,107.34,#2F90D8,Tibeto-Burman,Bodic,China
Bainapi [dby],-7.904,142.715,#85A251,Papuan Gulf,Strickland,Papua New Guinea
Baining [gcc-2],-4.6,152,#749A64,Baining,,Papua New Guinea-Bismarcks
Baiso [bsw-3],6.45,37.77,#437788,Afro-Asiatic,Cushitic,Somalia
Bajau_Semporna [ssb],4.5,118.5,#759A6C,Malayo-Polynesian,Barito,Indonesia-Kalimantan
Bajau_Sulawesi [bdl-2],-3.75,122.5,#8D9A72,Malayo-Polynesian,Barito,Indonesia-Sulawesi
Bajo_Kangean [bdl],-7.17,115.82,#8F8CA6,Malayo-Polynesian,Barito,Indonesia-Kalimantan
Bajuni [swh-2],-1,42.04,#7275AE,Niger-Kongo,Atlantic-Congo,Somalia
Baka [bdh],4.8,31.6,#598FCD,Nilo-Saharan,Central Sudanic,South Sudan
Baka [bkc],2.16,13.78,#3CA2AC,Ubangian,Sere-Mba,Cameroon
Bakairí [bkq],-14,-55,#669556,Cariban,Pekodian,Brazil
Bakairí_East [bkq-3],-14.43,-54.025,#729452,Cariban,Pekodian,Brazil
Bakairí_West [bkq-2],-14.7302,-56.2479,#739453,Cariban,Pekodian,Brazil
Bakaka [bqz],4.8,9.8,#579D8E,Niger-Kongo,Atlantic-Congo,Cameroon
Bakhtiari [ldd],31.92,50.86,#5F7056,Indo-European,Indo-Iranian,Iran
Baki [bki],-16.717,168.138,#B3818B,Oceanic,Southern Oceanic,Vanuatu
Bakoko [bkh],4.2,9.67,#40A1B3,Niger-Kongo,Atlantic-Congo,Cameroon
Bakole [kme],4.44,8.97,#618FBE,Niger-Kongo,Atlantic-Congo,Cameroon
Bakumpai [bkr],-1.988,114.7,#A5906F,Malayo-Polynesian,Barito,Indonesia-Kalimantan
Balaesang [bls],-0.06,119.69,#A79764,Malayo-Polynesian,Celebic,Indonesia-Sulawesi
Balami [new-4],27.801,85.25,#857EBF,Tibeto-Burman,Newaric,Nepal
Balangao [blw],17.167,120.333,#94955D,Malayo-Polynesian,Philippines,Philippines
Balanta [ble],12,-15,#51A19A,Niger-Kongo,Atlantic-Congo,Guinea Bissau
Balantak [blz],-0.82,123.431,#B7926E,Malayo-Polynesian,Celebic,Indonesia-Sulawesi
Balante_Sofa [bjt],12.54,-15.67,#619CA7,Niger-Kongo,Atlantic-Congo,Guinea Bissau
Balawaia [snc-2],-9.98,147.865,#798744,Oceanic,Western Oceanic,Papua New Guinea
Balearic [cat-2],39.5,3,#6F82AA,Indo-European,Romance,Spain
Balendru [led],1.968,30.485,#3889BA,Nilo-Saharan,Central Sudanic,Democratic Republic of the Congo
Bali-Vitu [wiv],-4.733,149.283,#A49462,Oceanic,Western Oceanic,Papua New Guinea-Bismarcks
Balinese [ban],-8.583,115.25,#AA9498,Malayo-Polynesian,Malayo-Sumbawan,Indonesia-NTB
Balingian [mel-7],2.92,112.53,#AD8176,Malayo-Polynesian,Malayo-Sumbawan,Malaysia-Borneo
Balochi [bgp-2],27,63.5,#6E637E,Indo-European,Indo-Iranian,Pakistan
Balti [bft],35.2,76,#7256A8,Tibeto-Burman,Bodic,Pakistan
Baluchi [bgp],27.2,60.68,#47706C,Indo-European,Indo-Iranian,Iran
Balui Liko [ree-3],1.92,114.52,#939371,Malayo-Polynesian,North Borneo,Malaysia-Borneo
Bam [bmc],-3.61,144.82,#B49576,Oceanic,Western Oceanic,Papua New Guinea
Bambalang [bmo],5.86,10.54,#3A81B7,Niger-Kongo,Atlantic-Congo,Cameroon
Bambara [bam],12.5,-7.5,#51999A,Mande,Western Mande,Mali
Bamenyam [bce],5.77,10.33,#5993B3,Niger-Kongo,Atlantic-Congo,Cameroon
Bamu [bcf],-8,143.833,#8C9A48,Kiwaian,Bamu,Papua New Guinea
Bamun [bax],5.726,10.904,#419AC1,Niger-Kongo,Atlantic-Congo,Cameroon
Bamunka [bvm],6,10.51,#4A92A4,Niger-Kongo,Atlantic-Congo,Cameroon
Bana [bcw],10.42,13.58,#375391,Afro-Asiatic,Chadic,Cameroon
Banam Bay [vrt-2],-16.41,167.78,#62A184,Oceanic,Southern Oceanic,Vanuatu
Banda [bnd],-5.25,133.17,#9C9E75,Malayo-Polynesian,Central Maluku,Indonesia-Maluku-north
Banda [bpd],2,22,#3398AF,Ubangian,Bandaic,Central African Republic
Banda_Ndele [bfl],8.03,23.9,#3496AD,Ubangian,Bandaic,Central African Republic
Bandi [bza],7.74,-10.17,#3B9DA5,Mande,Western Mande,Liberia
Bandiaal [bqj-2],13.02,-15.32,#9DA186,Niger-Kongo,Atlantic-Congo,Senegal
Bandjalang [bdy],-28.74,153.01,#D88771,Pama-Nyungan,Yugambeh-Bundjalung,Australia
Bandjalang-2 [bdy-4],-28.39,152.61,#D78971,Pama-Nyungan,Yugambeh-Bundjalung,Australia
Bandjalang-Gidabal [bdy-2],-28.25,152,#D98873,Pama-Nyungan,Yugambeh-Bundjalung,Australia
Bandjigali [bjd],-30.08,143.28,#FA7298,Pama-Nyungan,Yarli-Baagandji,Australia
Banggai [bgz],-1.42,123.17,#9E987D,Malayo-Polynesian,Celebic,Indonesia-Sulawesi
Banggime [dbb],14.78,-3.76,#5DADAC,Banggime,,Mali
Bangla Rahri Upobhasa [ben-12],23.24,87.86,#7D76A3,Indo-European,Indo-Iranian,Bangladesh
Bangla_Mymensingh [ben-11],24.75,90.4,#6D8E60,Indo-European,Indo-Iranian,Bangladesh
Bangolan [bgj],6.05,10.45,#48A675,Niger-Kongo,Atlantic-Congo,Cameroon
Bangru [hru-3],27.9,93.35,#8BA093,Tibeto-Burman,Hrusish,India
Bangubangu [bnx],-4.689,27.693,#639B68,Niger-Kongo,Atlantic-Congo,Democratic Republic of the Congo
Baniwa_Central [bwi],1.4091,-68.1358,#C1866D,Arawak,Northern Maipuran,Brazil
Baniwa_do_Içana [bwi-2],2.18,-67.77,#BE7596,Arawak,Northern Maipuran,Brazil
Baniwa_Rio_Negro [bwi-3],0.053,-67.43,#738F61,Arawak,Northern Maipuran,Brazil
Baniwa_Siusi [bwi-4],2.19,-67.76,#BB6AA2,Arawak,Northern Maipuran,Brazil
Banjar [bjn],0.75,115.79,#C18077,Malayo-Polynesian,Malayo-Sumbawan,Indonesia-Kalimantan
Banjari [lmn-2],16.5,77.455,#AE78A6,Indo-European,Indo-Iranian,India
Bankariya [cdm-2],27.5,85,#826BC0,Tibeto-Burman,Chepang,Nepal
Bankon [abb],4.37,9.64,#5A8EC1,Niger-Kongo,Atlantic-Congo,Cameroon
Banoni [bcm],-6.417,155.25,#908C5D,Oceanic,Western Oceanic,Papua New Guinea-Bougainville
Bantang [pho-6],21.75,102.25,#3B99B8,Tibeto-Burman,Lolo-Burmese,Laos
Bantawa [bap],27.2,87.1,#758F9B,Tibeto-Burman,Kiranti,Nepal
Banten [sun-2],-6.35,106.1,#9C8D91,Malayo-Polynesian,Malayo-Sumbawan,Indonesia-Java
Bantik [bnq],1.564,124.859,#9B965D,Malayo-Polynesian,Philippines,Indonesia-Sulawesi
Bantoanon [bno],12.784,122.049,#AF8659,Malayo-Polynesian,Philippines,Philippines
Banyaduq [byd],0.5,110,#B98889,Malayo-Polynesian,Malayo-Sumbawan,Indonesia-Kalimantan
Banyum [bab],11.497,-16.5,#819B95,Niger-Kongo,Atlantic-Congo,Guinea Bissau
Banyun [bcb-2],12.75,-16.3,#909E95,Niger-Kongo,Atlantic-Congo,Senegal
Baoan [peh],35.05,102.1,#625CA7,Mongolic,Core Mongolic,China
Baoan [yue-20],22.55,113.9,#53A4B8,Tibeto-Burman,Sinitic,China
Baoan_Dahejia [peh-2],35.72,102.88,#676C95,Mongolic,Core Mongolic,China
Baoan_Dongxiang [peh-5],35.6,103.22,#5B639C,Mongolic,Core Mongolic,China
Baoan_Kangjia [peh-4],35.04,101.25,#487296,Mongolic,Core Mongolic,China
Baoan_Ñantoq [peh-3],35.41,102.08,#616898,Mongolic,Core Mongolic,China
Bará [bao],0.1,-70.45,#79A338,Tucanoan,East Tucanoan,Colombia
Baraba [tat-3],55.333,78.333,#4D7D82,Turkic,Common Turkic,Russia
Barai [bbb],-9.417,148,#70994F,Southeast Papuan,Owen Stanley Ranges,Papua New Guinea
Barain_Giliya [bva-2],12.08,18.58,#B19889,Afro-Asiatic,Chadic,Chad
Barain_Jalking [bva-3],12.22,18.8,#B09989,Afro-Asiatic,Chadic,Chad
Barain_Jalkiya [bva],12.18,18.68,#9AA092,Afro-Asiatic,Chadic,Chad
Barain_Komiya [bva-4],12.17,18.75,#9C9E8E,Afro-Asiatic,Chadic,Chad
Baram [brd],27.95,85,#8988A3,Tibeto-Burman,Western Himalayan,Nepal
Barang-barang [lji],-6.4,120.5,#AD888E,Malayo-Polynesian,Celebic,Indonesia-Sulawesi
Barapa Barapa [rbp],-35.95,144.32,#DA81AE,Pama-Nyungan,Kulinic,Australia
Barapasi [brp],-2.247,136.995,#5DA45F,Geelvink Bay,Barapasi-Sauri-Kofei,Indonesia-Papua
Barasano [bsn],-0.25,-70.75,#64A742,Tucanoan,East Tucanoan,Colombia
Bardi [bcj],-16.58,122.92,#F5768D,Nyulnyul,West Nyulnyul,Australia
Baré [bae],1.6,-66.8,#695A76,Arawak,Northern Maipuran,Venezuela
Bareke [mpr],-8.543,158.113,#809163,Oceanic,Western Oceanic,Solomons
Barese [ita-47],41.1,16.9,#53929A,Indo-European,Romance,Italy
Bargam [mlp],-4.87,145.76,#7E9F76,Trans New Guinea,Madang,Papua New Guinea
Bari [bfa],3.8,31,#557AB6,Nilo-Saharan,Eastern Sudanic,South Sudan
Barí [mot],9,-73.5,#73AA5A,Chibchan,Core Chibchan,Venezuela
Bariai [bch],-5.497,148.63,#A49A62,Oceanic,Western Oceanic,Papua New Guinea
Bariba [bba],10.217,2.667,#53B38B,Niger-Kongo,Atlantic-Congo,Benin
Bariji [bjc],-9.211,148.401,#7E9849,Southeast Papuan,Owen Stanley Ranges,Papua New Guinea
Barman Thar [xxx-108],25.899,89.899,#5D9976,Tibeto-Burman,Bodo-Garo,India
Barok [bjk],-3.48,152.19,#91985C,Oceanic,Western Oceanic,Papua New Guinea-Bismarcks
Barranbinya [zmu-2],-30.1,145.93,#F36EA1,Pama-Nyungan,Muruwari,Australia
Barranquenho [por-3],38.13,-6.975,#58A175,Indo-European,Romance,Portugal
Barrow_Point [bpt],-14.373,144.63,#D57296,Pama-Nyungan,Paman,Australia
Baruga [bjz],-9.328,148.734,#6A964A,Trans New Guinea,Oro-Wharton,Papua New Guinea
Barunggam [xxx-47],-26.25,151.25,#D58F73,Pama-Nyungan,Waka-Kabic,Australia
Barupu [wra],-3.083,142.083,#60C694,Skou,Eastern Skou,Papua New Guinea
Baruya [byr],-6.917,145.833,#98A987,Trans New Guinea,Morobe-Eastern Highlands,Papua New Guinea
Basà [bzw],8.03,7.06,#4192AA,Niger-Kongo,Atlantic-Congo,Nigeria
Basaa [bas],5,10.15,#5196B3,Niger-Kongo,Atlantic-Congo,Cameroon
Basap [bdb],0.91,117.56,#9E9963,Malayo-Polynesian,Basap,Indonesia-Kalimantan
Basari [bsc],12.25,-13,#3C70B7,Niger-Kongo,Atlantic-Congo,Senegal
Basay [byq-2],25,121.86,#AE7468,Austronesian,East Formosan,Taiwan
Basay_Trobriawan [byq],25,122,#84904C,Austronesian,East Formosan,Taiwan
Basel [gsw-4],47.56,7.59,#3C7994,Indo-European,Germanic,Switzerland
Bashkarik [gwc-3],35.358,72.137,#7768B0,Indo-European,Indo-Iranian,Pakistan
Bashkir [bak],53,58,#497D86,Turkic,Common Turkic,Russia
Basila [ade],8.17,0.62,#669DC0,Niger-Kongo,Atlantic-Congo,Benin
Basketo [bst],6.384,36.651,#466376,Afro-Asiatic,Omotic,Ethiopia
Basque [eus],42.82,-1.95,#83769D,Basque,,Spain
Basque_Arbizu [eus-4],42.9,-2,#7088A2,Basque,,Spain
Basque_Baztan [eus-10],43.2,1.47,#8973AE,Basque,,Spain
Basque_Baztan [eus-9],43.2,-1.5,#738AA1,Basque,,Spain
Basque_Gernika [eus-3],43.3,-2.7,#73929F,Basque,,Spain
Basque_Lekeitio [eus-2],43.365,-2.51,#5B8B7C,Basque,,Spain
Basque_Navarro [bqe],43.17,-1.24,#55839E,Basque,,France
Basque_Ondarroa [eus-7],43.3,-2.4,#7C979A,Basque,,Spain
Bassa [bsq],7.26,-7.22,#3297AE,Niger-Kongo,Atlantic-Congo,Côte d'Ivoire
Basseri [pes-7],29.61,52.54,#50795B,Indo-European,Indo-Iranian,Iran
Bassossi [bsi],5.24,9.52,#619F9D,Niger-Kongo,Atlantic-Congo,Cameroon
Bata [bta],9.7,12.5,#49A08F,Afro-Asiatic,Chadic,Nigeria
Batak_Dairi [btd],2.546,98.3,#A39068,Malayo-Polynesian,Batak-Barrier Islands,Indonesia-Sumatra
Batak_Karo [btx],3,98.167,#819E87,Malayo-Polynesian,Batak-Barrier Islands,Indonesia-Sumatra
Batak_Palawan [bya],10.115,119.214,#B7886B,Malayo-Polynesian,Philippines,Philippines
Batang [khg-8],30.57,98.97,#2F83DD,Tibeto-Burman,Bodic,China
Batanga [bnm],2.09,9.75,#66A3AE,Niger-Kongo,Atlantic-Congo,Equatorial Guinea
Bateg [btq],5,102.5,#A19684,Austroasiatic,Aslian,Malaysia
Bathari [bhm],17.6,56,#3C6E5C,Afro-Asiatic,Semitic,Oman
Bati [btc],4.26,11.06,#46979C,Niger-Kongo,Atlantic-Congo,Cameroon
Batsbi [bbl-2],42.05,45.31,#345B71,Nakh-Daghestanian,Nakh,Georgia
Batuley [bay],-5.8,134.75,#8D9657,Malayo-Polynesian,Southeast Maluku,Indonesia-Maluku-south
Bau [bbd],-5.213,145.556,#6E9648,Trans New Guinea,Madang,Papua New Guinea
Baukan_Murut [bnb],5.273,116.519,#B78F67,Malayo-Polynesian,North Borneo,Malaysia-Borneo
Baule [bci],7.5,-5,#43A3A1,Niger-Kongo,Atlantic-Congo,Côte d'Ivoire
Baure [brg],-15,-64,#788C46,Arawak,Southern Maipuran,Bolivia
Bauro [bxa],-10.647,161.858,#81925D,Oceanic,Southeast Solomonic,Solomons
Bauzi [bvz],-2.5,137.667,#689653,Geelvink Bay,,Indonesia-Papua
Bavarian [bar],46.73,12.28,#3785A3,Indo-European,Germanic,Italy
Bawm [bgr],22.5,92.25,#5C86B7,Tibeto-Burman,Kuki-Chin-Naga,India
Bayan [duq-2],-0.85,115.39,#A99277,Malayo-Polynesian,Barito,Indonesia-Kalimantan
Bayso [bsw],6.28,37.76,#4F6A67,Afro-Asiatic,Cushitic,Somalia
Bayso-2 [bsw-2],6.456,37.745,#596768,Afro-Asiatic,Cushitic,Ethiopia
Bayungu [bxj],-23.3,113.7,#FA7297,Pama-Nyungan,Kanyara-Mantharta,Australia
Bduul [ajp-6],30.33,35.44,#4E5667,Afro-Asiatic,Semitic,Syria
Beary [xxx-101],12.605,75.01,#B29283,Dravidian,South Dravidian,India
Bebeli [bek],-5.63,150.32,#859D5F,Oceanic,Western Oceanic,Papua New Guinea-Bismarcks
Bedamini [beo],-6.321,142.489,#79A343,Trans New Guinea,Bosavi,Papua New Guinea
Bedayuh [bth],1.01,110.51,#B08A87,Malayo-Polynesian,Land Dayak,Malaysia-Borneo
Bedik [tnr],12.75,-12.467,#4A9DB2,Niger-Kongo,Atlantic-Congo,Senegal
Bediondo [bjv],10.203,17,#469F95,Nilo-Saharan,Central Sudanic,Chad
Befang [bby-2],6.28,10.03,#3185A3,Niger-Kongo,Atlantic-Congo,Cameroon
Begak [dbj],5.25,118.833,#99888A,Malayo-Polynesian,North Borneo,Malaysia-Borneo
Beihai [yue-13],21.47,109.1,#419FB8,Tibeto-Burman,Sinitic,China
Beihai_Baihua [yue-52],21.48,109.12,#4898B7,Tibeto-Burman,Sinitic,China
Beihai_Haibian [yue-56],21.52,109.66,#4899AC,Tibeto-Burman,Sinitic,China
Beihai_Lianzhou [yue-54],21.66,109.2,#4D95B0,Tibeto-Burman,Sinitic,China
Beihai_Tieshangang [yue-53],21.6,109.45,#4898B7,Tibeto-Burman,Sinitic,China
Beihai_Wa [yue-55],21.455,109.32,#4A98AD,Tibeto-Burman,Sinitic,China
Beja [bej],18,36,#50858B,Afro-Asiatic,Cushitic,Sudan
Bekati [bei],0.975,109.425,#9F9C5D,Malayo-Polynesian,Land Dayak,Indonesia-Kalimantan
Beketan [bkn-3],1.3,114.9,#9C886D,Malayo-Polynesian,Land Dayak,Indonesia-Kalimantan
Bekwarra [bkv],6.74,8.86,#6994AC,Niger-Kongo,Atlantic-Congo,Nigeria
Bekwil [bkw],1.72,14.65,#4C889D,Niger-Kongo,Atlantic-Congo,Cameroon
Bela [bxd-2],24.33,98.4,#4092B5,Tibeto-Burman,Lolo-Burmese,Myanmar
Belait [beg],4.382,114.462,#AC7D82,Malayo-Polynesian,North Borneo,Brunei
Belanda Boor [bxb],6.5,28,#9096C6,Nilo-Saharan,Eastern Sudanic,South Sudan
Belarussian [bel],54,27,#4F53A7,Indo-European,Balto-Slavic,Belarus
Belep [yly],-19.75,163.67,#B68CA2,Oceanic,Southern Oceanic,New Caledonia
Belhare [byw],27,87.25,#868192,Tibeto-Burman,Kiranti,Nepal
Beli [blm],6.75,29.75,#64A3CB,Nilo-Saharan,Central Sudanic,South Sudan
Bella Coola [blc],52.5,-126.67,#513D5E,Salish,Bella Coola,Canada
Bellona [mnv-2],-11.296,159.79,#719C48,Oceanic,Central Pacific,Solomons
Belneng [glb],9.15,9.51,#379DAE,Afro-Asiatic,Chadic,Nigeria
Bemal [bmh],-5.234,145.475,#76904D,Trans New Guinea,Madang,Papua New Guinea
Bemba [bem],-11,31,#47999E,Niger-Kongo,Atlantic-Congo,Zambia
Bembe [bmb],-4,14,#3DA787,Niger-Kongo,Atlantic-Congo,Democratic Republic of the Congo
Bena [bez],-9.27,35.04,#589D99,Niger-Kongo,Atlantic-Congo,Tanzania
Bena-Bena [bef],-6.114,145.567,#719640,Trans New Guinea,Morobe-Eastern Highlands,Papua New Guinea
Bench [bcq],7,35.75,#24859E,Afro-Asiatic,Omotic,Ethiopia
Bende [bdp],-6,30.5,#4EAC88,Niger-Kongo,Atlantic-Congo,Tanzania
Beng [nhb],7.83,-4.25,#54A0BC,Mande,Eastern Mande,Côte d'Ivoire
Benga [bng],1.2,9.5,#40807D,Niger-Kongo,Atlantic-Congo,Equatorial Guinea
Bengali [ben],22.5,90,#508089,Indo-European,Indo-Iranian,Bangladesh
Bengali_Barisal [ben-10],22.7,90.37,#498962,Indo-European,Indo-Iranian,Bangladesh
Bengali_east [ben-7],24.4,90.28,#3E856F,Indo-European,Indo-Iranian,Bangladesh
Bengali_west [ben-8],23.4,89.45,#597F8E,Indo-European,Indo-Iranian,Bangladesh
Bengni [adi-11],28.66,93.37,#719DA0,Tibeto-Burman,Macro-Tani,China
Benuaq [lbx-2],-1.6,115.51,#A5906F,Malayo-Polynesian,Barito,Indonesia-Kalimantan
Benyadu [byd-2],0.595,109.62,#A59A67,Malayo-Polynesian,Land Dayak,Indonesia-Kalimantan
Beothuk [bue],48,-55,#8B8553,Beothuk,,Canada
Bergamasco [ita-17],45.7,9.75,#59A098,Indo-European,Romance,Italy
Bergensk [nno],60.39,5.33,#3EA7AD,Indo-European,Germanic,Norway
Berik [bkl],-2.25,138.92,#6C5A78,Tor-Kwerba,Orya-Tor,Indonesia-Papua
Berlinerisch [deu-4],52.5,13.15,#3B8E9C,Indo-European,Germanic,Germany
Bernese [gsw-3],46.83,7.62,#468D9D,Indo-European,Germanic,Switzerland
Berom [bom-2],9.67,8.81,#6A99AC,Niger-Kongo,Atlantic-Congo,Nigeria
Berrichon [fra-17],47.08,2.38,#579F97,Indo-European,Romance,France
Berta [wti],10.67,34.5,#45889B,Nilo-Saharan,Berta,Ethiopia
Besemah [pse],-4.2,103,#AB8386,Malayo-Polynesian,Malayo-Sumbawan,Indonesia-Sumatra
Beserrman [udm-2],58.02,52.15,#737AAE,Uralic,Permic,Russia
Bésiro [cax-2],-16.6375,-61.9271,#7A9851,Arawak,Southern Maipuran,Bolivia
Besoa [bep],-1.599,120.379,#75A180,Malayo-Polynesian,Celebic,Indonesia-Sulawesi
Betawi [bew],-6.21,107.02,#9D9894,Malayo-Polynesian,Malayo-Sumbawan,Indonesia-Java
Bete [byf],7.05,9.748,#5CA380,Niger-Kongo,Atlantic-Congo,Nigeria
Betoi [xxx-126],7.22,-71.42,#798D4B,Betoi-Jirara,,Colombia
Betta Kurumba [xub],11.58,76.55,#C4769D,Dravidian,South Dravidian,India
Bewani [pgi],-3.024,141.167,#82A549,Trans New Guinea,Border,Papua New Guinea
Bezhta [kap],42.133,46.128,#31597C,Nakh-Daghestanian,Tsezic,Russia
Bhaderwahi [bhd-2],32.98,75.71,#5A7EA9,Indo-European,Indo-Iranian,India
Bhaṭe-sa zib [xxx-102],34.94,72.88,#705E9A,Indo-European,Indo-Iranian,Afghanistan
Bhatibari [ben-5],26.48,89.54,#9976A5,Indo-European,Indo-Iranian,India
Bhele [bhy-2],0.25,28.67,#49A08C,Niger-Kongo,Atlantic-Congo,Democratic Republic of the Congo
Bhili [bhb],22,73,#896AC0,Indo-European,Indo-Iranian,India
Bhili_Mahikantha [bhb-2],23.83,72.5,#856FC4,Indo-European,Indo-Iranian,India
Bhoi [kha-5],25.9,91.88,#AC7C8D,Austroasiatic,Khasi-Palaung,India
Bhojpuri [bho],26.8,85.3,#906BBA,Indo-European,Indo-Iranian,India
Bhojpuri_Nagpuria [bho-3],23.36,85.33,#926DBA,Indo-European,Indo-Iranian,India
Bhojpuri_Northern [bho-2],26.76,83.37,#926DBA,Indo-European,Indo-Iranian,India
Bhojpuri_Western [bho-4],25.32,83.01,#926DBA,Indo-European,Indo-Iranian,India
Bhumij [muw],21.333,86.5,#B077B1,Austroasiatic,Munda,India
Biafada [bif],11.47,-15.13,#628CBD,Niger-Kongo,Atlantic-Congo,Guinea Bissau
Biage [bdf],-9.158,147.664,#739F47,Southeast Papuan,Owen Stanley Ranges,Papua New Guinea
Biak [bhw],-1.14,136,#809A4A,Malayo-Polynesian,Eastern Malayo-Polynesian,Indonesia-Papua
Biak-west [bhw-2],-0.835,135.59,#68AF5E,Malayo-Polynesian,Eastern Malayo-Polynesian,Indonesia-Papua
Biaka [axk-2],3.65,17.27,#4CA27C,Niger-Kongo,Atlantic-Congo,Congo
Biali [beh],11.04,1.08,#5FA96A,Niger-Kongo,Atlantic-Congo,Benin
Bian_Marind [bpv],-7.222,140.548,#43976A,Anim,Marind-Yaqay,Indonesia-Papua
Biangai [big],-7.33,146.75,#9D955A,Trans New Guinea,Oro-Wharton,Papua New Guinea
Biao [byk-3],23.9,112.2,#47A1CB,Tai-Kadai,Kam-Tai,China
Biao_Dagang [byk-2],23.81,112.135,#4D9DCC,Tai-Kadai,Kam-Tai,China
Biao_Yonggu [byk],23.72,112.07,#489FC5,Tai-Kadai,Kam-Tai,China
Biaomin Yao [bmt],23.6,111.75,#4E91DD,Hmong-Mien,Mienic,China
Biatah [bth-2],1.264,110.32,#9EA073,Malayo-Polynesian,Land Dayak,Indonesia-Kalimantan
Bidjara [bym],-24.5,146.592,#E77E83,Pama-Nyungan,Greater Maric,Australia
Bierebo [bnk],-16.667,168.131,#757696,Oceanic,Southern Oceanic,Vanuatu
Bieria [brj],-16.807,168.194,#8B9E64,Oceanic,Southern Oceanic,Vanuatu
Bih [rad],12.48,108.025,#748FB5,Malayo-Polynesian,Malayo-Sumbawan,Vietnam
Bijago [bjg],11.28,-15.83,#749AAB,Niger-Kongo,Atlantic-Congo,Guinea Bissau
Bijago_Orango [bjg-2],11.034,-16.146,#A19799,Niger-Kongo,Atlantic-Congo,Guinea Bissau
Bikele [biw-2],3.67,12.85,#609BB3,Niger-Kongo,Atlantic-Congo,Cameroon
Bikol [bcl],13.333,123.5,#A38D5E,Malayo-Polynesian,Philippines,Philippines
Bikol_Iriga [bcl-3],13.39,123.33,#B58A60,Malayo-Polynesian,Philippines,Philippines
Bikol_Naga [bcl-4],13.62,123.17,#A49060,Malayo-Polynesian,Philippines,Philippines
Biksi [yet],-4.013,140.494,#98A37B,Yetfa-Biksi,,Papua New Guinea
Bila [bip],1.17,28.76,#2DB094,Niger-Kongo,Atlantic-Congo,Democratic Republic of the Congo
Bilba [bpz],-10.67,123.34,#929C57,Malayo-Polynesian,Timoric,Indonesia-NTT
Bilbil [brz],-5.26,145.76,#AB9660,Oceanic,Western Oceanic,Papua New Guinea
Biliau [bcu-2],-5.65,146.3,#9F935F,Oceanic,Western Oceanic,Papua New Guinea
Bilin [byn],15.9,38.3,#9A5E86,Afro-Asiatic,Cushitic,Eritrea
Bilinara [nbj],-16,131.667,#F2768B,Pama-Nyungan,Ngumbin-Yapa,Australia
Biloxi [bll],32.25,-90,#419554,Siouan,Western Siouan,USA
Bilua [blb],-7.75,156.667,#A59875,Solomons East Papuan,,Solomons
Bima [bhp],-8.545,118.677,#4E8B8A,Malayo-Polynesian,Bima,Indonesia-NTB
Bima_Kolo [bhp-3],-8.32,118.76,#588486,Malayo-Polynesian,Bima,Indonesia-NTB
Bimin [bhl],-5.43,141.942,#70A45A,Trans New Guinea,Ok,Papua New Guinea
Bimoba [bim],10.46,0.06,#689FB3,Niger-Kongo,Atlantic-Congo,Ghana
Bina [bmn],-10.249,149.683,#939A42,Oceanic,Western Oceanic,Papua New Guinea
Binandere [bhg],-8.167,147.917,#6DA55D,Trans New Guinea,Oro-Wharton,Papua New Guinea
Binbinga [wmb-2],-16.17,135,#F2728E,Mirndi,Ngurlun,Australia
Bine [bon],-9.05,142.884,#A49C78,Eastern Trans Fly,,Papua New Guinea
Bini_Edo [bin],6.42,5.83,#37A18B,Niger-Kongo,Atlantic-Congo,Nigeria
Bini-2 [bin-2],6.41,5.7,#519990,Niger-Kongo,Atlantic-Congo,Nigeria
Binigura [pnv],-22.488,116.506,#FA7497,Pama-Nyungan,Kanyara-Mantharta,Australia
Bininj Gun-Wok [gup],-12.5,133.75,#E27698,Macro-Gunwinygu,Gunwingyuan proper,Australia
Bintan Orang Laut [zlm-14],1.077,104.5,#8A9B92,Malayo-Polynesian,Malayo-Sumbawan,Indonesia-Sumatra
Bintauna [bne],0.75,123.49,#769675,Malayo-Polynesian,Philippines,Indonesia-Sulawesi
Bintulu [bny],3.83,113.67,#9C8884,Malayo-Polynesian,North Borneo,Malaysia-Borneo
Binukid [bkd],8.3,125,#A8875B,Malayo-Polynesian,Philippines,Philippines
Binumarien [bjr],-6.25,146.08,#6AAF64,Trans New Guinea,Morobe-Eastern Highlands,Papua New Guinea
Binyang [cmn-47],23.22,108.82,#449DB5,Tibeto-Burman,Sinitic,China
Bipi [biq],-2.109,146.4,#8F898A,Oceanic,Admiralties,Papua New Guinea
Bira [brf-2],1.6,30.13,#2C9BB6,Niger-Kongo,Atlantic-Congo,Democratic Republic of the Congo
Bira [brf],1.5,30.03,#4A90A0,Niger-Kongo,Atlantic-Congo,Democratic Republic of the Congo
Birao [brr],-9.746,160.515,#929168,Oceanic,Southeast Solomonic,Solomons
Birgid [btf],13,27,#59979F,Afro-Asiatic,Chadic,Sudan
Biri [bvi],7.55,6.233,#5089C2,Ubangian,Sere-Mba,Nigeria
Biri [bzr],-20.5,146.5,#EE7D84,Pama-Nyungan,Greater Maric,Australia
Birifor [biv],9.29,-2.73,#4B88B1,Niger-Kongo,Atlantic-Congo,Ghana
Biritai [bqq],-3,137.6,#46CB4C,Lakes Plains,Tariku,Indonesia-Papua
Birom [bom],9.67,8.83,#3AA285,Niger-Kongo,Atlantic-Congo,Nigeria
Birriya [xpa-2],-24.5,143.5,#F97496,Pama-Nyungan,Pirriya-Kungkari,Australia
Bisa [bib],11.783,0.366,#6EA39E,Mande,Eastern Mande,Burkina Faso
Bisayah_Sarawak [bsb],5.33,115.5,#909C85,Malayo-Polynesian,North Borneo,Malaysia-Borneo
Bishnupriya [bpy],24.8,93.12,#A9855A,Indo-European,Indo-Iranian,India
Bisiacco [vec-2],45.95,12.45,#689295,Indo-European,Romance,Italy
Bissa [bib-2],10.43,-1.67,#89A797,Mande,Eastern Mande,Burkina Faso
Bisu [bii],19.75,100,#677DC7,Tibeto-Burman,Lolo-Burmese,Thailand
Bitur [mcc],-8.52,142.71,#8B994D,Anim,Tirio,Papua New Guinea
Biya [mij-6],6.615,10.18,#3B9DC5,Niger-Kongo,Atlantic-Congo,Cameroon
Biyo [byo],22.51,101.65,#399AA7,Tibeto-Burman,Lolo-Burmese,Thailand
Bizkaian [eus-6],43.25,-2.98,#A57074,Basque,,Spain
Bjokapakha [tsj-3],26.965,91.05,#767DCC,Tibeto-Burman,Bodic,Bhutan
Bjokapakha-2 [tsj-4],26.965,91.045,#698BB2,Tibeto-Burman,Bodic,Bhutan
Blablanga [blp],-8.17,159.42,#856BA8,Oceanic,Western Oceanic,Solomons
Blablanga_Ghove [blp-2],-8.33,159.5,#7666AD,Oceanic,Western Oceanic,Solomons
Black Lahu [lhu-4],20.355,99.77,#3394BB,Tibeto-Burman,Lolo-Burmese,Myanmar
Black_Tai [blt-2],19.75,105,#329BA8,Tai-Kadai,Kam-Tai,Vietnam
Blackfoot [bla],50,-112.67,#8C873C,Algic,Algonquian,Canada
Blagar [beu],-8.33,124.25,#879A67,Timor-Alor-Pantar,Alor-Pantar,Indonesia-NTT
Blang [blr],23.3,100,#5B99BB,Austroasiatic,Khasi-Palaung,China
Boano [bzl],0.51,120.99,#AA8E65,Malayo-Polynesian,Celebic,Indonesia-Sulawesi
Boano [bzn],-2.96,127.95,#84A331,Malayo-Polynesian,Central Maluku,Indonesia-Maluku-north
Boazi [kvg],-7,141.25,#3F9768,Anim,Boazi,Papua New Guinea
Boazi_Kuni [kvg-2],-6.913,141.326,#3A9D70,Anim,Boazi,Papua New Guinea
Bobangi [bni],0,17.8,#3D9A82,Niger-Kongo,Atlantic-Congo,Democratic Republic of the Congo
Bobo_Madare_North [bbo-2],12.42,-4.48,#7C9FAB,Mande,Western Mande,Burkina Faso
Bobo_Madare_South [bwq],11.54,-4.26,#6FAD97,Mande,Western Mande,Burkina Faso
Bobo-Fing [bbo],11.83,-4.42,#53A7B6,Mande,Western Mande,Burkina Faso
Bobongko [bgb],-0.5,121.75,#AC916F,Malayo-Polynesian,Celebic,Indonesia-Sulawesi
Bobot [bty],-3.33,130.17,#7F9849,Malayo-Polynesian,Central Maluku,Indonesia-Maluku-north
Bocota [sab],9.34,-82.24,#86B373,Chibchan,Core Chibchan,Panama
Bogaya [boq],-5.621,142.231,#6B9956,Trans New Guinea,Duna-Bogaya,Papua New Guinea
Bohemian [ces-3],50,13,#645C76,Indo-European,Balto-Slavic,Czech Republic
Boholano [ceb-2],9.9,124.2,#B87A65,Malayo-Polynesian,Philippines,Philippines
Bohutu [bxh],-10.5,150.33,#576361,Oceanic,Western Oceanic,Papua New Guinea
Boiken [bzf],-3.525,143.415,#6F9761,Ndu,Boiken,Papua New Guinea
Bokala [lin-2],4.57,19.02,#43A4AB,Niger-Kongo,Atlantic-Congo,Democratic Republic of the Congo
Bokar [adi-2],29,94.35,#8C9E99,Tibeto-Burman,Macro-Tani,India
Boko [bkp],10.52,3.72,#3CA179,Mande,Eastern Mande,Benin
Bokyi [bky],6.1,9.06,#4A99B0,Niger-Kongo,Atlantic-Congo,Nigeria
Bola [bnp],-5.5,150,#AB975E,Oceanic,Western Oceanic,Papua New Guinea-Bismarcks
Bola [bxd-3],24.45,98.6,#3C98B0,Tibeto-Burman,Lolo-Burmese,China
Bolaang-Mongondow [mog],0.55,124,#AD8D70,Malayo-Polynesian,Philippines,Indonesia-Sulawesi
Bolano [bzl-2],0.52,121,#B38B72,Malayo-Polynesian,Celebic,Indonesia-Sulawesi
Bole [bol],11.007,10.747,#3F8DA1,Afro-Asiatic,Chadic,Nigeria
Bolgo [bvo-2],10.9,18.81,#67A69A,Niger-Kongo,Atlantic-Congo,Chad
Bolgo_Dugag [bvo],10.79,18.61,#73ABA0,Niger-Kongo,Atlantic-Congo,Chad
Bolinao [smk],16.341,119.893,#AC9461,Malayo-Polynesian,Philippines,Philippines
Bologna [ita-4],44.51,11.35,#6B939E,Indo-European,Romance,Italy
Bolyu [ply],24.78,105.35,#3C8FC3,Austroasiatic,Mangic,China
Bom [bmf],9.28,-11.6,#5A909F,Niger-Kongo,Atlantic-Congo,Sierra Leone
Boma [boh],2.5,15.6,#3F91B0,Niger-Kongo,Atlantic-Congo,Cameroon
Bomitaba [zmx],1.701,17.371,#3D9A99,Niger-Kongo,Atlantic-Congo,Congo
Bomitaba-2 [zmx-2],1.7,17.37,#48A864,Niger-Kongo,Atlantic-Congo,Congo
Bonan [peh-6],35.7,103,#566DA7,Mongolic,Core Mongolic,China
Bonda [bfw-2],19,82.75,#C6788E,Austroasiatic,Munda,India
Bondei [bou],-5.082,38.432,#618F63,Niger-Kongo,Atlantic-Congo,Tanzania
Bonerate [bna],-7.38,121.79,#669A6C,Malayo-Polynesian,Celebic,Indonesia-Sulawesi
Bongaigaon [asm-4],26.48,90.56,#69A296,Indo-European,Indo-Iranian,India
Bonggi [bdg],7.3,117.2,#98A36A,Malayo-Polynesian,North Borneo,Philippines
Bonggo [bpg],-2.28,139.6,#929C52,Oceanic,Western Oceanic,Indonesia-Papua
Bongili [bui],0.37,16.61,#539F7D,Niger-Kongo,Atlantic-Congo,Congo
Bongo [bot],7.5,28,#5D97B3,Nilo-Saharan,Central Sudanic,South Sudan
Boni [bob],0.5,43,#6C6D85,Afro-Asiatic,Cushitic,Somalia
Bonifacino [lij-3],41.39,9.16,#4985A1,Indo-European,Romance,France
Bontoc_Guinaang [bnc-2],17.08,120.9,#AB8E5A,Malayo-Polynesian,Philippines,Philippines
Bontok [bnc],17.083,120.917,#AB9159,Malayo-Polynesian,Philippines,Philippines
Bor [bvf],5.605,27.472,#B286AB,Afro-Asiatic,Chadic,South Sudan
Bora [boa],-2.25,-71.75,#647D59,Boran,Bora,Peru
Bori [adi-5],28.2,94.6,#88A392,Tibeto-Burman,Macro-Tani,India
Bormiese [ita-16],46.47,10.375,#47939D,Indo-European,Romance,Italy
Bornholmsk [scy],55,15,#3F978C,Indo-European,Germanic,Denmark
Boro [brx],26.75,92,#6DAE8A,Tibeto-Burman,Bodo-Garo,India
Boro-Shinasha [bwo],10.66,35.34,#6BAC80,Afro-Asiatic,Omotic,Ethiopia
Borong Kosorong [ksr],-6.534,147.502,#9D9B6E,Trans New Guinea,Morobe-Eastern Highlands,Papua New Guinea
Boróro [bor],-15,-52,#9B9B53,Macro-Je,Bororo,Brazil
Bororo-2 [bor-2],-16.6,-55.2,#A09B55,Macro-Je,Bororo,Brazil
Boruca [brn],9.001,-83.325,#589388,Chibchan,Core Chibchan,Costa Rica
Bosavi [bco-2],-6.425,142.765,#6F9E53,Trans New Guinea,Bosavi,Papua New Guinea
Bosnian [bos],44,18,#606583,Indo-European,Balto-Slavic,Bosnia
Botin_Samban [kbx-2],-4.33,144.17,#8F9760,ApMa,,Papua New Guinea
Botlikh [bph],42.66,46.22,#435A6F,Nakh-Daghestanian,Avar-Andi,Russia
Bourbonnais [fra-11],46.57,3.33,#5AA196,Indo-European,Romance,France
Bouyei [pcc-5],25.817,107.55,#498AC9,Tai-Kadai,Kam-Tai,China
Bouyei_Changshun Duncao [pcc-9],25.9,106.5,#448CD0,Tai-Kadai,Kam-Tai,China
Bouyei_Dushan Huanghou [pcc-11],25.4,107.6,#4793D3,Tai-Kadai,Kam-Tai,China
Bouyei_Guiding Houchang [pcc-13],26.4,107,#4295D3,Tai-Kadai,Kam-Tai,China
Bouyei_Huishui Yashui [pcc-12],26,106.9,#4795D2,Tai-Kadai,Kam-Tai,China
Bouyei_Libo Fucun [pcc-10],25.3,108,#4998CB,Tai-Kadai,Kam-Tai,China
Bouyei_Luodian Bamao [pcc-8],25.3,106.95,#4590D4,Tai-Kadai,Kam-Tai,China
Bouyei_Luodian Luokun [pcc-7],25.25,106.7,#4493CA,Tai-Kadai,Kam-Tai,China
Bouyei_Pingtang Sizhai [pcc-14],25.65,107.4,#4996D6,Tai-Kadai,Kam-Tai,China
Bouyei_Sandu Zhouqin [pcc-15],25.7,107.9,#408BD0,Tai-Kadai,Kam-Tai,China
Bouyei_west [pcc-2],25.75,107.333,#578ED0,Tai-Kadai,Kam-Tai,China
Boze [jer-2],10.2,8.96,#42A0C5,Niger-Kongo,Atlantic-Congo,Nigeria
Brabants [nld-3],50.75,4.65,#51A287,Indo-European,Germanic,Belgium
Brag-g.yab [khg-2],30.65,97.55,#757CC6,Tibeto-Burman,Bodic,China
Brahui (Jahlawān) [brh-4],25.81,66.49,#676D60,Dravidian,North Dravidian,Pakistan
Brahui [brh],29,67,#9D5983,Dravidian,North Dravidian,Pakistan
Brahui_Jahlawan [brh-3],25.79,66.51,#616C61,Dravidian,North Dravidian,Pakistan
Brahui_Sarawan [brh-2],29,66.6,#5D6E61,Dravidian,North Dravidian,Pakistan
Brajbhasha [bra],27.49,77.67,#7C6FB9,Indo-European,Indo-Iranian,India
Brao [brb],14,107.001,#6B78C5,Austroasiatic,Bahnaric,Cambodia
Brao_Krung [brb-2],13.8,107,#8372B3,Austroasiatic,Bahnaric,Cambodia
Breton [bre],47.65,-2.75,#3F7CA0,Indo-European,Celtic,France
Breton_Grand Lorient [bre-6],47.75,-3.36,#5373C0,Indo-European,Celtic,France
Breton_Kerneveg [bre-2],48,-4.1,#3D7A9C,Indo-European,Celtic,France
Breton_Leoneg [bre-3],48.6,-4.3,#3E789D,Indo-European,Celtic,France
Breton_Plozevet [bre-5],47.99,-4.42,#637FB3,Indo-European,Celtic,France
Breton_Tregiereg [bre-4],48.5,-3.125,#3D7A9C,Indo-European,Celtic,France
Bribri [bzd],9.5,-83,#48979E,Chibchan,Core Chibchan,Costa Rica
Brinken [zmd],-14.05,130.08,#EE7A87,Western Daly,Bringen,Australia
Brokpa [sgt],27.33,92,#5B88B0,Tibeto-Burman,Bodic,Bhutan
Bru_Western [brv],16.75,104.75,#6990AA,Austroasiatic,Katuic,Laos
Brugge [vls-3],51.22,3.23,#4F9A8B,Indo-European,Germanic,Netherlands
Bruu [bru],17.167,104.333,#499EBA,Austroasiatic,Katuic,Thailand
Bu [jid],9.05,8.66,#429D9C,Niger-Kongo,Atlantic-Congo,Nigeria
Buamu [box],11.17,-3.5,#86AF74,Niger-Kongo,Atlantic-Congo,Burkina Faso
Buang_Central [bzh],-6.855,146.774,#6A6E9E,Oceanic,Western Oceanic,Papua New Guinea
Bube [bvb],3.5,8.7,#4297AA,Niger-Kongo,Atlantic-Congo,Equatorial Guinea
Bubia [bbx-2],4.02,9.22,#539CA7,Niger-Kongo,Atlantic-Congo,Cameroon
Budong-bundong [bdx],-2.171,119.328,#9F955B,Malayo-Polynesian,Greater South Sulawesi,Indonesia-Sulawesi
Budu [buu],2.01,27.95,#2A93B8,Niger-Kongo,Atlantic-Congo,Democratic Republic of the Congo
Budu-2 [buu-3],2.011,27.949,#2D9AAD,Niger-Kongo,Atlantic-Congo,Democratic Republic of the Congo
Buduma [bdm],13.6,14,#539E90,Afro-Asiatic,Chadic,Chad
Budux [bdk],41.19,48.37,#305A84,Nakh-Daghestanian,Lezgic,Russia
Bugan [bbh],23.75,105,#2D8CD0,Austroasiatic,Mangic,China
Bugan_Nala [bbh-2],23.487,105.15,#2D8CD0,Austroasiatic,Mangic,China
Bughotu [bgt],-8.478,159.808,#898C62,Oceanic,Southeast Solomonic,Solomons
Bugis [bug],-4,120,#AC927B,Malayo-Polynesian,Greater South Sulawesi,Indonesia-Sulawesi
Bugun [bgn],27.3,92.35,#4E8BAA,Tibeto-Burman,Kho-Bwa,India
Buhid [bku],12.574,121.25,#AB9362,Malayo-Polynesian,Philippines,Philippines
Buin [buo],-6.75,155.833,#9EAF5C,South Bougainville,Buin,Papua New Guinea-Bougainville
Bukar_Sadong [sdo],0.97,110.66,#7D919A,Malayo-Polynesian,Land Dayak,Malaysia-Borneo
Bukat [bvk],1.29,113.25,#B5876E,Malayo-Polynesian,Land Dayak,Malaysia-Borneo
Bukawa [buk],-6.732,147.359,#53A16A,Oceanic,Western Oceanic,Papua New Guinea
Buket [bvk-2],0.8,112.6,#9A9B61,Malayo-Polynesian,Land Dayak,Malaysia-Borneo
Bukhari [bhh],39.79,64.45,#51775A,Indo-European,Indo-Iranian,Tajikistan
Bukit [bvu],-2.75,115.64,#C48578,Malayo-Polynesian,Malayo-Sumbawan,Indonesia-Kalimantan
Bukitan [bkn],2.35,114.89,#B08D6F,Malayo-Polynesian,Malayo-Sumbawan,Malaysia-Borneo
Bukiyip_Arapesh [ape],-3.667,142.5,#7F9F7E,Torricelli,Kombio-Arapesh,Papua New Guinea
Bukusu [bxk],1.02,35,#9D9562,Niger-Kongo,Atlantic-Congo,Kenya
Bularnu [yil],-21.5,137.5,#F071A1,Pama-Nyungan,Warluwaric,Australia
Bulgarian [bul],43,25,#467270,Indo-European,Balto-Slavic,Bulgaria
Bulgarian_Banat [bul-6],45.7,20.9,#477B87,Indo-European,Balto-Slavic,Bulgaria
Bulgarian_Boboshevo [bul-4],42.15,23,#526C67,Indo-European,Balto-Slavic,Bulgaria
Bulgarian_Erkech [bul-5],42.84,27.58,#4E7069,Indo-European,Balto-Slavic,Bulgaria
Bulgarian_Gabare [bul-8],43.316,21.92,#516E6C,Indo-European,Balto-Slavic,Bulgaria
Bulgarian_Lovec [bul-9],43.14,24.71,#4C7271,Indo-European,Balto-Slavic,Bulgaria
Bulgarian_Moesian [bul-3],42.7,27.75,#5C76A1,Indo-European,Balto-Slavic,Bulgaria
Bulgarian_Momchilovci [bul-10],41.66,24.77,#48756B,Indo-European,Balto-Slavic,Bulgaria
Bulgarian_North-west [bul-7],43.6,23.18,#447471,Indo-European,Balto-Slavic,Bulgaria
Bulgarian_Nova Nadezda [bul-11],42.02,25.72,#576C69,Indo-European,Balto-Slavic,Bulgaria
Buli [bzq],0.833,128.5,#A09171,Malayo-Polynesian,Eastern Malayo-Polynesian,Indonesia-Maluku-north
Bulu [bjl],-5.06,150.1,#8F9C57,Oceanic,Western Oceanic,Papua New Guinea-Bismarcks
Bulu [bum],2.917,11.15,#389599,Niger-Kongo,Atlantic-Congo,Cameroon
Bulungan [bdb-2],0.89,117.58,#AF9378,Malayo-Polynesian,Basap,Indonesia-Kalimantan
Bulusu [bqr],3,116,#AE926E,Malayo-Polynesian,Bulusu,Indonesia-Kalimantan
Bum [bmv],6.49,10.42,#3C988F,Niger-Kongo,Atlantic-Congo,Cameroon
Buma [tkw-2],-11.615,166.966,#B28090,Oceanic,Te Motu,Solomons_East
Buma [yns-2],-3.33,17.5,#488CB8,Niger-Kongo,Atlantic-Congo,Democratic Republic of the Congo
Bumang [bvp],22.5,96.5,#359CC5,Austroasiatic,Khasi-Palaung,Laos
Bumbita_Arapesh [aon],-3.667,142.833,#8C8E63,Torricelli,Kombio-Arapesh,Papua New Guinea
Bumthang [kjz],27.802,90.8,#6E88C8,Tibeto-Burman,Bodic,Bhutan
Bumthang_Ura [kjz-2],27.48,90.905,#42A1E5,Tibeto-Burman,Bodic,Bhutan
Bunama [bdd],-10.064,151.075,#8B7858,Oceanic,Western Oceanic,Papua New Guinea
Bunan [bfu],32.61,76.91,#5385BE,Tibeto-Burman,Western Himalayan,India
Bunaq [bfn],-9.1,125.15,#4C9B6A,Timor-Alor-Pantar,Mainland Timor-Alor-Pantar,Indonesia-NTT
Bunaq_Lolotoen [bfn-2],-9.161,125.26,#4C9965,Timor-Alor-Pantar,Mainland Timor-Alor-Pantar,Timor leste
Bunaq_South [bfn-3],-9.227,125.393,#539766,Timor-Alor-Pantar,Mainland Timor-Alor-Pantar,Timor leste
Bundeli [bns],23.18,79.95,#9D6CBF,Indo-European,Indo-Iranian,India
Bunganditj [xbg],-36.5,141,#F97297,Pama-Nyungan,Kulinic,Australia
Bungku [bkz],-3,122.33,#6E9C72,Malayo-Polynesian,Celebic,Indonesia-Sulawesi
Bungku_Tulambatu [bkz-2],-3.17,122.12,#639A75,Malayo-Polynesian,Celebic,Indonesia-Sulawesi
Bungu [wun],-8.33,32.88,#359FC0,Niger-Kongo,Atlantic-Congo,Tanzania
Bunong [cmo],12.63,107.3,#6C7FBB,Austroasiatic,Bahnaric,Cambodia
Bunu [buh],25.5,108.7,#3887EB,Hmong-Mien,Hmongic,China
Bunu_Dongnu [bwx],23.88,108.08,#2485FA,Hmong-Mien,Hmongic,China
Bunu_Nunu [bwx-2],23.799,110.178,#308ED7,Hmong-Mien,Hmongic,China
Bunuba [bck],-17.75,125.75,#F97698,Bunuban,,Australia
Bunun [bnn],23.5,121,#8A884B,Austronesian,Bunun,Taiwan
Bunun_Isbukun [bnn-2],23.459,121.056,#796F5B,Austronesian,Bunun,Taiwan
Buol [blf],1,121.5,#91995D,Malayo-Polynesian,Philippines,Indonesia-Sulawesi
Bura [bwr],10.611,12.195,#3571A5,Afro-Asiatic,Chadic,Nigeria
Burarra [bvr],-12.25,134.667,#E57B9B,Macro-Gunwinygu,Maningrida,Australia
Burji [bji],5.5,37.9,#5B7466,Afro-Asiatic,Cushitic,Ethiopia
Burmbar [vrt],-16.372,167.749,#76A66C,Oceanic,Southern Oceanic,Vanuatu
Burmese [mya],20,96,#4B86D1,Tibeto-Burman,Lolo-Burmese,Myanmar
Burmese_Arakan [mya-4],20.14,92.9,#4D86D9,Tibeto-Burman,Lolo-Burmese,Myanmar
Burmese_Intha [mya-3],20.55,96.92,#518ACB,Tibeto-Burman,Lolo-Burmese,Myanmar
Burmese_Myeik [mya-2],12.43,98.6,#3B91BE,Tibeto-Burman,Lolo-Burmese,Myanmar
Burmese_Palaw [mya-6],13.12,98.68,#4494BE,Tibeto-Burman,Lolo-Burmese,Myanmar
Burmese_Tavoyan [mya-5],14.08,98.2,#4389D5,Tibeto-Burman,Lolo-Burmese,Myanmar
Burmeso [bzu],-2.447,138.209,#728E47,Burmeso,,Indonesia-Papua
Buru [mhs],-3.7,126.4,#A19066,Malayo-Polynesian,Central Maluku,Indonesia-Maluku-north
Burum [bmu],-6.484,147.311,#AE7D70,Trans New Guinea,Morobe-Eastern Highlands,Papua New Guinea
Burum_Mindik [bmu-3],-6.47,147.44,#727163,Trans New Guinea,Morobe-Eastern Highlands,Papua New Guinea
Burun [bdi-2],10.8,33.8,#B797A7,Nilo-Saharan,Eastern Sudanic,Sudan
Burushaski [bsk],36.5,74.5,#5766B0,Burushaski,,Pakistan
Burushaski_eastern [bsk-2],36.32,74.65,#5073BE,Burushaski,,Pakistan
Burushaski_Jammu-Kashmir [bsk-3],34.11,74.82,#6A6CBC,Burushaski,,India
Buruwai [asi-2],-3.55,133.33,#889A4C,Trans New Guinea,Asmat-Kamoro,Indonesia-Papua
Buryat [bxm],52,108,#6B965D,Mongolic,Core Mongolic,Russia
Busa [bqp],9.67,4,#289586,Mande,Eastern Mande,Nigeria
Busa-2 [bqp-2],9.91,4.4,#44AC6C,Mande,Eastern Mande,Nigeria
Busami [bsm],-1.8,135.95,#909D4B,Malayo-Polynesian,Eastern Malayo-Polynesian,Indonesia-Papua
Bushong [buf],-4.67,21.3,#54A3B6,Niger-Kongo,Atlantic-Congo,Democratic Republic of the Congo
Busoa [bup],-5.62,122.616,#458A86,Malayo-Polynesian,Celebic,Indonesia-Sulawesi
Butmas_Tur [bnr],-15.376,167.028,#A79A6C,Oceanic,Southern Oceanic,Vanuatu
Buwal [bhs],10.5,13.86,#3B60AC,Afro-Asiatic,Chadic,Cameroon
Buxing [bgk-2],21.48,101.57,#488BB2,Austroasiatic,Khasi-Palaung,China
Buyang [yha],24,104.8,#3F7FDD,Tai-Kadai,Kadaic,China
Buyi_Hezhang [pcc-3],27.12,104.73,#348ED0,Tai-Kadai,Kam-Tai,China
Buyuan_Jino [jiy],22.05,101,#41A3C3,Tibeto-Burman,Lolo-Burmese,China
Bwaidoka [bwd],-9.479,150.311,#777F52,Oceanic,Western Oceanic,Papua New Guinea
Bwala [xxx-115],-4.45,16.2,#338BAF,Niger-Kongo,Atlantic-Congo,Democratic Republic of the Congo
Byansi [bee],30.17,80.5,#7483C8,Tibeto-Burman,Western Himalayan,India
C'lela [dri],11.47,5.27,#3552A8,Niger-Kongo,Atlantic-Congo,Nigeria
Caac [msq],-20.42,164.42,#9B72C4,Oceanic,Southern Oceanic,New Caledonia
Cabecar [cjp],9.91,-83.68,#58A0AF,Chibchan,Core Chibchan,Costa Rica
Cabiyarí [cbb],-0.1302,-70.6927,#9F8E49,Arawak,Northern Maipuran,Colombia
Cacaopera [ccr],13.74,-88.11,#9E8C48,Misumalpan,Sumalpan,Nicaragua
Caddo [cad],33.33,-93.5,#47855A,Caddoan,Caddo,USA
Cadorino [ita-21],46.445,12.39,#569A91,Indo-European,Romance,Italy
Cagayano [cgc-2],10.47,119.87,#A58659,Malayo-Polynesian,Philippines,Philippines
Cagliaritano [ita-55],39.225,9.15,#4D9096,Indo-European,Romance,Italy
Cahita [opt-2],27.9,-109,#62935F,Uto-Aztecan,Cahitan,Mexico
Cahuilla [chl],33.75,-117.75,#825172,Uto-Aztecan,North Uto-Aztecan,USA
Caijia_Niujiaojing [xxx-51],27.067,104.297,#3784D1,Tibeto-Burman,Macro-Bai,China
Caijia_Xingfa [xxx-45],26.934,104.863,#3B8FC4,Tibeto-Burman,Macro-Bai,China
Cak [ckh],21.41,92.6,#4F90B0,Tibeto-Burman,Jingpho,Bangladesh
Cakchiquel [ckf],14.5,-91,#576463,Mayan,Core Mayan,Guatemala
Calabrian [scn-4],38.148,16.18,#477BAD,Indo-European,Romance,Italy
Calabrian-2 [scn-3],38.92,16.6,#5A7BA7,Indo-European,Romance,Italy
Callahuaya [caw],-15,-69,#8D5978,Puquina,,Bolivia
Calusa [xxx-100],27.76,-82.55,#A08E61,Tunica,,USA
Camling [rab],27.3,86.8,#6A79B5,Tibeto-Burman,Kiranti,Nepal
Campa [cni],-12,-74,#89804E,Arawak,Southern Maipuran,Peru
Campalagian [cml],-4.02,119.62,#B68D7D,Malayo-Polynesian,Greater South Sulawesi,Indonesia-Sulawesi
Campobassano [ita-45],41.6,14.66,#5C8EA0,Indo-European,Romance,Italy
Camsá [kbh],1,-77,#42867D,Camsá,,Colombia
Camuno [lmo-7],45.943,10.28,#5A9E9A,Indo-European,Romance,Italy
Canamari [knm-2],-6.46,-68.78,#B0945D,Katukinan,,Brazil
Candoshi [cbu],-4.17,-77,#6A7454,Candoshi,,Peru
Canela-Krahô [ram],-6.5,-45,#87A778,Macro-Je,Je,Brazil
Canichana [caz],-14.31,-64.94,#79864B,Canichana-Tequiraca,,Bolivia
Cantabrian_East [spa-7],43.3,-3.9,#8A9C75,Indo-European,Romance,Spain
Cantabrian_West [spa-8],43.3,-4.1,#8A9F75,Indo-European,Romance,Spain
Cantonese [yue],22.333,114,#4899B8,Tibeto-Burman,Sinitic,Hong Kong
Cantonese_Nanning [yue-10],22.817,108.317,#3B98B5,Tibeto-Burman,Sinitic,China
Canzés [lmo-6],45.85,9.27,#5393A9,Indo-European,Romance,Italy
Cao Bang [zyg-2],23.18,105.41,#439BCE,Tai-Kadai,Kam-Tai,China
Caodeng_rGyalrong [jya-4],32.2,101.8,#3A7DC3,Tibeto-Burman,Na-Qiangic,China
Capanahua [kaq],-7,-74,#528B5A,Panoan,Southern Panoan,Peru
Cappadocian [cpg],38.66,34.85,#616BAD,Indo-European,Graeco-Phrygian,Turkey
Caquinte [cot],-11.7092,-73.9252,#9E7C66,Arawak,Southern Maipuran,Peru
Car [caq],9.167,92.75,#969A93,Austroasiatic,Nicobar,India_Andaman-Nicobars
Cara [cfd],10.13,8.75,#5091AB,Niger-Kongo,Atlantic-Congo,Nigeria
Carapana [cbc],0.45,-71,#5EA945,Tucanoan,East Tucanoan,Colombia
Carib [car],7.85,-59,#71A062,Cariban,Guianan Carib,Guyana
Carib_Suriname [crb],5.7,-55.932,#9A9F4C,Arawak,Northern Maipuran,Suriname
Carib_Venezuela [crb-2],7.969,-65.67,#9E9C4A,Arawak,Northern Maipuran,Venezuela
Carijona [cbd],0.148,-70.708,#829C53,Cariban,Guianan Carib,Colombia
Carolinian [cal],15,146,#7078A4,Oceanic,Micronesian,USA Northern Mariana Islands
Carrarese [ita-29],44.08,10.1,#6190A4,Indo-European,Romance,Italy
Cashibo-Cacataibo [cbr],-9.1,-75.5,#589259,Panoan,Southern Panoan,Peru
Cashinahua [cbs],-10.5,-71.75,#439058,Panoan,Southern Panoan,Peru
Castagniers [frp-4],43.79,7.23,#5D998F,Indo-European,Romance,France
Castellanese [sdn-6],40.913,8.71,#6A85AB,Indo-European,Romance,Italy-Sardinia
Catalan [cat],41.4,2.02,#7984B0,Indo-European,Romance,Spain
Catalan_Northern [cat-5],42.7,2.9,#887EAC,Indo-European,Romance,France
Catalan_Northwestern [cat-6],42.5,1.5,#867EAD,Indo-European,Romance,Andorra
Catanese [ita-52],37.5,15.1,#5F839E,Indo-European,Romance,Italy
Catanzarese [ita-51],38.9,16.6,#7082A5,Indo-European,Romance,Italy
Catawba [chc],34,-81,#718B4A,Siouan,Eastern Siouan,USA
Cauho [pho-7],21.4,102,#489ACD,Tibeto-Burman,Lolo-Burmese,Laos
Cavineña [cav],-12.25,-67.5,#977562,Tacanan,Cavineña,Bolivia
Cayapa [cbi],1.2,-78.75,#976A86,Barbacoan,Southern Barbacoan,Ecuador
Cayapo [txu-2],-7.77,-51.67,#A2A88A,Macro-Je,Je,Brazil
Cayuga [cay],42.75,-76.75,#5D9E48,Iroquoian,Northern Iroquoian,USA
Cayuse [xcy],46.11,-117.94,#636C5A,Cayuse,,USA
Cayuvava [cyb],-12.5,-67,#639B5E,Cayuvava,,Bolivia
Ce [ruk],10,8.67,#6396C4,Niger-Kongo,Atlantic-Congo,Nigeria
Cebuano [ceb],10,124,#B47966,Malayo-Polynesian,Philippines,Philippines
Cemuhi [cam],-20.833,165,#6793AB,Oceanic,Southern Oceanic,New Caledonia
Central !Kung [nmn-3],-19.57,18.12,#3F71CF,Tuu,Hua,Botswana
Central Banda [tor],6.64,22.76,#2E98B0,Ubangian,Bandaic,Central African Republic
Central-Eastern Niger Fulfulde [fuq],15.09,8.43,#6E87B7,Niger-Kongo,Atlantic-Congo,Niger
Cerma [cme],10.249,-4.85,#8C949A,Niger-Kongo,Atlantic-Congo,Burkina Faso
Ch'ol [cti],17.49,-92.47,#618059,Mayan,Core Mayan,Mexico
Cha'palaachi [cbi-2],0.838,-78.877,#695C7B,Barbacoan,Southern Barbacoan,Ecuador
Chachapuya [xxx-109],-6.42,-77.92,#737C64,Chachapoya,,Peru
Chacobo [cao],-12.25,-65,#707D46,Panoan,Southern Panoan,Bolivia
Chadong [cdy],25.2,110.2,#4084DE,Tai-Kadai,Kam-Tai,China
Chaga-Kiwoso [old-2],-3.29,37.57,#6196A3,Niger-Kongo,Atlantic-Congo,Kenya
Chaga-Ng'uni [jmc-3],-3.18,37.2,#60A594,Niger-Kongo,Atlantic-Congo,Kenya
Chaga-Rombo-North [rof],-3.08,37.54,#6099A0,Niger-Kongo,Atlantic-Congo,Kenya
Chaga-Rombo-South [rof-2],-3.21,37.54,#6893A7,Niger-Kongo,Atlantic-Congo,Kenya
Chaga-Siha [jmc-2],-3.36,36.92,#6AA98A,Niger-Kongo,Atlantic-Congo,Kenya
Chaga-Vunjo [wun],-3.43,37.58,#5684B6,Niger-Kongo,Atlantic-Congo,Kenya
Chaha [sgw],8.2,38,#3E8263,Afro-Asiatic,Semitic,Ethiopia
Chakali [cli],9.83,-1.9,#4DAAC4,Niger-Kongo,Atlantic-Congo,Ghana
Chakavian [hrv-2],45.17,14.85,#4695A1,Indo-European,Balto-Slavic,Croatia
Chakhar [mon-5],44.94,115.38,#739D6A,Mongolic,Core Mongolic,Mongolia
Chakhar-2 [mon-6],43,115,#7D7265,Mongolic,Core Mongolic,China
Chakma [ccp],22.9,92.23,#5C949D,Indo-European,Indo-Iranian,Bangladesh
Chakosi [cko-2],10.36,0.48,#619EAD,Niger-Kongo,Atlantic-Congo,Ghana
Chali [tgf],27.3,91.26,#6D7EC4,Tibeto-Burman,Bodic,Bhutan
Chaling [gan-20],28.81,113.64,#3599C4,Tibeto-Burman,Sinitic,China
Cham_Eastern [cjm],10.93,108.1,#6F91BC,Malayo-Polynesian,Malayo-Sumbawan,Vietnam
Cham_Western [cja],12,105.5,#808EA4,Malayo-Polynesian,Malayo-Sumbawan,Cambodia
Chama [ese-5],-11.33,-66.25,#6A784A,Tacanan,Takanik-Chamik,Bolivia
Chamacoco [ceg],-22.3578,-59.7197,#55865D,Zamucoan,,Paraguay
Chamalal_Gigatil [cji],42.54,46.06,#355371,Nakh-Daghestanian,Avar-Andi,Russia
Chamalal_Nizhnee_Gakvari [cji-2],42.53,46.05,#315272,Nakh-Daghestanian,Avar-Andi,Russia
Chamba [ndi-2],8.19,11.74,#5AA0B5,Niger-Kongo,Atlantic-Congo,Cameroon
Chambri [can],-4.167,143.083,#82B17D,Lower Sepik-Ramu,Lower Sepik,Papua New Guinea
Chamicuro [ccc],-5.114,-75.736,#876E82,Arawak,Western Maipuran,Peru
Chamorro [cha],13.583,145,#659F82,Malayo-Polynesian,Chamorro,USA Federated States of Micronesia Guam
Chaná [qsi],-34,-55,#759069,Charruan,,Uruguay
Chang Naga [nbc],26.23,94.817,#658185,Tibeto-Burman,Konyak,India
Changana [tso-2],-24.516,31.504,#1C6FD3,Niger-Kongo,Atlantic-Congo,South Africa
Changchow [nan-25],24.75,117.833,#3798C1,Tibeto-Burman,Sinitic,China
Changchun [cmn-21],43.88,125.32,#3893CA,Tibeto-Burman,Sinitic,China
Changle [cmn-48],25.92,119.55,#3496BD,Tibeto-Burman,Sinitic,China
Changpaoyao [bmt-2],25.417,107.88,#368AF0,Hmong-Mien,Mienic,China
Changsha [hsn],28,113,#38A1BD,Tibeto-Burman,Sinitic,China
Changsha_Old [hsn-25],27.9,112.9,#3C9FBF,Tibeto-Burman,Sinitic,China
Changting [hak-14],25.83,116.35,#419CBE,Tibeto-Burman,Sinitic,China
Changzhi [cjy-4],36.167,113,#3C9F97,Tibeto-Burman,Sinitic,China
Changzhou [wuu-32],31.783,119.967,#3D98D2,Tibeto-Burman,Sinitic,China
Channel_English [eng-8],49.45,-2.54,#468E90,Indo-European,Germanic,Britain
Chantyal [chx],28.75,83.5,#858EAC,Tibeto-Burman,Bodic,Nepal
Chaoyang [nan-42],23.32,116.48,#3AA5B3,Tibeto-Burman,Sinitic,China
Chaozhou [nan-26],23.667,116.667,#45A4BC,Tibeto-Burman,Sinitic,China
Chaplino [ess-2],65,-173,#75665A,Eskimo-Aleut,Eskimo,Russia
Chaplino_Alaska [ess-3],63.5,-170.5,#663D79,Eskimo-Aleut,Eskimo,USA-Alaska
Chara [cra],6.64,36.42,#516A74,Afro-Asiatic,Omotic,Ethiopia
Chara-2 [cra-2],6.617,36.238,#457A5F,Afro-Asiatic,Omotic,Ethiopia
Charleroi [wln-2],50.41,4.45,#6C9A87,Indo-European,Romance,Belgium
Chatino [ctp],16.5,-97.25,#41A7A2,Otomanguean,Eastern Otomanguean,Mexico
Chatino_Tataltepec [cta],16.3,-97.55,#3C82B7,Otomanguean,Eastern Otomanguean,Mexico
Chatino_Yaitepec [ctp-2],16.225,-97.27,#3DADA5,Otomanguean,Eastern Otomanguean,Mexico
Chatino_Zenzontepec [czn],17.34,-92.34,#54746A,Otomanguean,Eastern Otomanguean,Mexico
Chattisgarhi [hne],21.25,81.25,#8481AC,Indo-European,Indo-Iranian,India
Chaudangsi [cdn],29.7,80.48,#8374D5,Tibeto-Burman,Western Himalayan,India
Che [ruk-2],10.03,8.65,#5C91BE,Niger-Kongo,Atlantic-Congo,Nigeria
Che'_Wong [cwg],3.833,102,#9D82A1,Austroasiatic,Aslian,Malaysia
Chechen [che],43.13,45.54,#2D5987,Nakh-Daghestanian,Nakh,Russia
Chechen_Pẋarçxoy Äqqiy [che-4],43.12,46.48,#24697E,Nakh-Daghestanian,Nakh,Russia
Chechen_Şaroy [che-3],42.63,45.8,#365B76,Nakh-Daghestanian,Nakh,Russia
Chechen_Ҫ̇äberloy [che-2],42.6,46,#365B76,Nakh-Daghestanian,Nakh,Russia
Cheke_Holo_Maringe [mrn],-8.5,159.67,#736BB3,Oceanic,Western Oceanic,Solomons
Chemakum [xch],48.08,-122.93,#534456,Chimakuan,,USA
Chemehuevi [ute-2],34.33,-115.17,#794F7B,Uto-Aztecan,Numic,USA
Chemnitz [nds-5],50.83,12.92,#407D82,Indo-European,Germanic,Germany
Chen [nbe-2],26.58,95.1,#5797B6,Tibeto-Burman,Konyak,India
Chenapian [cjn],-4.25,142.33,#67A77F,Sepik,Iwam-Wogamus,Papua New Guinea
Chenchu [cde],15.88,79.25,#BE8B6C,Dravidian,South-Central Dravidian,India
Cheng [jeg],15,107.167,#76A290,Austroasiatic,Bahnaric,Laos
Chengdu [cmn-14],30.6,104.1,#3A9FB8,Tibeto-Burman,Sinitic,China
Chengfeng [xxx-87],29.685,113.49,#3E7BCF,Hmong-Mien,Hmongic,China
Chengqiao [wuu-6],31.63,121.4,#26A2CF,Tibeto-Burman,Sinitic,China
Chenxian [hsn-18],26.34,113.285,#45A6C2,Tibeto-Burman,Sinitic,China
Chenzhou [hsn-8],25.77,113.01,#45A6BF,Tibeto-Burman,Sinitic,China
Chepang [cdm],28.05,83.92,#6868CD,Tibeto-Burman,Chepang,Nepal
Cheremis [mrj],55.624,55.484,#538882,Uralic,Mari,Russia
Cherepon [cpn],6.05,-0.11,#6D8FA2,Niger-Kongo,Atlantic-Congo,Ghana
Cherokee [chr],35.5,-83.5,#72974B,Iroquoian,Southern Iroquoian,USA
Cherokee_lower [chr-3],37.48,-82.53,#679A46,Iroquoian,Southern Iroquoian,USA
Cherokee_Qualla [chr-2],35.5,-83.26,#819945,Iroquoian,Southern Iroquoian,USA
Cheyenne [chy],43.5,-104,#699A3F,Algic,Algonquian,USA
Chiapanec [cip],16.66,-91.94,#739D6B,Otomanguean,Western Otomanguean,Mexico
Chibcha [chb-2],9.2,-74.5,#6B8E52,Chibchan,Core Chibchan,Colombia
Chichewa [nya-2],-14.8,32.81,#3282BC,Niger-Kongo,Atlantic-Congo,Malawi
Chichimec [pei],24.87,-103.7,#377A8C,Otomanguean,Western Otomanguean,Mexico
Chichimeco-Jonaz [pei],21.29,-100.52,#2E86A4,Otomanguean,Western Otomanguean,Mexico
Chickasaw [cic],34,-88,#46906C,Muskogean,Western Muskogean,USA
Chietino [ita-44],42.35,14.17,#598E95,Indo-European,Romance,Italy
Chifundi [swh-13],-4.57,39.43,#557099,Niger-Kongo,Atlantic-Congo,Tanzania
Chiguano_Izoceño [gui-2],-20,-63,#59A03A,Tupian,Tupi-Guarani,Bolivia
ChiKunda [kdn],-15.73,30.28,#2F91A6,Niger-Kongo,Atlantic-Congo,Mozambique
Chilcotin [clc],52,-125,#243B6D,Dene-Yeniseic,Na-Dene,Canada
Chimane [cas-4],-14.64,-67.84,#5B8A5E,Moseten,Chimane,Bolivia
Chimariko [cid],41,-123,#634977,Chimariko,,USA
Chimila [cbg],10.75,-73,#5C78B7,Chibchan,Core Chibchan,Colombia
Chimwiini [swh-4],1.1,43,#607CA3,Niger-Kongo,Atlantic-Congo,Somalia
Chin_Daai [dao],21.1,93.65,#468CB3,Tibeto-Burman,Kuki-Chin-Naga,Myanmar
Chin_Daai_Mkuui [dao-2],21.25,93.5,#508EC5,Tibeto-Burman,Kuki-Chin-Naga,Myanmar
Chin_Falam [cfm],22.9,93.67,#637AC4,Tibeto-Burman,Kuki-Chin-Naga,Myanmar
Chin_Tiddim [ctd],23.333,93.667,#6AA3A5,Tibeto-Burman,Kuki-Chin-Naga,Myanmar
Chinali [cih],32.5,77.83,#7B70AE,Indo-European,Indo-Iranian,India
Chinantec_Chiltepec [csa],17.93,-96.17,#5FA195,Otomanguean,Western Otomanguean,Mexico
Chinantec_Comaltepec [cco],17.57,-96.55,#4AAFAC,Otomanguean,Western Otomanguean,Mexico
Chinantec_La-Alicia [xxx-96],17.64,-96.02,#5CA1AF,Otomanguean,Western Otomanguean,Mexico
Chinantec_Lacova [xxx-80],17.46,-95.94,#549EAE,Otomanguean,Western Otomanguean,Mexico
Chinantec_Lalana [cnl],17.475,-95.875,#45A7C0,Otomanguean,Western Otomanguean,Mexico
Chinantec_Latani [tpx-2],17.38,-95.91,#56A29F,Otomanguean,Western Otomanguean,Mexico
Chinantec_Lealao [cle],17.32,-95.93,#499CB3,Otomanguean,Western Otomanguean,Mexico
Chinantec_Mayultianguis [xxx-99],17.92,-96.57,#56A29F,Otomanguean,Western Otomanguean,Mexico
Chinantec_Ojitlan [chj],18.05,-96.4,#5BA5BD,Otomanguean,Western Otomanguean,Mexico
Chinantec_Ozumacin [chz],17.68,-96.23,#4DA3BB,Otomanguean,Western Otomanguean,Mexico
Chinantec_Palantla [cpa],17.83,-96.39,#43A6A9,Otomanguean,Western Otomanguean,Mexico
Chinantec_Petlapa [xxx-105],17.48,-96.025,#549EAE,Otomanguean,Western Otomanguean,Mexico
Chinantec_Quetzalapa [xxx-93],17.34,-95.88,#4DA3B0,Otomanguean,Western Otomanguean,Mexico
Chinantec_Quiotepec [chq],17.6,-96.58,#3F9CC2,Otomanguean,Western Otomanguean,Mexico
Chinantec_Rio-Chiquito [xxx-95],17.6,-95.97,#5AA1AA,Otomanguean,Western Otomanguean,Mexico
Chinantec_Sochiapam [cso],17.825,-96.67,#3AAAA9,Otomanguean,Western Otomanguean,Mexico
Chinantec_Temextitlan [cco-2],17.59,-96.55,#5BB467,Otomanguean,Western Otomanguean,Mexico
Chinantec_Teotalcingo [xxx-94],17.42,-95.95,#549EAE,Otomanguean,Western Otomanguean,Mexico
Chinantec_Tepetotutla [cnt],17.26,-96.11,#47A5BD,Otomanguean,Western Otomanguean,Mexico
Chinantec_Tlacoatzintepec [ctl],17.86,-96.6,#49A4AE,Otomanguean,Western Otomanguean,Mexico
Chinantec_Usila [cuc],17.89,-96.52,#4BA7BA,Otomanguean,Western Otomanguean,Mexico
Chinantec_Valle_Nacional [cvn],17.77,-96.3,#59A68F,Otomanguean,Western Otomanguean,Mexico
Chinantec_Yolox [xty],17.61,-96.57,#50A29E,Otomanguean,Western Otomanguean,Mexico
Chindamba [ndj],-8.4,36.03,#559D8E,Niger-Kongo,Atlantic-Congo,Tanzania
Chinook [chh],46,-124,#625757,Chinook,Lower Chinook,USA
Chinsenga [nse],-15.39,31.35,#4C8CAA,Niger-Kongo,Atlantic-Congo,Mozambique
ChiNyanja [nya],-15,35,#388BAE,Niger-Kongo,Atlantic-Congo,Malawi
Chioggiotto [ita-23],44.22,12.28,#62A08F,Indo-European,Romance,Italy
Chipaya [cap],-19,-68,#563B8D,Uru-Chipaya,,Bolivia
Chiquimulilla [xin-2],14.08,-90.38,#564E87,Xinca,,Guatemala
Chiquitano [cax],-17.5,-62,#6A8250,Chiquitano,,Bolivia
Chiquitano_Migueleño [cax-3],-17,-60.97,#7A8752,Chiquitano,,Bolivia
Chiricahua [apm],33.5,-108,#166E77,Dene-Yeniseic,Na-Dene,USA
Chiriguano_Chané [gui-3],-17.793,-63.18,#81994E,Tupian,Tupi-Guarani,Bolivia
Chiru [cdf],24.99,93.5,#5C9FA0,Tibeto-Burman,Kuki-Chin-Naga,India
Chitimacha [ctm],29.67,-91,#428A62,Totozoquean-Chitimacha,Chitimacha,USA
Chitoniya_Tharu [the],27.58,84.41,#8A6CBD,Indo-European,Indo-Iranian,Nepal
Chittagong [ben-2],22.37,91.8,#4D8692,Indo-European,Indo-Iranian,Bangladesh
Chiwere [iow-2],40.05,-95.52,#6D805D,Siouan,Western Siouan,USA
Chöcangacakha [cgk],27.53,91.14,#5A89CA,Tibeto-Burman,Bodic,Bhutan
Chöcangacakha-2 [cgk-2],27.55,90.92,#5296BA,Tibeto-Burman,Bodic,Bhutan
Chochenyo [cst],37.65,-121.91,#8A7556,Yok-Utian,Utian,USA
Chocho [coz],17.67,-97.33,#298BB4,Otomanguean,Eastern Otomanguean,Mexico
Choctaw [cho],32.25,-88.5,#5B8551,Muskogean,Western Muskogean,USA
Chokobo [cbo],10.35,8.85,#538EAF,Niger-Kongo,Atlantic-Congo,Nigeria
Chokri [nri],26.67,93.75,#5584D1,Tibeto-Burman,Kuki-Chin-Naga,India
Chokri-2 [nri-2],25.7,94.3,#4187C8,Tibeto-Burman,Kuki-Chin-Naga,India
Chokwe [cjk],-9.702,22.876,#328DB9,Niger-Kongo,Atlantic-Congo,Democratic Republic of the Congo
Cholon [cht],-8,-77.5,#887757,Cholon,,Peru
Chomo [cfg],8.87,10.82,#3CA459,Niger-Kongo,Atlantic-Congo,Nigeria
Chong [cog-2],12.91,102.01,#6D8AB8,Austroasiatic,Pearic,Thailand
Chong'an [mnp-5],27.76,118.03,#4AA1BC,Tibeto-Burman,Sinitic,China
Chongming [wuu-35],31.67,121.5,#3C81D0,Tibeto-Burman,Sinitic,China
Chongqing [cmn-61],29.55,106.6,#33A1BD,Tibeto-Burman,Sinitic,China
Chongyang [gan-3],29.55,114.17,#39A2BC,Tibeto-Burman,Sinitic,China
Chono [xxx-70],-46,-75,#988176,Chonan,Chonan Proper,Chile
Chontal [chd],18.17,-92.58,#4E816D,Mayan,Core Mayan,Mexico
Chontal [clo],16.3,-95.5,#69755B,Tequistlatecan,,Mexico
Chonyi [coh],-3.8,39.76,#4C7FB8,Niger-Kongo,Atlantic-Congo,Kenya
Chopi [cce],-24.718,34.744,#3190B0,Niger-Kongo,Atlantic-Congo,Mozambique
Chori [cry],9.59,8.06,#436FBB,Niger-Kongo,Atlantic-Congo,Nigeria
Chorote [crq],-22,-63,#7D6B73,Matacoan,Mataguayo II,Argentina
Chorti [caa],14.8,-89.3,#5C6F5D,Mayan,Core Mayan,Guatemala
Chrau [crw],10.667,107.5,#849498,Austroasiatic,Bahnaric,Vietnam
Chru [cje],11.774,108.575,#A9928D,Malayo-Polynesian,Malayo-Sumbawan,Vietnam
Chuave [cjv],-6.168,145.119,#60B36B,Trans New Guinea,Chimbu-Wahgi,Papua New Guinea
Chuj [cac],16,-91.5,#776A62,Mayan,Core Mayan,Mexico
Chuj_Ixtatán [cnm],15.833,-91.483,#76606E,Mayan,Core Mayan,Guatemala
Chukchansi [yok-4],36.99,-119.64,#5F478A,Yok-Utian,Yokuts,USA
Chukchi [ckt],67,-173,#C38464,Chukotko-Kamchatkan,Main Chukotko-Kamchatkan,Russia
Chulym [clw],54.32,89.55,#4F6CA3,Turkic,Common Turkic,Russia
Chumash [boi],34.5,-120.25,#394E96,Chumashan,South Chumashan,USA
Chumash_Barbareño [boi-2],34.46,-119.7,#354A92,Chumashan,South Chumashan,USA
Chumash_Cruzeño [veo-4],34.05,-119.86,#364B92,Chumashan,South Chumashan,USA
Chumash_Ineseño [inz],34.61,-120.09,#354B92,Chumashan,South Chumashan,USA
Chumash_Obispeño [veo-5],35.29,-120.67,#35488A,Chumashan,North Chumashan,USA
Chumash_Purisimeño [veo-2],34.69,-120.43,#33488D,Chumashan,South Chumashan,USA
Chumash_Ventureño [veo],34.22,-118.72,#34538D,Chumashan,South Chumashan,USA
Chumash_Ventureño-Mitsqanaqan [veo-3],34.28,-119.23,#33548E,Chumashan,South Chumashan,USA
Chumburung [ncu],8.15,-0.28,#5E9BA7,Niger-Kongo,Atlantic-Congo,Ghana
Chung [scq],14.004,99.55,#6F82B7,Austroasiatic,Pearic,Laos
Chungcheong_Korean [kor-6],35.83,127.15,#4CA08B,Korean,,Korea
Chungli Ao [njo-5],26.32,94.52,#578F9A,Tibeto-Burman,Kuki-Chin-Naga,India
Chuukese [chk],7.333,151.75,#A0A47B,Oceanic,Micronesian,USA Federated States of Micronesia
Chuvash [chv],55.5,47.5,#7E9570,Turkic,Oghur,Russia
Chuwabu [chw],-17.36,37.1,#6C86B9,Niger-Kongo,Atlantic-Congo,Mozambique
Chuxnabán_Mixe [pxm],17,-96,#56986A,Totozoquean-Chitimacha,Totozoquean,Mexico
Ciacia [cia],-5.75,122.75,#8A9C73,Malayo-Polynesian,Celebic,Indonesia-Sulawesi
Cicipu [awc],10.911,5.703,#227A94,Niger-Kongo,Atlantic-Congo,Nigeria
Cijomvu [swh-11],-3.98,39.62,#6C6CAE,Niger-Kongo,Atlantic-Congo,Tanzania
CiLuba [lua],-6,22,#499B90,Niger-Kongo,Atlantic-Congo,Democratic Republic of the Congo
Cimbrian [cim],45.62,11.13,#4677B5,Indo-European,Germanic,Italy
Cisuundi [sdj],-5.56,12.19,#388B8C,Niger-Kongo,Atlantic-Congo,Angola
Citak [tml],-5.509,139.218,#A49B50,Trans New Guinea,Asmat-Kamoro,Indonesia-Papua
Citumbuka [tum],-11,33.5,#5689A7,Niger-Kongo,Atlantic-Congo,Malawi
Coahuilteco [xcw],28,-100,#3E5F6C,Pakawan,,USA
Coast Yuki [yuk-3],39.53,-123.76,#694D72,Wappo-Yukian,North Wappo-Yukian,USA
Cocama-Cocamilla [cod],-5,-74.3,#B58A59,Tupian,Tupi-Guarani,Peru
Cochimi [coj],27.28,-112.89,#686162,Yuman-Cochimi,Cochimi,Mexico
Coconucan [cca],2.55,-76.65,#AC7E64,Barbacoan,Northern Barbacoan,Colombia
Cocopa [coc],32.5,-115,#8A5269,Yuman-Cochimi,Yuman,USA
Coeur d'Alene [crd],47.33,-117,#432878,Salish,Interior Salish,USA
Cofan [con],0.25,-77,#348881,Kofan,,Ecuador
Cog-rtse_rGyalrong-2 [jya-5],31.5,102,#526EAD,Tibeto-Burman,Na-Qiangic,China
Cognino [ita-12],45.61,7.36,#508FA9,Indo-European,Romance,Italy
Cogtse Gyarong [jya],32.1,100.6,#5B69B8,Tibeto-Burman,Na-Qiangic,China
Col [liw],-3.3,102.86,#A88B7D,Malayo-Polynesian,Malayo-Sumbawan,Indonesia-Sumatra
Colac [xxx-42],-38.33,143.5,#F4769C,Pama-Nyungan,Kulinic,Australia
Colloquial_Tamil [tam-7],9.23,78.12,#B47C9D,Dravidian,South Dravidian,India
Columbian [col-2],48.22,-118.45,#4E216F,Salish,Interior Salish,USA
Comacchiese [ita-31],44.7,12.18,#5694A3,Indo-European,Romance,Italy
